Equipment,Place,Name,BirthYear,BodyweightKg,Bench1Kg,Bench2Kg,Bench3Kg,Best3BenchKg,WeightClassKg,Division,Sex,CyrillicName,Squat1Kg,Squat2Kg,Squat3Kg,Best3SquatKg,Deadlift1Kg,Deadlift2Kg,Deadlift3Kg,Best3DeadliftKg,TotalKg,Event
Raw,1,Anastasiya Khonina,1993,43.6,52.5,-57.5,57.5,57.5,44,Pro Open,F,Анастасия Хонина,,,,,,,,,57.5,B
Raw,2,Tatyana Dzhanpoladova,1984,47,45,-50,-50,45,48,Pro Open,F,Татьяна Джанполадова,,,,,,,,,45,B
Raw,1,Yekaterina Shkolnaya,1993,51.35,45,-47.5,47.5,47.5,52,Pro Open,F,Екатерина Школьная,,,,,,,,,47.5,B
Raw,1,Irina Ignatovich,1982,54.9,67.5,72.5,-75,72.5,56,Pro Open,F,Ирина Игнатович,,,,,,,,,72.5,B
Raw,2,Veronika Rudnevskaya,1974,54.2,50,55,57.5,57.5,56,Pro Open,F,Вероника Рудневская,,,,,,,,,57.5,B
Raw,3,Polina Turygina,1985,55.35,47.5,52.5,-55,52.5,56,Pro Open,F,Полина Турыгина,,,,,,,,,52.5,B
Raw,1,Anna Turaeva,1978,76,110,-117.5,117.5,117.5,82.5,Pro Open,F,Анна Тураева,,,,,,,,,117.5,B
Raw,DQ,Natalya Kirillova,1977,82.5,-85,-85,-85,,82.5,Pro Open,F,Наталья Кириллова,,,,,,,,,,B
Raw,1,Vladimir Krivulya,1991,47.4,127.5,132.5,135,135,52,Pro Open,M,Владимир Кривуля,,,,,,,,,135,B
Raw,2,Vladislav Chabrovskiy,1992,48.9,100,105,-107.5,105,52,Pro Open,M,Владислав Чабровский,,,,,,,,,105,B
Raw,3,Dmitriy Kachan,,43.75,87.5,92.5,-95,92.5,52,Pro Open,M,Дмитрий Качан,,,,,,,,,92.5,B
Raw,4,Andrey Tkachenko,1968,47.5,85,90,-95,90,52,Pro Open,M,Андрей Ткаченко,,,,,,,,,90,B
Raw,1,Vladislav Ptitsyn,1987,56,130,,,130,56,Pro Open,M,Владислав Птицын,,,,,,,,,130,B
Raw,2,Vasiliy Bibas,1990,54.25,-70,75,,75,56,Pro Open,M,Василий Бибас,,,,,,,,,75,B
Raw,3,Vadim Skiperskiy,1994,55.9,-60,60,-65,60,56,Pro Open,M,Вадим Скиперский,,,,,,,,,60,B
Raw,1,Aleksey Anfimov,1983,60,-125,125,130,130,60,Pro Open,M,Алексей Анфимов,,,,,,,,,130,B
Raw,2,Aziz Osmanov,1991,59.4,-75,75,82.5,82.5,60,Pro Open,M,Азиз Османов,,,,,,,,,82.5,B
Raw,3,Sergey Guliev,1994,58,75,-80,-80,75,60,Pro Open,M,Сергей Гулиев,,,,,,,,,75,B
Raw,1,Aleksandr Kolodko,1983,67.25,130,140,-145,140,67.5,Pro Open,M,Александр Колодько,,,,,,,,,140,B
Raw,2,Andrey Redkozub,1982,66.75,120,125,127.5,127.5,67.5,Pro Open,M,Андрей Редкозуб,,,,,,,,,127.5,B
Raw,3,Pavel Mironov,1988,63.5,122.5,-127.5,-127.5,122.5,67.5,Pro Open,M,Павел Миронов,,,,,,,,,122.5,B
Raw,4,Yuriy Goryunov,1987,67.05,110,115,-125,115,67.5,Pro Open,M,Юрий Горюнов,,,,,,,,,115,B
Raw,5,Mikhail Vargatyuk,1979,65.75,-80,80,-90,80,67.5,Pro Open,M,Михаил Варгатюк,,,,,,,,,80,B
Raw,1,Sergey Krastelev,1983,74.3,170,-180,-180,170,75,Pro Open,M,Сергей Крастелев,,,,,,,,,170,B
Raw,2,Maksim Volkov,1984,71.6,140,-145,145,145,75,Pro Open,M,Максим Волков,,,,,,,,,145,B
Raw,3,Renat Timushev,1978,73.2,140,-150,-150,140,75,Pro Open,M,Ренат Тимушев,,,,,,,,,140,B
Raw,4,Anton Litvintsev,1985,74.5,140,-155,-155,140,75,Pro Open,M,Антон Литвинцев,,,,,,,,,140,B
Raw,5,Oleg Osipov,1986,73,135,-140,-140,135,75,Pro Open,M,Олег Осипов,,,,,,,,,135,B
Raw,6,Maksim Dvernikov,1986,73.9,122.5,-127.5,-127.5,122.5,75,Pro Open,M,Максим Дверников,,,,,,,,,122.5,B
Raw,7,Ali Tebuev,1978,73.25,110,-120,120,120,75,Pro Open,M,Али Тебуев,,,,,,,,,120,B
Raw,8,Aleksey Gorbunov,1985,74.35,-95,95,-100,95,75,Pro Open,M,Алексей Горбунов,,,,,,,,,95,B
Raw,9,Arkadiy Simonyan,1990,73.65,70,80,-90,80,75,Pro Open,M,Аркадий Симонян,,,,,,,,,80,B
Raw,1,Sergey Grishko,1980,78.6,180,-190,-200,180,82.5,Pro Open,M,Сергей Гришко,,,,,,,,,180,B
Raw,2,Evgeniy Belyaev,1978,81.05,140,155,-160,155,82.5,Pro Open,M,Евгений Беляев,,,,,,,,,155,B
Raw,3,Evgeniy Nazarov,1973,81.65,-142.5,-142.5,142.5,142.5,82.5,Pro Open,M,Евгений Назаров,,,,,,,,,142.5,B
Raw,4,Roman Myasischev,1978,82.15,132.5,140,-145,140,82.5,Pro Open,M,Роман Мясищев,,,,,,,,,140,B
Raw,5,Sergey Trishkin,1984,82.5,132.5,140,-145,140,82.5,Pro Open,M,Сергей Тришкин,,,,,,,,,140,B
Raw,6,Maksim Zhuravlev,1979,78.6,130,-137.5,-137.5,130,82.5,Pro Open,M,Максим Журавлев,,,,,,,,,130,B
Raw,7,Vitaliy Ryzhkov,1988,82.25,110,-122.5,-122.5,110,82.5,Pro Open,M,Виталий Рыжков,,,,,,,,,110,B
Raw,DQ,Dmitriy Arutyunov,1988,77.65,-110,-125,-130,,82.5,Pro Open,M,Дмитрий Арутюнов,,,,,,,,,,B
Raw,1,Sergey Koshkin,1971,86.3,215,225,-232.5,225,90,Pro Open,M,Сергей Кошкин,,,,,,,,,225,B
Raw,2,Andrey Makarenkov,1985,86.15,160,-170,-170,160,90,Pro Open,M,Андрей Макаренков,,,,,,,,,160,B
Raw,3,Aleksandr Babenko,1985,87.85,145,155,-165,155,90,Pro Open,M,Александр Бабенко,,,,,,,,,155,B
Raw,4,Vyacheslav Ladygin,1979,87.05,-150,150,-160,150,90,Pro Open,M,Вячеслав Ладыгин,,,,,,,,,150,B
Raw,5,Aleksandr Deev,1981,89.65,150,-162.5,-162.5,150,90,Pro Open,M,Александр Деев,,,,,,,,,150,B
Raw,6,Andrey Darkevich,1974,88.15,-122.5,-127.5,127.5,127.5,90,Pro Open,M,Андрей Даркевич,,,,,,,,,127.5,B
Raw,DQ,Roman Ulanskiy,1985,87,-160,-185,,,90,Pro Open,M,Роман Уланский,,,,,,,,,,B
Raw,1,Aslambek Abaev,1959,96.15,190,200,205,205,100,Pro Open,M,Асламбек Абаев,,,,,,,,,205,B
Raw,2,Azamat Kochkarov,1983,99.9,190,200,-202.5,200,100,Pro Open,M,Азамат Кочкаров,,,,,,,,,200,B
Raw,3,Armen Shakhnazaryan,1976,99.5,185,192.5,-202.5,192.5,100,Pro Open,M,Армен Шахназарян,,,,,,,,,192.5,B
Raw,4,Dmitriy Pys,1986,96.4,180,-185,-185,180,100,Pro Open,M,Дмитрий Пысь,,,,,,,,,180,B
Raw,5,Aleksandr Moiseev,1983,97.85,160,170,-175,170,100,Pro Open,M,Александр Моисеев,,,,,,,,,170,B
Raw,6,Zaurbek Bugulov,1986,95.15,160,-175,-175,160,100,Pro Open,M,Заурбек Бугулов,,,,,,,,,160,B
Raw,7,Denis Sednev,1969,99.8,-160,160,-165,160,100,Pro Open,M,Денис Седнев,,,,,,,,,160,B
Raw,8,Aleksey Golovan,1978,98.9,110,-125,-125,110,100,Pro Open,M,Алексей Головань,,,,,,,,,110,B
Raw,1,Antoniy Tedeev,1986,102.95,180,185,192.5,192.5,110,Pro Open,M,Антоний Тедеев,,,,,,,,,192.5,B
Raw,2,Aleksey Petrukhin,1987,108.3,180,190,-195,190,110,Pro Open,M,Алексей Петрухин,,,,,,,,,190,B
Raw,3,Aleksandr Ionov,1981,102.9,-170,175,182.5,182.5,110,Pro Open,M,Александр Ионов,,,,,,,,,182.5,B
Raw,4,Aleksandr Bochkaryov,1981,103.15,170,180,-185,180,110,Pro Open,M,Александр Бочкарёв,,,,,,,,,180,B
Raw,5,Yuriy Dementyev,1983,106.8,170,180,-187.5,180,110,Pro Open,M,Юрий Дементьев,,,,,,,,,180,B
Raw,6,Aleksandr Vetrov,1976,109.2,-180,180,-190,180,110,Pro Open,M,Александр Ветров,,,,,,,,,180,B
Raw,7,Roman Lukoshkin,1975,104.95,170,175,-180,175,110,Pro Open,M,Роман Лукошкин,,,,,,,,,175,B
Raw,8,Vadim Bespalov,1979,105.3,-165,170,172.5,172.5,110,Pro Open,M,Вадим Беспалов,,,,,,,,,172.5,B
Raw,9,Artem Shipulin,1980,101.9,150,160,-165,160,110,Pro Open,M,Артем Шипулин,,,,,,,,,160,B
Raw,DQ,Vitaliy Ermakov,1971,103.7,-140,-150,-150,,110,Pro Open,M,Виталий Ермаков,,,,,,,,,,B
Raw,1,Sergey Starodubskiy,1977,111,202.5,215,,215,125,Pro Open,M,Сергей Стародубский,,,,,,,,,215,B
Raw,2,Oleg Khapaev,1964,116.6,205,-210,210,210,125,Pro Open,M,Олег Хапаев,,,,,,,,,210,B
Raw,3,Mikhail Toropov,1960,114.6,135,145,150,150,125,Pro Open,M,Михаил Торопов,,,,,,,,,150,B
Raw,1,Vyacheslav Prikhodko,1968,125.3,210,220,-230,220,140,Pro Open,M,Вячеслав Приходько,,,,,,,,,220,B
Raw,2,Aleksandr Korshkov,1986,127,215,-222.5,-222.5,215,140,Pro Open,M,Александр Коршков,,,,,,,,,215,B
Raw,1,Vadim Korkin,1975,167,200,210,215,215,140+,Pro Open,M,Вадим Коркин,,,,,,,,,215,B
Raw,2,Sergey Novikov #4,1974,140.1,180,200,-210,200,140+,Pro Open,M,Сергей Новиков,,,,,,,,,200,B
Wraps,1,Irina Ignatovich,1982,54.9,70,-75,-75,70,56,Pro Open,F,Ирина Игнатович,100,110,,110,120,130,,130,310,SBD
Wraps,2,Veronika Rudnevskaya,1974,54.2,50,-55,55,55,56,Pro Open,F,Вероника Рудневская,-90,-90,90,90,100,110,-115,110,255,SBD
Wraps,3,Polina Turygina,1985,55.35,52.5,-55,-55,52.5,56,Pro Open,F,Полина Турыгина,70,-77.5,77.5,77.5,80,85,90,90,220,SBD
Wraps,4,Natalya Petrienko,1989,55,40,42.5,-45,42.5,56,Pro Open,F,Наталья Петриенко,70,-80,-82.5,70,80,-87.5,87.5,87.5,200,SBD
Wraps,1,Vladislav Ptitsyn,1987,56,130,137.5,-142.5,137.5,56,Pro Open,M,Владислав Птицын,150,-160,-160,150,120,-130,,120,407.5,SBD
Wraps,2,Aleksandr Anokhin,1983,55.85,70,-75,,70,56,Pro Open,M,Александр Анохин,-85,85,90,90,125,135,145,145,305,SBD
Wraps,3,Vasiliy Bibas,1990,54.25,70,75,,75,56,Pro Open,M,Василий Бибас,90,97.5,-102.5,97.5,110,117.5,-122.5,117.5,290,SBD
Wraps,1,Aleksey Okunev,1975,59.01,105,-110,-110,105,60,Pro Open,M,Алексей Окунев,140,-145,,140,160,175,190,190,435,SBD
Wraps,1,Andrey Redkozub,1982,66.75,120,125,-130,125,67.5,Pro Open,M,Андрей Редкозуб,-140,145,-150,145,170,-180,185,185,455,SBD
Wraps,2,Artem Krylov,1990,66.85,-105,-105,105,105,67.5,Pro Open,M,Артем Крылов,140,150,155,155,170,-180,-180,170,430,SBD
Wraps,3,Pavel Mironov,1988,63.5,-120,125,-130,125,67.5,Pro Open,M,Павел Миронов,120,127.5,135,135,150,157.5,-160,157.5,417.5,SBD
Wraps,4,Yaroslav Nosal,1985,60.6,-90,-90,90,90,67.5,Pro Open,M,Ярослав Носаль,100,110,115,115,150,160,165,165,370,SBD
Wraps,5,Vardan Shovgaryan,1989,67.5,70,80,,80,67.5,Pro Open,M,Вардан Шовгарян,110,-120,130,130,120,140,155,155,365,SBD
Wraps,6,Forvard Kolesnikov,1989,63.8,75,80,,80,67.5,Pro Open,M,Форвард Колесников,-105,105,115,115,125,140,147.5,147.5,342.5,SBD
Wraps,7,Sergey Volodin,1987,65.5,-60,65,-70,65,67.5,Pro Open,M,Сергей Володин,80,-90,-90,80,110,120,-130,120,265,SBD
Wraps,8,Ivan Afanasyev,1987,61.95,110,-115,115,115,67.5,Pro Open,M,Иван Афанасьев,130,,135,135,-155,-155,-155,,250,SBD
Wraps,DQ,Yuriy Bugaev,1989,64.7,,,,,67.5,Pro Open,M,Юрий Бугаев,-110,,,,,,,,,SBD
Wraps,1,Tamaz Tsopurashvili,1981,75,-140,140,-145,140,75,Pro Open,M,Тамаз Цопурашвили,190,197.5,202.5,202.5,200,210,-220,210,552.5,SBD
Wraps,2,Denis Podgornyy,1977,74.4,125,-135,-135,125,75,Pro Open,M,Денис Подгорный,160,170,,170,220,240,,240,535,SBD
Wraps,3,Sevak Gogchyan,1989,74.2,112.5,-117.5,-117.5,112.5,75,Pro Open,M,Севак Гогчян,152.5,157.5,-162.5,157.5,202.5,212.5,-217.5,212.5,482.5,SBD
Wraps,4,Aleksandr Germanov,1985,73.5,-105,110,-117.5,110,75,Pro Open,M,Александр Германов,170,180,-187.5,180,165,177.5,187.5,187.5,477.5,SBD
Wraps,5,Zaur Guseynov,1986,69.5,110,115,-117.5,115,75,Pro Open,M,Заур Гусейнов,145,-155,-155,145,170,180,185,185,445,SBD
Wraps,6,Vladimir Berngardt,1980,74.55,110,115,-120,115,75,Pro Open,M,Владимир Бернгардт,135,-142.5,-150,135,170,180,-190,180,430,SBD
Wraps,7,Vladimir Rybalko,1987,70.5,115,-120,120,120,75,Pro Open,M,Владимир Рыбалко,115,125,-130,125,160,170,180,180,425,SBD
Wraps,8,Sergey Ryabykh,1987,71.3,110,115,-117.5,115,75,Pro Open,M,Сергей Рябых,135,145,-150,145,155,160,,160,420,SBD
Wraps,9,Aleksey Gusakov,1992,71.75,80,85,-90,85,75,Pro Open,M,Алексей Гусаков,130,135,140,140,160,170,-180,170,395,SBD
Wraps,10,Pavel Shaposhnikov,1990,72.95,80,85,90,90,75,Pro Open,M,Павел Шапошников,105,115,-120,115,120,130,140,140,345,SBD
Wraps,DQ,Karen Sarkisov,1991,71.6,,,,,75,Pro Open,M,Карен Саркисов,-130,-130,-135,,,,,,,SBD
Wraps,1,Vladimir Svetlichny,1988,82.25,140,150,-155,150,82.5,Pro Open,M,Владимир Светличный,-220,-225,225,225,225,255,275,275,650,SBD
Wraps,2,Aleksandr Nosal,1986,81.6,-120,125,-130,125,82.5,Pro Open,M,Александр Носаль,170,180,-185,180,210,220,-230,220,525,SBD
Wraps,3,Grigoriy Ukolov,1985,79.5,130,-135,-135,130,82.5,Pro Open,M,Григорий Уколов,170,180,-187.5,180,190,200,210,210,520,SBD
Wraps,4,Ruben Vartanov,1992,82.5,100,-112.5,112.5,112.5,82.5,Pro Open,M,Рубен Вартанов,-140,-150,155,155,150,170,180,180,447.5,SBD
Wraps,5,Eduard Golyachenko,1992,78.6,100,-105,105,105,82.5,Pro Open,M,Эдуард Голяченко,-140,-150,150,150,150,160,165,165,420,SBD
Wraps,1,Vitaliy Tereschenko #1,1974,85.4,140,150,-155,150,90,Pro Open,M,Віталій Терещенко,210,220,230,230,260,-280,-280,260,640,SBD
Wraps,2,Aleksandr Babenko,1985,87.85,-150,150,160,160,90,Pro Open,M,Александр Бабенко,190,200,-205,200,230,245,-255,245,605,SBD
Wraps,3,Ilya Timko,1984,89.6,115,120,-122.5,120,90,Pro Open,M,Илья Тимко,180,190,,190,210,220,230,230,540,SBD
Wraps,4,Dmitriy Funtov,1991,86.5,120,130,137.5,137.5,90,Pro Open,M,Дмитрий Фунтов,-160,-160,160,160,200,220,-230,220,517.5,SBD
Wraps,5,Sergey Dedkov,1986,87.2,-110,110,115,115,90,Pro Open,M,Сергей Дедков,160,-170,-170,160,190,202.5,212.5,212.5,487.5,SBD
Wraps,6,Evgeniy Yavorskiy,1986,82.85,115,-120,-120,115,90,Pro Open,M,Евгений Яворский,-160,160,-170,160,-165,165,-170,165,440,SBD
Wraps,1,Gegam Kakoyan,1984,97.2,170,177.5,185,185,100,Pro Open,M,Гегам Какоян,240,250,260,260,270,285,300,300,745,SBD
Wraps,2,Vitaliy Sorokotyagin,1981,98.65,160,-170,-170,160,100,Pro Open,M,Виталий Сорокотягин,200,210,220,220,220,230,,230,610,SBD
Wraps,3,Ilya Kabykhnov,1984,96.6,120,130,-135,130,100,Pro Open,M,Илья Кабыхнов,170,180,-185,180,210,225,235,235,545,SBD
Wraps,4,Andrey Scherban,1987,99.5,125,130,-135,130,100,Pro Open,M,Андрей Щербань,140,155,170,170,210,220,-235,220,520,SBD
Wraps,5,Aleksey Kasharin,1982,97.6,115,120,125,125,100,Pro Open,M,Алексей Кашарин,-150,150,155,155,190,205,-215,205,485,SBD
Wraps,6,Igor Tsybulnikov,1991,91.45,70,-85,90,90,100,Pro Open,M,Игорь Цыбульников,110,125,135,135,130,165,-180,165,390,SBD
Wraps,7,Pavel Startsev,1989,94.65,110,-120,-120,110,100,Pro Open,M,Павел Старцев,190,-200,-200,190,210,-220,,210,510,SBD
Wraps,1,Alexander Mitrofanov,1985,100.7,170,180,-185,180,110,Pro Open,M,Александр Митрофанов,250,270,-285,270,270,290,302.5,302.5,752.5,SBD
Wraps,2,Andrey Ayvazov,1982,105.6,150,175,-185,175,110,Pro Open,M,Андрей Айвазов,250,-260,-270,250,297.5,317.5,-330,317.5,742.5,SBD
Wraps,3,Artyom Shekhovtsov,1985,104.35,140,-147.5,,140,110,Pro Open,M,Артём Шеховцов,205,215,225,225,245,260,275,275,640,SBD
Wraps,1,Sergey Starodubskiy,1977,111,205,217.5,225,225,125,Pro Open,M,Сергей Стародубский,305,325,-332.5,325,310,325,-335,325,875,SBD
Wraps,2,Valeriy Pazyura,1976,113.3,170,180,-190,180,125,Pro Open,M,Валерий Пазюра,-240,-240,250,250,280,302.5,,302.5,732.5,SBD
Wraps,3,Pavel Siryak,1986,112.4,160,165,-172.5,165,125,Pro Open,M,Павел Сиряк,-200,210,220,220,230,245,260,260,645,SBD
Wraps,4,Aleksandr Shishkin,1984,110.7,135,-140,140,140,125,Pro Open,M,Александр Шишкин,200,210,225,225,220,240,250,250,615,SBD
Wraps,1,Valeriy Snigirev,1977,137.95,230,240,-250,240,140,Pro Open,M,Валерий Снигирев,280,300,320,320,320,-340,-350,320,880,SBD
