Equipment,Tested,Place,Name,Division,BirthYear,Country,BodyweightKg,Squat1Kg,Squat2Kg,Squat3Kg,Best3SquatKg,Bench1Kg,Bench2Kg,Bench3Kg,Best3BenchKg,Bench4Kg,Deadlift1Kg,Deadlift2Kg,Deadlift3Kg,Best3DeadliftKg,Deadlift4Kg,TotalKg,WeightClassKg,Sex,CyrillicName,Event
Wraps,Yes,1,Elena Ezhova,Amateur Teen 16-17,1997,Russia,42.9,55,-57.5,57.5,57.5,45,-50.5,-50.5,45,,70,-77.5,-77.5,70,,172.5,44,F,Елена Ежова,SBD
Wraps,Yes,DQ,Anna Demina,Amateur Juniors 20-23,1994,Russia,51.8,-90,-100,-100,,,,,,,,,,,,,52,F,Анна Демина,SBD
Wraps,Yes,1,Tatyana Neustroeva,Amateur Open,1990,Russia,51.45,75,-82.5,-82.5,75,37.5,42.5,-45,42.5,,-100,-110,110,110,,227.5,52,F,Татьяна Неустроева,SBD
Wraps,Yes,1,Mariya Potyrina,Amateur Teen 16-17,1998,Russia,54.7,85,-92.5,-92.5,85,37.5,40,42.5,42.5,,90,97.5,,97.5,,225,56,F,Мария Потырина,SBD
Wraps,Yes,2,Elena Belyaeva,Amateur Teen 16-17,1997,Russia,55.45,65,70,-75,70,30,-37.5,-37.5,30,,90,-100,100,100,,200,56,F,Елена Беляева,SBD
Wraps,Yes,1,Anna Alabusheva,Amateur Open,1990,Russia,55.1,-95,-95,95,95,60,65,-67.5,65,,120,125,130,130,,290,56,F,Анна Алабушева,SBD
Wraps,Yes,2,Alena Ryabikova,Amateur Open,1980,Russia,55.3,-85,90,-95,90,47.5,50,-52.5,50,,117.5,125,130,130,,270,56,F,Алена Рябикова,SBD
Wraps,Yes,1,Natalya Kolobova,Amateur Open,1982,Russia,60,-112.5,-112.5,112.5,112.5,60,-65,-65,60,,115,125,-135,125,,297.5,60,F,Наталья Колобова,SBD
Wraps,Yes,DQ,Elena Dokuchaeva,Amateur Open,1985,Russia,59.8,-85,-85,-85,,,,,,,,,,,,,60,F,Елена Докучаева,SBD
Wraps,Yes,1,Kseniya Fedorova,Amateur Teen 14-15,1999,Russia,71.6,60,-65,65,65,30,32.5,-35,32.5,,70,80,90,90,,187.5,75,F,Ксения Федорова,SBD
Wraps,Yes,1,Olga Rastorgueva,Amateur Open,1990,Russia,74.35,-102.5,102.5,110,110,70,77.5,80,80,,110,120,130,130,,320,75,F,Ольга Расторгуева,SBD
Wraps,Yes,1,Ignat Evstafyev,Amateur Teen 16-17,1998,Russia,56,120,127.5,-135,127.5,75,80,85,85,,120,130,-137.5,130,,342.5,56,M,Игнат Евстафьев,SBD
Wraps,Yes,2,Aleksandr Tomilin,Amateur Teen 16-17,1998,Russia,54.75,100,105,-110,105,65,70,75,75,,127.5,135,-145,135,,315,56,M,Александр Томилин,SBD
Wraps,Yes,1,Ivan Mikheev,Amateur Juniors 20-23,1994,Russia,53.85,-155,165,175,175,100,110,115,115,,110,125,130,130,,420,56,M,Иван Михеев,SBD
Wraps,Yes,1,Anton Serdyukov,Amateur Teen 16-17,1997,Russia,58.45,115,120,125,125,-80,80,85,85,,145,150,-152.5,150,,360,60,M,Антон Сердюков,SBD
Wraps,Yes,1,Nikita Kvashnin,Amateur Teen 14-15,2000,Russia,66.2,75,85,92.5,92.5,45,55,62.5,62.5,,95,110,-125,110,,265,67.5,M,Никита Квашнин,SBD
Wraps,Yes,1,Stepan Kocheshkov,Amateur Juniors 20-23,1994,Russia,67.3,150,-160,,150,90,95,-100,95,,205,210,-215,210,,455,67.5,M,Степан Кочешков,SBD
Wraps,Yes,1,Aleksandr Pyankov,Amateur Open,1983,Russia,67.1,145,152.5,160,160,95,102.5,-107.5,102.5,,170,182.5,-190,182.5,,445,67.5,M,Александр Пьянков,SBD
Wraps,Yes,1,Andrey Sharapov,Amateur Teen 16-17,1999,Russia,72.2,150,160,167.5,167.5,115,120,-122.5,120,,180,197.5,-205,197.5,,485,75,M,Андрей Шарапов,SBD
Wraps,Yes,2,Aleksandr Zakhvatov,Amateur Teen 16-17,1998,Russia,70.85,145,-150,150,150,90,95,-100,95,,195,-205,-205,195,,440,75,M,Александр Захватов,SBD
Wraps,Yes,1,Konstantin Savin,Amateur Teen 18-19,1996,Russia,71.4,140,-150,150,150,95,100,102.5,102.5,,165,170,177.5,177.5,,430,75,M,Константин Савин,SBD
Wraps,Yes,1,Evgeniy Belykh,Amateur Open,1985,Russia,73.1,175,180,-185,180,120,125,-127.5,125,,200,-210,210,210,,515,75,M,Евгений Белых,SBD
Wraps,Yes,2,Dmitriy Korshunov,Amateur Open,1986,Russia,68.6,140,-150,-150,140,95,100,-105,100,,150,160,170,170,,410,75,M,Дмитрий Коршунов,SBD
Wraps,Yes,DQ,Evgeniy Bykov,Amateur Open,1984,Russia,73.5,170,-180,-180,170,115,122.5,125,125,,-212.5,-222.5,-222.5,,,,75,M,Евгений Быков,SBD
Wraps,Yes,1,Boris Kharlamov,Amateur Teen 16-17,1997,Russia,80.4,160,170,-175,170,-95,95,-102.5,95,,-190,190,192.5,192.5,,457.5,82.5,M,Борис Харламов,SBD
Wraps,Yes,2,Oleg Baranov,Amateur Teen 16-17,1998,Russia,76.55,-160,165,175,175,90,95,-100,95,,170,180,185,185,,455,82.5,M,Олег Баранов,SBD
Wraps,Yes,3,Nikita Guryev,Amateur Teen 16-17,1998,Russia,81.8,110,120,130,130,75,82.5,-90,82.5,,140,155,170,170,,382.5,82.5,M,Никита Гурьев,SBD
Wraps,Yes,1,Andrey Antonov,Amateur Teen 18-19,1995,Russia,80.9,-185,185,-195,185,-125,125,-130,125,,235,247.5,262.5,262.5,,572.5,82.5,M,Андрей Антонов,SBD
Wraps,Yes,1,Aleksandr Trepakov,Amateur Juniors 20-23,1994,Russia,81.1,162.5,167.5,,167.5,115,120,,120,,190,215,-222.5,215,,502.5,82.5,M,Александр Трепаков,SBD
Wraps,Yes,1,Matvey Kozikov,Amateur Open,1989,Russia,81.25,-160,162.5,170,170,120,-127.5,-127.5,120,,200,215,-225,215,,505,82.5,M,Матвей Козиков,SBD
Wraps,Yes,DQ,Andrey Khlebnikov,Amateur Open,1983,Russia,79,-180,-180,-180,,-130,,,,,,,,,,,82.5,M,Андрей Хлебников,SBD
Wraps,Yes,DQ,Roman Mokichev,Amateur Open,1982,Russia,80.1,-155,,,,,,,,,,,,,,,82.5,M,Роман Мокичев,SBD
Wraps,Yes,DQ,Stanislav Roganov,Amateur Open,1989,Russia,80.6,130,-150,,130,-120,-120,-120,,,,,,,,,82.5,M,Станислав Роганов,SBD
Wraps,Yes,DQ,Yaroslav Kartsev,Amateur Open,1989,Russia,82,180,-195,-195,180,-122.5,-122.5,,,,,,,,,,82.5,M,Ярослав Карцев,SBD
Wraps,Yes,1,Stanislav Melnikov,Amateur Teen 16-17,1998,Russia,86.9,120,-127.5,,120,90,-95,,90,,130,160,180,180,,390,90,M,Станислав Мельников,SBD
Wraps,Yes,1,Dmitriy Baranovskiy,Amateur Teen 18-19,1997,Russia,89.95,-200,200,210,210,145,-152.5,-152.5,145,,-230,230,240,240,,595,90,M,Дмитрий Барановский,SBD
Wraps,Yes,2,Zaur Ibragimov,Amateur Teen 18-19,1995,Russia,89,180,190,-195,190,115,120,122.5,122.5,,190,-200,200,200,,512.5,90,M,Заур Ибрагимов,SBD
Wraps,Yes,1,Kirill Beloglazov,Amateur Juniors 20-23,1991,Russia,89.8,185,195,205,205,125,-135,-140,125,,210,225,230,230,,560,90,M,Кирилл Белоглазов,SBD
Wraps,Yes,1,Amridim Nurov,Amateur Open,1982,Russia,85.8,200,210,215,215,120,-125,-125,120,,220,235,240,240,,575,90,M,Амридин Нуров,SBD
Wraps,Yes,2,David Abramyan,Amateur Open,1991,Russia,85.65,-200,210,-220,210,-145,147.5,-155,147.5,,200,215,-230,215,,572.5,90,M,Давид Абрамян,SBD
Wraps,Yes,3,Sergey Stepanov,Amateur Open,1988,Russia,87.25,180,-185,185,185,120,-125,125,125,,235,240,245,245,,555,90,M,Сергей Степанов,SBD
Wraps,Yes,4,Ivan Ivanov #23,Amateur Open,1985,Russia,87.5,170,-180,185,185,120,130,135,135,,200,222.5,,222.5,,542.5,90,M,Иван Иванов,SBD
Wraps,Yes,1,Vyacheslav Myasnikov,Amateur Masters 40-44,1970,Russia,89.55,200,215,-225,215,130,-140,-140,130,,220,-230,,220,,565,90,M,Вячеслав Мясников,SBD
Wraps,Yes,2,Ildar Rakhimov,Amateur Masters 40-44,1973,Russia,89.35,170,-180,-180,170,-110,115,-120,115,,160,170,180,180,,465,90,M,Ильдар Рахимов,SBD
Wraps,Yes,1,Adilet Bakytov,Amateur Juniors 20-23,1991,Kyrgyzstan,95.9,190,-200,200,200,150,155,-157.5,155,,230,240,250,250,,605,100,M,,SBD
Wraps,Yes,1,Yuriy Suslov,Amateur Open,1986,Russia,98.2,-180,185,-197.5,185,140,145,150,150,,265,280,-290,280,,615,100,M,Юрий Суслов,SBD
Wraps,Yes,2,Pavel Popandopulo,Amateur Open,1985,Russia,94.85,180,-190,190,190,130,140,-145,140,,240,260,-270,260,,590,100,M,Павел Попандопуло,SBD
Wraps,Yes,3,Aleksey Mikov,Amateur Open,1978,Russia,93.45,170,185,195,195,140,155,160,160,,190,210,220,220,,575,100,M,Алексей Миков,SBD
Wraps,Yes,4,Dmitriy Kuklin,Amateur Open,1990,Russia,95.65,180,190,-202.5,190,145,-150,152.5,152.5,,190,,,190,,532.5,100,M,Дмитрий Куклин,SBD
Wraps,Yes,DQ,Roman Skorkin,Amateur Open,1986,Russia,109.2,-185,-185,-185,,140,,,140,,242.5,,,242.5,,,110,M,Роман Скоркин,SBD
Wraps,Yes,1,Arkadiy Chernavskikh,Amateur Masters 60-64,1953,Russia,106.9,190,-200,200,200,125,132.5,-135,132.5,,200,215,-220,215,,547.5,110,M,Аркадий Чернавских,SBD
Wraps,Yes,1,Sergey Kudryavtsev,Amateur Masters 40-44,1974,Russia,114.1,200,205,210,210,170,-175,,170,,200,220,-235,220,,600,125,M,Сергей Кудрявцев,SBD
Wraps,Yes,1,Anatoliy Pimurzin,Amateur Open,1983,Russia,134.5,250,-265,265,265,160,175,-180,175,,250,270,290,290,,730,140,M,Анатолий Пимурзин,SBD
Multi-ply,Yes,1,Valeriya Tretyakova,Amateur Teen 16-17,1997,Russia,46.7,90,-102.5,-105,90,-47.5,-47.5,47.5,47.5,,70,80,-85,80,,217.5,48,F,Валерия Третьякова,SBD
Multi-ply,Yes,1,Liliya Kondratyeva,Amateur Open,1986,Russia,55.45,-110,110,-122.5,110,60,65,67.5,67.5,,110,-137.5,,110,,287.5,56,F,Лилия Кондратьева,SBD
Multi-ply,Yes,1,Alena Baturina,Amateur Juniors 20-23,1994,Russia,67.4,200,-215,-220,200,-110,110,120,120,,165,180,-200,180,,500,67.5,F,Алена Батурина,SBD
Multi-ply,Yes,1,Pavel Izmodenov,Amateur Juniors 20-23,1994,Russia,50.8,130,140,-150,140,-72.5,72.5,-77.5,72.5,,120,130,140,140,,352.5,52,M,Павел Измоденов,SBD
Multi-ply,Yes,1,Azat Rakhmankulov,Amateur Open,1976,Russia,58.8,190,-205,205,205,105,115,-120,115,,190,205,-220,205,,525,60,M,Азат Рахманкулов,SBD
Multi-ply,Yes,1,Pavel Davydov,Amateur Open,1978,Russia,66.6,180,200,-210,200,90,-102.5,-102.5,90,,160,-180,-180,160,,450,67.5,M,Павел Давыдов,SBD
Multi-ply,Yes,1,Aleksandr Kholodov,Amateur Teen 14-15,,Russia,69.2,115,125,-135,125,65,-70,-70,65,,125,135,140,140,,330,75,M,Александр Холодов,SBD
Multi-ply,Yes,2,Evgeniy Rytenkov,Amateur Teen 14-15,2000,Russia,68.85,-115,-115,115,115,67.5,-70,-70,67.5,,125,130,-135,130,,312.5,75,M,Евгений Рытенков,SBD
Multi-ply,Yes,DQ,Denis Prokhorov,Amateur Teen 16-17,1997,Russia,79,-240,-255,-255,,,,,,,,,,,,,82.5,M,Денис Прохоров,SBD
Multi-ply,Yes,1,Konstantin Novikov,Amateur Open,1978,Russia,99.4,260,275,290,290,150,-160,-160,150,,230,250,272.5,272.5,,712.5,100,M,Константин Новиков,SBD
Multi-ply,Yes,2,Aleksey Kirillov,Amateur Open,1987,Russia,99.3,200,-210,-210,200,-160,160,-175,160,,180,-200,-200,180,,540,100,M,Алексей Кириллов,SBD
Wraps,No,DQ,Valeriya Khabirova,Pro Open,1988,Russia,71.6,-145,-145,-145,,,,,,,,,,,,,75,F,Валерия Хабирова,SBD
Wraps,No,1,Aleksey Rusinov,Pro Juniors 20-23,1992,Russia,67.2,140,150,-155,150,105,112.5,-117.5,112.5,,180,190,200,200,,462.5,67.5,M,Алексей Русинов,SBD
Wraps,No,1,Aleksey Rusinov,Pro Open,1992,Russia,67.2,140,150,-155,150,105,112.5,-117.5,112.5,,180,190,200,200,,462.5,67.5,M,Алексей Русинов,SBD
Wraps,No,1,Nikolay Istratov,Pro Juniors 20-23,1992,Russia,80.85,240,250,-257.5,250,145,-160,160,160,,270,290,-300,290,,700,82.5,M,Николай Истратов,SBD
Wraps,No,1,Evgeniy Maslov,Pro Juniors 20-23,1993,Russia,87.65,-180,180,-195,180,-130,-130,130,130,,180,205,215,215,,525,90,M,Евгений Маслов,SBD
Wraps,No,1,Andrey Perminov,Pro Masters 45-49,1967,Russia,89.2,150,160,170,170,-100,-100,100,100,,190,200,-207.5,200,,470,90,M,Андрей Перминов,SBD
Wraps,No,1,Vasiliy Sysoev,Pro Juniors 20-23,1991,Russia,99.4,210,220,225,225,-162.5,162.5,-165,162.5,,210,220,230,230,,617.5,100,M,Василий Сысоев,SBD
Wraps,No,1,Albert Salimov,Pro Open,1975,Russia,98.7,-245,257.5,-262.5,257.5,155,162.5,170,170,,245,257.5,-275,257.5,,685,100,M,Альберт Салимов,SBD
Wraps,No,DQ,Ilya Aleksandrov,Pro Open,1989,Russia,94.6,-200,-200,200,200,-165,-165,-165,,,-220,,,,,,100,M,Илья Александров,SBD
Wraps,No,1,Andrey Kryuchkov,Pro Open,1980,Russia,109.8,240,260,-270,260,160,-175,-175,160,,250,270,280,280,,700,110,M,Андрей Крючков,SBD
Wraps,No,1,Oleg Pisachenko,Pro Masters 45-49,1965,Russia,101.7,180,190,200,200,160,170,175,175,,215,235,-252.5,235,,610,110,M,Олег Писаченко,SBD
Wraps,No,DQ,Vladimir Lopin,Pro Open,,Russia,119.8,300,320,330,330,220,225,,225,,-310,-310,,,,,125,M,Владимир Лопин,SBD
Wraps,No,1,Timur Gadiev,Pro Open,1985,Russia,142.8,300,325,335,335,210,225,-230,225,,300,330,-345,330,,890,140+,M,Тимур Гадиев,SBD
Multi-ply,No,1,Aleksey Sayfutdinov,Pro Open,1984,Russia,74,220,240,-250,240,140,150,160,160,,220,240,-250,240,,640,75,M,Алексей Сайфутдинов,SBD
Multi-ply,No,DQ,Bayazit Garifulin,Pro Open,1989,Russia,72.15,225,242.5,252.5,252.5,-140,-142.5,-142.5,,,,,,,,,75,M,Баязит Гарифулин,SBD
Multi-ply,No,1,Aleksey Buraykin,Pro Open,1978,Russia,89.5,230,240,-250,240,150,160,170,170,,230,240,-250,240,,650,90,M,Алексей Бурайкин,SBD
Multi-ply,No,1,Artem Reshetnikov,Pro Open,1989,Russia,105.7,270,285,300,300,210,220,227.5,227.5,,255,270,285,285,,812.5,110,M,Артем Решетников,SBD
Multi-ply,No,2,Denis Saitkhanov,Pro Open,1982,Russia,107.8,300,320,-335,320,185,192.5,197.5,197.5,,277.5,285,-295,285,,802.5,110,M,Денис Саитханов,SBD
Multi-ply,No,1,Aleksandr Chuev,Pro Masters 45-49,1966,Russia,105.4,340,-350,,340,215,-220,,215,,280,295,302.5,302.5,,857.5,110,M,Александр Чуев,SBD
Wraps,No,1,Veronika Dorozhkina,Pro Teen 18-19,1995,Russia,56.6,50,-57.5,-57.5,50,25,27.5,30,30,,65,72.5,82.5,82.5,,162.5,60,F,Вероника Дорожкина,SBD
Wraps,No,1,Dmitriy Kochiev,Pro Juniors 20-23,1992,Russia,51.1,95,-102.5,-102.5,95,65,70.5,-75,70.5,,135,145,147.5,147.5,,313,52,M,Дмитрий Кочиев,SBD
Wraps,No,1,Viktor Usurov,Pro Teen 14-15,1999,Russia,52.3,60,70,80,80,45,55,60,60,,90,95,105,105,,245,56,M,Виктор Усуров,SBD
Wraps,No,1,Vitaliy Zhuravlev,Pro Juniors 20-23,1992,Russia,54.2,90,100,-105,100,75,80,-82.5,80,,130,145,160,160,,340,56,M,Виталий Журавлев,SBD
Wraps,No,1,Vladimir Sergeev,Pro Open,1985,Russia,58.2,90,100,-105,100,65,70,-72.5,70,,160,170,181.5,181.5,,351.5,60,M,Владимир Сергеев,SBD
Wraps,No,1,Anton Uporov,Pro Teen 14-15,2001,Russia,60.4,50,60,70,70,-40,50,55,55,,90,95,105,105,,230,67.5,M,Антон Упоров,SBD
Wraps,No,2,Artem Uporov,Pro Teen 14-15,2001,Russia,60.9,50,60,-70,60,40,50,55,55,,90,-95,95,95,,210,67.5,M,Артем Упоров,SBD
Wraps,No,1,Nikolay Borodinov,Pro Teen 16-17,1997,Russia,66.85,90,100,105,105,57.5,60,65,65,,125,135,-145,135,,305,67.5,M,Николай Бородинов,SBD
Wraps,No,1,Maksim Klimov,Pro Teen 18-19,1996,Russia,72.7,115,-125,-125,115,85,90,95,95,,150,165,-172.5,165,,375,75,M,Максим Климов,SBD
Wraps,No,1,Dmitriy Ivanov #20,Pro Open,1989,Russia,72.05,110,115,120,120,90,95,-100,95,,185,192.5,200,200,,415,75,M,Дмитрий Иванов,SBD
Wraps,No,1,Pavel Chushkin,Pro Open,1987,Russia,76.8,115,-120,120,120,100,105,-107.5,105,,170,177.5,182.5,182.5,,407.5,82.5,M,Павел Чушкин,SBD
Wraps,No,2,Aleksey Uymin,Pro Open,1990,Russia,75.8,100,105,107.5,107.5,70,75,77.5,77.5,,130,140,150,150,,335,82.5,M,Алексей Уймин,SBD
Wraps,No,1,Petr Borodinov,Pro Juniors 20-23,1994,Russia,85.1,150,155,160,160,115,120,127.5,127.5,,215,220.5,225,225,,512.5,90,M,Петр Бородинов,SBD
Wraps,No,1,Pavel Zubov,Pro Open,1990,Russia,83.7,150,-155,-155,150,100,105,110,110,,190,205,210,210,,470,90,M,Павел Зубов,SBD
Wraps,No,2,Ivan Kukoba,Pro Open,1986,Russia,89.8,85,92.5,-97.5,92.5,75,-80,80,80,,135,145,152.5,152.5,,325,90,M,Иван Кукоба,SBD
Wraps,No,1,Andrey Ladeyschikov,Pro Open,1984,Russia,98.1,200,207.5,-217.5,207.5,127.5,135,-140,135,,220,235.5,245,245,,587.5,100,M,Андрей Ладейщиков,SBD
Wraps,Yes,DQ,Ekaterina Smirnova,Amateur Open,1982,Russia,43,-70,-75,-75,,,,,,,,,,,,,44,F,Екатерина Смирнова,S
Wraps,Yes,1,Albina Galimova,Amateur Open,1990,Russia,54.7,90,97.5,-102.5,97.5,,,,,,,,,,,97.5,56,F,Альбина Галимова,S
Wraps,Yes,1,Ivan Mikheev,Amateur Juniors 20-23,1994,Russia,53.85,-155,165,175,175,,,,,,,,,,,175,56,M,Иван Михеев,S
Wraps,Yes,1,Kirill Beloglazov,Amateur Juniors 20-23,1991,Russia,89.8,185,195,205,205,,,,,,,,,,,205,90,M,Кирилл Белоглазов,S
Raw,Yes,1,Ekaterina Smirnova,Amateur Open,1982,Russia,43,,,,,,,,,,65,70,75,75,,75,44,F,Екатерина Смирнова,D
Raw,Yes,1,Irina Buksina,Amateur Juniors 20-23,1991,Russia,47.7,,,,,,,,,,115,117.5,-120,117.5,,117.5,48,F,Ирина Буксина,D
Raw,Yes,1,Vera Korneva,Amateur Juniors 20-23,1992,Russia,51.8,,,,,,,,,,-102.5,102.5,-115,102.5,,102.5,52,F,Вера Корнева,D
Raw,Yes,1,Elena Dokuchaeva,Amateur Open,1985,Russia,59.8,,,,,,,,,,100,115,120,120,,120,60,F,Елена Докучаева,D
Raw,Yes,1,Anastasiya Korableva,Amateur Juniors 20-23,1995,Russia,66.85,,,,,,,,,,100,110,-117.5,110,,110,67.5,F,Анастасия Кораблева,D
Raw,Yes,1,Aliya Khakimova,Amateur Open,1986,Russia,61.8,,,,,,,,,,130,137.5,-145,137.5,,137.5,67.5,F,Алия Хакимова,D
Raw,Yes,1,Sergey Neupokoev,Amateur Juniors 20-23,1993,Russia,65.15,,,,,,,,,,157.5,-167.5,-175,157.5,,157.5,67.5,M,Сергей Неупокоев,D
Raw,Yes,1,Aleksandr Zakhvatov,Amateur Teen 16-17,1998,Russia,70.85,,,,,,,,,,195,-205,-205,195,,195,75,M,Александр Захватов,D
Raw,Yes,1,Aleksandr Kiryanov,Amateur Teen 18-19,1996,Russia,75,,,,,,,,,,215,-235,-235,215,,215,75,M,Александр Кирьянов,D
Raw,Yes,1,Konstantin Zykov,Amateur Open,1987,Russia,73.75,,,,,,,,,,185,200,207.5,207.5,,207.5,75,M,Константин Зыков,D
Raw,Yes,2,Andrey Plasteev,Amateur Open,1982,Russia,73.9,,,,,,,,,,185,-205,-205,185,,185,75,M,Андрей Пластеев,D
Raw,Yes,DQ,Evgeniy Bykov,Amateur Open,1984,Russia,73.5,,,,,,,,,,-212.5,-222.5,-222.5,,,,75,M,Евгений Быков,D
Raw,Yes,1,Andrey Antonov,Amateur Teen 18-19,1995,Russia,80.9,,,,,,,,,,235,247.5,262.5,262.5,,262.5,82.5,M,Андрей Антонов,D
Raw,Yes,1,Kamil Mukhutdinov,Amateur Juniors 20-23,1992,Russia,80.85,,,,,,,,,,220,-235,-235,220,,220,82.5,M,Камиль Мухутдинов,D
Raw,Yes,1,Dmitriy Dolotov,Amateur Juniors 20-23,1995,Russia,86.9,,,,,,,,,,-240,240,-250,240,,240,90,M,Дмитрий Долотов,D
Raw,Yes,2,Kirill Beloglazov,Amateur Juniors 20-23,1991,Russia,89.8,,,,,,,,,,210,225,230,230,,230,90,M,Кирилл Белоглазов,D
Raw,Yes,1,Amridim Nurov,Amateur Open,1982,Russia,85.8,,,,,,,,,,220,235,240,240,,240,90,M,Амридин Нуров,D
Raw,Yes,2,Andrey Naymushin,Amateur Open,1988,Russia,87.45,,,,,,,,,,210,-225,-225,210,,210,90,M,Андрей Наймушин,D
Raw,Yes,3,Maksim Vysotskiy,Amateur Open,1987,Russia,89.65,,,,,,,,,,185,-197.5,-197.5,185,,185,90,M,Максим Высоцкий,D
Raw,Yes,1,Vyacheslav Myasnikov,Amateur Masters 40-44,1970,Russia,89.55,,,,,,,,,,220,-230,,220,,220,90,M,Вячеслав Мясников,D
Raw,Yes,1,Yuriy Suslov,Amateur Open,1986,Russia,98.2,,,,,,,,,,265,280,-290,280,,280,100,M,Юрий Суслов,D
Raw,Yes,2,Aleksandr Boboshin,Amateur Open,1988,Russia,94,,,,,,,,,,205,-220,,205,,205,100,M,Александр Бобошин,D
Raw,Yes,3,Oleg Sazonov,Amateur Open,1983,Russia,94.7,,,,,,,,,,180,,,180,,180,100,M,Олег Сазонов,D
Raw,Yes,1,Roman Skorkin,Amateur Open,1986,Russia,109.2,,,,,,,,,,242.5,-245,-245,242.5,,242.5,110,M,Роман Скоркин,D
Raw,Yes,1,Vladimir Blinkov,Amateur Open,1978,Russia,116.2,,,,,,,,,,280,300,-328,300,,300,125,M,Владимир Блинков,D
Raw,Yes,2,Sergey Rukhman,Amateur Open,1985,Russia,111.4,,,,,,,,,,185,205,217.5,217.5,,217.5,125,M,Сергей Рухман,D
Multi-ply,Yes,1,Artem Bykhovets,Amateur Open,1983,Russia,83.05,,,,,,,,,,220,242.5,262.5,262.5,-283,262.5,90,M,Артем Быховец,D
Multi-ply,No,1,Mikhail Makarov,Pro Juniors 20-23,1991,Russia,110,275,285,-297.5,285,,,,,,,,,,,285,110,M,Михаил Макаров,S
Multi-ply,No,1,Sergey Aldoshkin,Pro Open,1988,Russia,106.3,280,-310,-310,280,,,,,,,,,,,280,110,M,Сергей Алдошкин,S
Multi-ply,No,1,Bayazit Garifulin,Pro Open,1989,Russia,72.15,,,,,,,,,,240,260,275,275,,275,75,M,Баязит Гарифулин,D
Multi-ply,No,1,Andrey Mitrofanov,Pro Open,1978,Russia,88.05,,,,,,,,,,265,-287.5,,265,,265,90,M,Андрей Митрофанов,D
Multi-ply,No,1,Aleksandr Dorokhov,Pro Open,1983,Russia,99.5,,,,,,,,,,270,280,,280,,280,100,M,Александр Дорохов,D
Multi-ply,No,1,Artem Reshetnikov,Pro Open,1989,Russia,105.7,,,,,,,,,,255,270,285,285,,285,110,M,Артем Решетников,D
Multi-ply,No,1,Konstantin Maltsev,Pro Open,1974,Russia,116,,,,,,,,,,295,-310,,295,,295,125,M,Константин Мальцев,D
Multi-ply,No,1,Konstantin Maltsev,Pro Masters 40-44,1974,Russia,116,,,,,,,,,,295,-310,,295,,295,125,M,Константин Мальцев,D
Raw,No,1,Andrey Bogatyrev,Pro Masters 50-54,1960,Russia,106.7,,,,,,,,,,180,200,210,210,,210,110,M,Андрей Богатырев,D
Raw,No,1,Anastasiya Bakhareva,Pro Teen 16-17,1997,Russia,36.4,,,,,20,22.5,-25.5,22.5,,,,,,,22.5,44,F,Анастасия Бахарева,B
Raw,No,1,Elena Blagovestova,Pro Masters 40-44,1973,Russia,41.05,,,,,27.5,32.5,35,35,,,,,,,35,44,F,Елена Благовестова,B
Raw,No,1,Mariya Klevakina,Pro Open,1984,Russia,48,,,,,-50,50,-52.5,50,,,,,,,50,48,F,Мария Клевакина,B
Raw,No,1,Anastasiya Berezovets,Pro Juniors 20-23,1992,Russia,56.25,,,,,62.5,-65,65,65,,,,,,,65,60,F,Анастасия Березовец,B
Raw,No,1,Arsentiy Belnitskiy,Pro Juniors 20-23,1991,Russia,43.7,,,,,62.5,65.5,-67.5,65.5,,,,,,,65.5,52,M,Арсентий Бельницкий,B
Raw,No,1,Dzhonibek Amindzhonov,Pro Teen 14-15,2001,Russia,51.35,,,,,60,62.5,65,65,,,,,,,65,52,M,Джонибек Аминджонов,B
Raw,No,1,Igor Ershov,Pro Open,1977,Russia,51,,,,,-65,65,67.5,67.5,,,,,,,67.5,52,M,Игорь Ершов,B
Raw,No,1,Nikita Smyshlyaev,Pro Teen 18-19,1995,Russia,58.1,,,,,87.5,92.5,95,95,,,,,,,95,60,M,Никита Смышляев,B
Raw,No,1,Dmitriy Finogenov,Pro Juniors 20-23,1993,Russia,57.4,,,,,50,55,-60,55,,,,,,,55,60,M,Дмитрий Финогенов,B
Raw,No,1,Aleksandr Zdravomyslov,Pro Open,1980,Russia,56.25,,,,,55,57.5,-60,57.5,,,,,,,57.5,60,M,Александр Здравомыслов,B
Raw,No,1,Eduard Aleksanov,Pro Masters 40-44,1973,Russia,56.5,,,,,50,-55,-55,50,,,,,,,50,60,M,Эдуард Алексанов,B
Raw,No,1,Aleksey Murzin,Pro Juniors 20-23,1993,Russia,67,,,,,65,70,-75,70,,,,,,,70,67.5,M,Алексей Мурзин,B
Raw,No,1,Aleksey Knyazkin,Pro Open,1987,Russia,66.9,,,,,95,-100,-100,95,,,,,,,95,67.5,M,Алексей Князькин,B
Raw,No,2,Vitaliy Schipachev,Pro Open,1990,Russia,63.85,,,,,80,85,90,90,,,,,,,90,67.5,M,Виталий Щипачев,B
Raw,No,3,Denis Churkin,Pro Open,1979,Russia,67.4,,,,,80,-85,-85,80,,,,,,,80,67.5,M,Денис Чуркин,B
Raw,No,4,Dmitriy Scherbakov,Pro Open,1980,Russia,62.9,,,,,55,60,-62.5,60,,,,,,,60,67.5,M,Дмитрий Щербаков,B
Raw,No,5,Sergey Tiunov,Pro Open,1989,Russia,62.5,,,,,50,55,-60,55,,,,,,,55,67.5,M,Сергей Тиунов,B
Raw,No,DQ,Aleksandr Klyuev,Pro Open,1975,Russia,64.5,,,,,-85,-87.5,-87.5,,,,,,,,,67.5,M,Александр Клюев,B
Raw,No,1,Aleksandr Amutnykh,Pro Masters 40-44,1973,Russia,61.7,,,,,47.5,52.5,-55,52.5,,,,,,,52.5,67.5,M,Александр Амутных,B
Raw,No,1,Nikita Zhelev,Pro Juniors 20-23,1994,Russia,72.9,,,,,77.5,87.5,90,90,,,,,,,90,75,M,Никита Желев,B
Raw,No,1,Vladimir Stroganov,Pro Masters 40-44,1974,Russia,71.45,,,,,102.5,107.5,-110,107.5,,,,,,,107.5,75,M,Владимир Строганов,B
Raw,No,1,Evgeniy Kvashnin,Pro Teen 16-17,1997,Russia,76.2,,,,,70,82.5,-92.5,82.5,,,,,,,82.5,82.5,M,Евгений Квашнин,B
Raw,No,1,Nikita Simonov,Pro Open,1989,Russia,81,,,,,107.5,112.5,-117.5,112.5,,,,,,,112.5,82.5,M,Никита Симонов,B
Raw,No,1,Kirill Isaev,Pro Open,1987,Russia,90,,,,,100,105,-110,105,,,,,,,105,90,M,Кирилл Исаев,B
Raw,No,1,Timur Sordiya,Pro Teen 18-19,1996,Russia,94.95,,,,,50,55,-60,55,,,,,,,55,100,M,Тимур Сордия,B
Raw,No,1,Evgeniy Pastukhov,Pro Open,1985,Russia,97,,,,,122.5,127.5,130,130,,,,,,,130,100,M,Евгений Пастухов,B
Raw,No,1,Evgeniy Byzov,Pro Masters 40-44,1970,Russia,105,,,,,130,140,-150,140,,,,,,,140,110,M,Евгений Бызов,B
Multi-ply,Yes,1,Ekaterina Zaytseva,Amateur Open,1987,Russia,73.2,,,,,100,-115,-115,100,,,,,,,100,75,F,Екатерина Зайцева,B
Multi-ply,Yes,1,Tatyana Puchkova,Amateur Masters 55-59,1959,Russia,75,,,,,95,100,105,105,,,,,,,105,75,F,Татьяна Пучкова,B
Multi-ply,Yes,1,Aleksey Turlanov,Amateur Open,1979,Russia,67.4,,,,,150,155,,155,,,,,,,155,67.5,M,Алексей Турланов,B
Multi-ply,Yes,1,Anton Polugrudov,Amateur Teen 18-19,1996,Russia,74.55,,,,,130,137.5,140,140,,,,,,,140,75,M,Антон Полугрудов,B
Multi-ply,Yes,1,Andrey Kudryavtsev,Amateur Open,1983,Russia,69.8,,,,,150,-160,160,160,,,,,,,160,75,M,Андрей Кудрявцев,B
Multi-ply,Yes,1,Semen Paley,Amateur Teen 14-15,1999,Russia,79,,,,,110,125,135,135,,,,,,,135,82.5,M,Семен Палей,B
Multi-ply,Yes,2,Arsen Kuyguldinov,Amateur Teen 14-15,2000,Russia,77,,,,,100,120,-135,120,,,,,,,120,82.5,M,Арсен Куйгульдинов,B
Multi-ply,Yes,1,Denis Rudakov,Amateur Open,1981,Russia,80.1,,,,,-220,220,-232.5,220,,,,,,,220,82.5,M,Денис Рудаков,B
Multi-ply,Yes,1,Fanis Matyushev,Amateur Open,1985,Russia,83,,,,,-155,155,-165,155,,,,,,,155,90,M,Фанис Матюшев,B
Multi-ply,Yes,2,Mishel Garros,Amateur Open,1990,Russia,88.6,,,,,120,135,145,145,,,,,,,145,90,M,Мишель Гаррос,B
Multi-ply,Yes,DQ,Aleksandr Gutsevich,Amateur Open,1966,Russia,89.5,,,,,-175,-180,-185,,,,,,,,,90,M,Александр Гуцевич,B
Multi-ply,Yes,1,Evgeniy Medeltsov,Amateur Open,1986,Russia,99.6,,,,,220,235,242.5,242.5,,,,,,,242.5,100,M,Евгений Медельцов,B
Multi-ply,Yes,2,Vadim Dostovalov,Amateur Open,1978,Russia,99.4,,,,,192.5,200,-205,200,,,,,,,200,100,M,Вадим Достовалов,B
Multi-ply,Yes,1,Valeriy Yakovenko,Amateur Masters 45-49,1968,Russia,97.5,,,,,222.5,-225,,222.5,,,,,,,222.5,100,M,Валерий Яковенко,B
Multi-ply,Yes,1,Nikolay Drozhzhilov,Amateur Open,1986,Russia,108.8,,,,,240,250,260,260,,,,,,,260,110,M,Николай Дрожжилов,B
Multi-ply,Yes,DQ,Aleksey Dyachenko,Amateur Open,1986,Russia,108.2,,,,,-202.5,-202.5,-202.5,,,,,,,,,110,M,Алексей Дьяченко,B
Multi-ply,Yes,1,Dmitriy Osintsev,Amateur Masters 45-49,1969,Russia,109.2,,,,,180,-202.5,-202.5,180,,,,,,,180,110,M,Дмитрий Осинцев,B
Multi-ply,Yes,DQ,Andrei Zapylikhin,Amateur Masters 50-54,1960,Russia,109.8,,,,,-210,,,,,,,,,,,110,M,Андрей Запылихин,B
Multi-ply,Yes,1,Salman Shamkhalov,Amateur Masters 60-64,1952,Russia,109.2,,,,,-175,185,195,195,,,,,,,195,110,M,Салман Шамхалов,B
Multi-ply,Yes,1,Sergey Glazkov,Amateur Open,1992,Russia,121.2,,,,,240,255,-270,255,,,,,,,255,125,M,Сергей Глазков,B
Multi-ply,No,1,Evgeniy Kuzin,Pro Juniors 20-23,1991,Russia,80.85,,,,,190,-200,-207.5,190,,,,,,,190,82.5,M,Евгений Кузин,B
Multi-ply,No,1,Stanislav Lukin,Pro Open,1989,Russia,80.7,,,,,185,-192.5,195,195,,,,,,,195,82.5,M,Станислав Лукин,B
Multi-ply,No,DQ,Maksim Popov #4,Pro Open,1979,Russia,81.65,,,,,-220,-230,-230,,,,,,,,,82.5,M,Максим Попов,B
Multi-ply,No,1,Artur Gataulin,Pro Juniors 20-23,1992,Russia,90,,,,,-180,-180,180,180,,,,,,,180,90,M,Артур Гатаулин,B
Multi-ply,No,1,Timur Akhmetov,Pro Open,1986,Russia,99.3,,,,,-210,-210,210,210,,,,,,,210,100,M,Тимур Ахметов,B
Multi-ply,No,1,Sergey Konovalov #4,Pro Masters 45-49,1969,Russia,92.6,,,,,180,-190,-192.5,180,,,,,,,180,100,M,Сергей Коновалов,B
Multi-ply,No,1,Mikhail Makarov,Pro Juniors 20-23,1991,Russia,110,,,,,-235,235,242.5,242.5,,,,,,,242.5,110,M,Михаил Макаров,B
Multi-ply,No,1,Aleksandr Tretyakov #1,Pro Open,1967,Russia,108,,,,,310,-325,-345,310,,,,,,,310,110,M,Александр Третьяков,B
Multi-ply,No,2,Konstantin Plakhuta,Pro Open,1986,Russia,106.7,,,,,-260,-260,260,260,,,,,,,260,110,M,Константин Плахута,B
Multi-ply,No,3,Aleksandr Baranov,Pro Open,1985,Russia,103.8,,,,,250,-260,-260,250,,,,,,,250,110,M,Александр Баранов,B
Multi-ply,No,DQ,Egor Koykov,Pro Open,1985,Russia,104,,,,,-320,-320,-340,,,,,,,,,110,M,Егор Койков,B
Multi-ply,No,1,Aleksey Kozlov #1,Pro Masters 40-44,1970,Russia,103,,,,,225,235,242.5,242.5,,,,,,,242.5,110,M,Алексей Козлов,B
Multi-ply,No,1,Aleksandr Tretyakov #1,Pro Masters 45-49,1967,Russia,108,,,,,310,-325,-345,310,,,,,,,310,110,M,Александр Третьяков,B
Multi-ply,No,1,Vyacheslav Filatov,Pro Masters 50-54,1962,Russia,108.2,,,,,-205,-210,210,210,,,,,,,210,110,M,Вячеслав Филатов,B
Multi-ply,No,1,Gennadiy Shuklin,Pro Open,1981,Russia,114.4,,,,,-180,180,-190,180,,,,,,,180,125,M,Геннадий Шуклин,B
Multi-ply,No,1,Nikolay Pyshmintsev,Pro Open,1981,Russia,129.4,,,,,-350,365,390,390,,,,,,,390,140,M,Николай Пышминцев,B
Multi-ply,No,DQ,Sergey Kolesnichenko #1,Pro Open,1979,Russia,130.5,,,,,-290,-290,-315,,,,,,,,,140,M,Сергей Колесниченко,B
Multi-ply,No,DQ,Andrey Kutlyaev,Pro Open,1984,Russia,142.7,,,,,-355,-355,-355,,,,,,,,,140+,M,Андрей Кутляев,B
Raw,Yes,1,Olga Polygalova,Amateur Open,1988,Russia,42.8,,,,,-62.5,-62.5,62.5,62.5,,,,,,,62.5,44,F,Ольга Полыгалова,B
Raw,Yes,1,Olga Kryukova,Amateur Open,1987,Russia,47.1,,,,,47.5,50,-55,50,,,,,,,50,48,F,Ольга Крюкова,B
Raw,Yes,1,Elena Kondratyeva,Amateur Masters 50-54,1963,Russia,51.05,,,,,50,55,-60,55,,,,,,,55,52,F,Елена Кондратьева,B
Raw,Yes,1,Olga Shapiro,Amateur Teen 14-15,1999,Russia,55.9,,,,,55,57.5,60,60,,,,,,,60,56,F,Ольга Шапиро,B
Raw,Yes,1,Anna Andreeva,Amateur Teen 18-19,1997,Russia,53.5,,,,,32.5,37.5,-40,37.5,,,,,,,37.5,56,F,Анна Андреева,B
Raw,Yes,1,Anna Zavyalova,Amateur Open,1975,Russia,54.9,,,,,70,72.5,-75,72.5,,,,,,,72.5,56,F,Анна Завьялова,B
Raw,Yes,2,Polina Zagorodnykh,Amateur Open,1989,Russia,54.7,,,,,60,-62.5,-62.5,60,,,,,,,60,56,F,Полина Загородных,B
Raw,Yes,3,Olga Shapiro,Amateur Open,1999,Russia,55.9,,,,,55,57.5,60,60,,,,,,,60,56,F,Ольга Шапиро,B
Raw,Yes,4,Alisa Shnayder,Amateur Open,1986,Russia,54.35,,,,,50,55,-60,55,,,,,,,55,56,F,Алиса Шнайдер,B
Raw,Yes,5,Mariya Lyadova,Amateur Open,1989,Russia,53.1,,,,,42.5,-45,-45,42.5,,,,,,,42.5,56,F,Мария Лядова,B
Raw,Yes,6,Svetlana Imameeva,Amateur Open,1980,Russia,56,,,,,-37.5,37.5,-40,37.5,,,,,,,37.5,56,F,Светлана Имамеева,B
Raw,Yes,1,Tatyana Vazhina,Amateur Teen 16-17,1998,Russia,58.85,,,,,-45,-50,50,50,,,,,,,50,60,F,Татьяна Важина,B
Raw,Yes,2,Ekaterina Semaeva,Amateur Teen 16-17,1997,Russia,57.15,,,,,45,-50,-50,45,,,,,,,45,60,F,Екатерина Семаева,B
Raw,Yes,1,Kseniya Dorovikova,Amateur Open,1989,Russia,59.1,,,,,65,67.5,-70,67.5,,,,,,,67.5,60,F,Ксения Доровикова,B
Raw,Yes,2,Anzhelika Bartosh,Amateur Open,1982,Russia,57.4,,,,,-65,-65,65,65,,,,,,,65,60,F,Анжелика Бартош,B
Raw,Yes,3,Renata Yusupova,Amateur Open,1984,Russia,56.8,,,,,57.5,60,-65,60,,,,,,,60,60,F,Рената Юсупова,B
Raw,Yes,4,Elena Shirokova,Amateur Open,1977,Russia,57.3,,,,,52.5,-60,-60,52.5,,,,,,,52.5,60,F,Елена Широкова,B
Raw,Yes,DQ,Natalya Sokolova,Amateur Masters 40-44,1972,Russia,59.65,,,,,-65,-67.5,-67.5,,,,,,,,,60,F,Наталья Соколова,B
Raw,Yes,1,Anastasiya Korableva,Amateur Juniors 20-23,1995,Russia,66.35,,,,,72.5,-80,-80,72.5,,,,,,,72.5,67.5,F,Анастасия Кораблева,B
Raw,Yes,1,Olga Churakova,Amateur Open,1987,Russia,63.4,,,,,-47.5,52.5,-55,52.5,,,,,,,52.5,67.5,F,Ольга Чуракова,B
Raw,Yes,1,Valeriya Artemchuk,Amateur Open,1976,Russia,76.6,,,,,52.5,-57.5,57.5,57.5,,,,,,,57.5,82.5,F,Валерия Артемчук,B
Raw,Yes,1,Dmitriy Lebedev,Amateur Teen 14-15,2001,Russia,47.9,,,,,47.5,52.5,-57.5,52.5,,,,,,,52.5,52,M,Дмитрий Лебедев,B
Raw,Yes,1,Andrey Smorodskikh,Amateur Teen 16-17,1998,Russia,51.8,,,,,75,80,87.5,87.5,,,,,,,87.5,52,M,Андрей Смородских,B
Raw,Yes,1,Mikhail Solomonov,Amateur Teen 14-15,2000,Russia,56,,,,,62.5,67.5,70,70,,,,,,,70,56,M,Михаил Соломонов,B
Raw,Yes,1,Evgeniy Bychkov,Amateur Teen 16-17,1997,Russia,55.85,,,,,95,-100,-100,95,,,,,,,95,56,M,Евгений Бычков,B
Raw,Yes,1,Evgeniy Koval,Amateur Teen 14-15,2000,Russia,62.9,,,,,-85,90,92.5,92.5,,,,,,,92.5,67.5,M,Евгений Коваль,B
Raw,Yes,1,Artem Tyulenev,Amateur Teen 16-17,1997,Russia,67.45,,,,,107.5,-115,-117.5,107.5,,,,,,,107.5,67.5,M,Артем Тюленев,B
Raw,Yes,2,Aleksandr Ishanov,Amateur Teen 16-17,1999,Russia,64.1,,,,,90,-100,100,100,,,,,,,100,67.5,M,Александр Ишанов,B
Raw,Yes,1,Dmitriy Bychkov,Amateur Teen 18-19,1995,Russia,63.75,,,,,107.5,112.5,-117.5,112.5,,,,,,,112.5,67.5,M,Дмитрий Бычков,B
Raw,Yes,DQ,Anatoliy Knyashko,Amateur Teen 18-19,1996,Russia,66,,,,,-100,,,,,,,,,,,67.5,M,Анатолий Княшко,B
Raw,Yes,1,Aleksey Maklakov,Amateur Juniors 20-23,1992,Russia,65.6,,,,,-155,155,-160,155,,,,,,,155,67.5,M,Алексей Маклаков,B
Raw,Yes,2,Roman Uskov,Amateur Juniors 20-23,1994,Russia,64.9,,,,,100,110,112.5,112.5,,,,,,,112.5,67.5,M,Роман Усков,B
Raw,Yes,3,Aleksandr Knyazev,Amateur Juniors 20-23,1994,Russia,65,,,,,100,105,110,110,,,,,,,110,67.5,M,Александр Князев,B
Raw,Yes,1,Aleksey Turlanov,Amateur Open,1979,Russia,67.4,,,,,125,130,132.5,132.5,,,,,,,132.5,67.5,M,Алексей Турланов,B
Raw,Yes,2,Dmitriy Antonov,Amateur Open,1982,Russia,67.5,,,,,-127.5,127.5,-132.5,127.5,,,,,,,127.5,67.5,M,Дмитрий Антонов,B
Raw,Yes,DQ,Aleksey Bludnin,Amateur Open,1982,Russia,67.5,,,,,-145,-145,-145,,,,,,,,,67.5,M,Алексей Блуднин,B
Raw,Yes,1,Garifulla Giniyatullin,Amateur Masters 80+,1932,Russia,67,,,,,60,62.5,-65,62.5,,,,,,,62.5,67.5,M,Гарифулла Гиниятуллин,B
Raw,Yes,1,Vladislav Fakhretdinov,Amateur Teen 16-17,1997,Russia,74.5,,,,,-112.5,115,120,120,,,,,,,120,75,M,Владислав Фахретдинов,B
Raw,Yes,2,Nikita Abzaev,Amateur Teen 16-17,1998,Russia,69.35,,,,,100,-105,105,105,,,,,,,105,75,M,Никита Абзаев,B
Raw,Yes,1,Aleksey Dolgovyazov,Amateur Teen 18-19,1995,Russia,73.2,,,,,-125,130,-137.5,130,,,,,,,130,75,M,Алексей Долговязов,B
Raw,Yes,2,Andrey Rogozhkin,Amateur Teen 18-19,1995,Russia,67.8,,,,,75,80,-82.5,80,,,,,,,80,75,M,Андрей Рогожкин,B
Raw,Yes,DQ,Artur Mukhamedyanov,Amateur Teen 18-19,1996,Russia,73.45,,,,,-110,-110,-110,,,,,,,,,75,M,Артур Мухамедьянов,B
Raw,Yes,1,Igor Garenskikh,Amateur Juniors 20-23,1991,Russia,75,,,,,160,-170,-170,160,,,,,,,160,75,M,Игорь Гаренских,B
Raw,Yes,2,Anton Dorofeev,Amateur Juniors 20-23,1992,Russia,72.8,,,,,120,125,-127.5,125,,,,,,,125,75,M,Антон Дорофеев,B
Raw,Yes,3,Anton Surkov,Amateur Juniors 20-23,1992,Russia,74.35,,,,,125,-137.5,-137.5,125,,,,,,,125,75,M,Антон Сурков,B
Raw,Yes,1,Denis Stolbov,Amateur Open,1988,Russia,73.9,,,,,145,-157.5,-157.5,145,,,,,,,145,75,M,Денис Столбов,B
Raw,Yes,2,Artur Khismatullin,Amateur Open,1986,Russia,73.15,,,,,110,120,125,125,,,,,,,125,75,M,Артур Хисматуллин,B
Raw,Yes,3,Aleksandr Taushkanov,Amateur Open,1990,Russia,75,,,,,-125,-125,125,125,,,,,,,125,75,M,Александр Таушканов,B
Raw,Yes,1,Ilya Gizatullin,Amateur Masters 40-44,1974,Russia,74.1,,,,,117.5,-120,120,120,,,,,,,120,75,M,Илья Гизатуллин,B
Raw,Yes,1,Dmitriy Nekrasov,Amateur Masters 50-54,1963,Russia,74.1,,,,,110,120,-125,120,,,,,,,120,75,M,Дмитрий Некрасов,B
Raw,Yes,1,Ivan Zyablikov,Amateur Masters 65-69,1948,Russia,74.5,,,,,117.5,-125.5,,117.5,,,,,,,117.5,75,M,Иван Зябликов,B
Raw,Yes,1,Ratmir Khabibov,Amateur Teen 16-17,1997,Russia,81.55,,,,,-137.5,137.5,-142.5,137.5,,,,,,,137.5,82.5,M,Ратмир Хабибов,B
Raw,Yes,1,Denis Gavrilov,Amateur Teen 18-19,1996,Russia,81.2,,,,,120,-125,-125,120,,,,,,,120,82.5,M,Денис Гаврилов,B
Raw,Yes,1,Maksim Vasin,Amateur Juniors 20-23,1991,Russia,82.5,,,,,155,162.6,165,165,,,,,,,165,82.5,M,Максим Васин,B
Raw,Yes,2,Mikhail Mikushin,Amateur Juniors 20-23,1991,Russia,82.2,,,,,135,140,-142.5,140,,,,,,,140,82.5,M,Михаил Микушин,B
Raw,Yes,1,Petr Borisov,Amateur Open,1981,Russia,81.25,,,,,145,150,-152.5,150,,,,,,,150,82.5,M,Петр Борисов,B
Raw,Yes,2,Viktor Zagorovskiy,Amateur Open,1977,Russia,80.25,,,,,-147.5,-147.5,147.5,147.5,,,,,,,147.5,82.5,M,Виктор Загоровский,B
Raw,Yes,3,Sergey Prokofyev,Amateur Open,1972,Russia,80.85,,,,,135,140,-145,140,,,,,,,140,82.5,M,Сергей Прокофьев,B
Raw,Yes,4,Aleksey Butorin,Amateur Open,1976,Russia,81.3,,,,,-130,130,132.5,132.5,,,,,,,132.5,82.5,M,Алексей Буторин,B
Raw,Yes,5,Evgeniy Makarov,Amateur Open,1990,Russia,80.1,,,,,125,130,-135,130,,,,,,,130,82.5,M,Евгений Макаров,B
Raw,Yes,6,Ivan Marchin,Amateur Open,1982,Russia,80.85,,,,,130,-147.5,-147.5,130,,,,,,,130,82.5,M,Иван Марчин,B
Raw,Yes,7,Rustem Rizvanov,Amateur Open,1986,Russia,81.5,,,,,120,130,-135,130,,,,,,,130,82.5,M,Рустем Ризванов,B
Raw,Yes,8,Evgeniy Lebedev,Amateur Open,1988,Russia,81.75,,,,,120,125,130,130,,,,,,,130,82.5,M,Евгений Лебедев,B
Raw,Yes,DQ,Ernst Kurbanov,Amateur Open,1990,Russia,81.65,,,,,-155,-157.5,-157.5,,,,,,,,,82.5,M,Эрнст Курбанов,B
Raw,Yes,DQ,Roman Ustinov,Amateur Open,1981,Russia,82.2,,,,,-140,-140,-140,,,,,,,,,82.5,M,Роман Устинов,B
Raw,Yes,1,Dmitriy Mashkov,Amateur Masters 40-44,1973,Russia,82.45,,,,,155,165,-170,165,,,,,,,165,82.5,M,Дмитрий Машков,B
Raw,Yes,2,Sergey Prokofyev,Amateur Masters 40-44,1972,Russia,80.85,,,,,135,140,-145,140,,,,,,,140,82.5,M,Сергей Прокофьев,B
Raw,Yes,1,Mikhail Pronichev,Amateur Masters 45-49,1969,Russia,82.2,,,,,160,-170,-170,160,,,,,,,160,82.5,M,Михаил Проничев,B
Raw,Yes,2,Sergey Tiunov,Amateur Masters 45-49,1968,Russia,81.6,,,,,100,110,115,115,,,,,,,115,82.5,M,Сергей Тиунов,B
Raw,Yes,1,Igor Volodin,Amateur Masters 50-54,1962,Russia,82.4,,,,,137.5,142.5,-147.5,142.5,,,,,,,142.5,82.5,M,Игорь Володин,B
Raw,Yes,1,Aleksandr Teplyashin,Amateur Masters 55-59,1957,Russia,79.6,,,,,90,-105,105,105,,,,,,,105,82.5,M,Александр Тепляшин,B
Raw,Yes,1,Aleksandr Demin,Amateur Masters 70-74,1941,Russia,77.9,,,,,100,-105,107.5,107.5,-112,,,,,,107.5,82.5,M,Александр Демин,B
Raw,Yes,2,Aleksandr Biserov,Amateur Masters 70-74,1943,Russia,75.9,,,,,70,75,80,80,,,,,,,80,82.5,M,Александр Бисеров,B
Raw,Yes,3,Anatoliy Oshivalov,Amateur Masters 70-74,1944,Russia,75.85,,,,,70,-72.5,75,75,,,,,,,75,82.5,M,Анатолий Ошивалов,B
Raw,Yes,1,Nikolay Puzhaev,Amateur Masters 75-79,1935,Russia,77.1,,,,,90,95,97.5,97.5,,,,,,,97.5,82.5,M,Николай Пужаев,B
Raw,Yes,1,Kirill Puzynya,Amateur Teen 16-17,1997,Russia,87.35,,,,,-155,160,167.5,167.5,-171,,,,,,167.5,90,M,Кирилл Пузыня,B
Raw,Yes,1,Vitaliy Burkov,Amateur Teen 18-19,1996,Russia,86.9,,,,,135,137.5,-140,137.5,,,,,,,137.5,90,M,Виталий Бурков,B
Raw,Yes,2,Sergey Borisov,Amateur Teen 18-19,1995,Russia,87.5,,,,,100,105,107.5,107.5,,,,,,,107.5,90,M,Сергей Борисов,B
Raw,Yes,1,Dmitriy Yakovlev,Amateur Juniors 20-23,1994,Russia,89.5,,,,,155,162.5,-167.5,162.5,,,,,,,162.5,90,M,Дмитрий Яковлев,B
Raw,Yes,2,Vyacheslav Akbulatov,Amateur Juniors 20-23,1992,Russia,89.5,,,,,135,137.5,-140,137.5,,,,,,,137.5,90,M,Вячеслав Акбулатов,B
Raw,Yes,3,Sergey Ogarkov,Amateur Juniors 20-23,1992,Russia,85.7,,,,,92.5,-107.5,107.5,107.5,,,,,,,107.5,90,M,Сергей Огарков,B
Raw,Yes,1,Vasiliy Anisimov,Amateur Open,1982,Russia,89.15,,,,,172.5,175,177.5,177.5,,,,,,,177.5,90,M,Василий Анисимов,B
Raw,Yes,2,Sergey Balandin,Amateur Open,1984,Russia,86.2,,,,,150,160,170,170,,,,,,,170,90,M,Сергей Баландин,B
Raw,Yes,3,Dmitriy Tsygurov,Amateur Open,1986,Russia,89.8,,,,,-165,170,-177.5,170,,,,,,,170,90,M,Дмитрий Цыгуров,B
Raw,Yes,4,Maksim Sosnovskiy,Amateur Open,1985,Russia,87.7,,,,,147.5,155,160,160,,,,,,,160,90,M,Максим Сосновский,B
Raw,Yes,5,Aleksandr Rudakov,Amateur Open,1990,Russia,86.65,,,,,147.5,152.5,157.5,157.5,,,,,,,157.5,90,M,Александр Рудаков,B
Raw,Yes,6,Aleksandr Gerasimov,Amateur Open,1990,Russia,87.6,,,,,150,155,,155,,,,,,,155,90,M,Александр Герасимов,B
Raw,Yes,7,Andrey Gusev,Amateur Open,1983,Russia,88.5,,,,,150,155,-157.5,155,,,,,,,155,90,M,Андрей Гусев,B
Raw,Yes,8,Aleksandr Pugachev,Amateur Open,1987,Russia,89.8,,,,,145,150,-155,150,,,,,,,150,90,M,Александр Пугачев,B
Raw,Yes,9,Aleksey Komkov,Amateur Open,1983,Russia,85.8,,,,,145,-150,-150,145,,,,,,,145,90,M,Алексей Комков,B
Raw,Yes,1,Eduard Antonov,Amateur Masters 40-44,1974,Russia,89,,,,,155,165,-177.5,165,,,,,,,165,90,M,Эдуард Антонов,B
Raw,Yes,2,Aleksandr Redikultsev,Amateur Masters 40-44,1973,Russia,87,,,,,135,-140,-140,135,,,,,,,135,90,M,Александр Редикульцев,B
Raw,Yes,1,Andrey Noritsyn,Amateur Masters 50-54,1963,Russia,89.4,,,,,160,165,-167.5,165,,,,,,,165,90,M,Андрей Норицын,B
Raw,Yes,2,Aleksandr Yarin,Amateur Masters 50-54,1960,Russia,88,,,,,115,120,-122.5,120,,,,,,,120,90,M,Александр Ярин,B
Raw,Yes,3,Yuriy Emelkin,Amateur Masters 50-54,1962,Russia,87.3,,,,,100,110,-120,110,,,,,,,110,90,M,Юрий Емелькин,B
Raw,Yes,1,Pavel Bazhenov,Amateur Teen 14-15,1999,Russia,98.3,,,,,82.5,-87.5,87.5,87.5,,,,,,,87.5,100,M,Павел Баженов,B
Raw,Yes,1,Roman Kuznetsov #12,Amateur Teen 18-19,1995,Russia,95.9,,,,,115,125,-130,125,,,,,,,125,100,M,Роман Кузнецов,B
Raw,Yes,1,Andrey Pakulev,Amateur Juniors 20-23,1993,Russia,93.95,,,,,150,157.5,162.5,162.5,,,,,,,162.5,100,M,Андрей Пакулев,B
Raw,Yes,2,Nikita Kuzmitskiy,Amateur Juniors 20-23,1994,Russia,93.4,,,,,135,142.5,-147.5,142.5,,,,,,,142.5,100,M,Никита Кузьмицкий,B
Raw,Yes,1,Aleksey Melnik,Amateur Open,1977,Russia,98.7,,,,,182.5,190,197.5,197.5,,,,,,,197.5,100,M,Алексей Мельник,B
Raw,Yes,2,Yuriy Gorbunov,Amateur Open,1986,Russia,99.45,,,,,175,177.5,182.5,182.5,,,,,,,182.5,100,M,Юрий Горбунов,B
Raw,Yes,3,Ivan Sorokin,Amateur Open,1983,Russia,99.95,,,,,170,175,177.5,177.5,,,,,,,177.5,100,M,Иван Сорокин,B
Raw,Yes,4,Stanislav Peyas,Amateur Open,1990,Russia,97.55,,,,,165,175,-180,175,,,,,,,175,100,M,Станислав Пеяс,B
Raw,Yes,5,Aleksandr Zubarev,Amateur Open,1986,Russia,96.45,,,,,160,165,-170,165,,,,,,,165,100,M,Александр Зубарев,B
Raw,Yes,6,Andrey Tagankin,Amateur Open,1984,Russia,97.15,,,,,165,-175,-175,165,,,,,,,165,100,M,Андрей Таганкин,B
Raw,Yes,7,Aleksey Paraskunov,Amateur Open,1976,Russia,98.65,,,,,160,165,-170,165,,,,,,,165,100,M,Алексей Параскунов,B
Raw,Yes,8,Andrey Novitskiy,Amateur Open,1975,Russia,99.95,,,,,150,160,165,165,,,,,,,165,100,M,Андрей Новицкий,B
Raw,Yes,9,Vladimir Mamaev,Amateur Open,1988,Russia,99.8,,,,,160,-165,-165,160,,,,,,,160,100,M,Владимир Мамаев,B
Raw,Yes,10,Aleksandr Boboshin,Amateur Open,1988,Russia,94,,,,,142.5,145,150,150,,,,,,,150,100,M,Александр Бобошин,B
Raw,Yes,11,Aleksandr Kovalev,Amateur Open,1990,Russia,99,,,,,140,150,-162.5,150,,,,,,,150,100,M,Александр Ковалев,B
Raw,Yes,12,Lev Sumbaev,Amateur Open,1985,Russia,97.55,,,,,137.5,142.5,,142.5,,,,,,,142.5,100,M,Лев Сумбаев,B
Raw,Yes,13,Artem Galyaminskikh,Amateur Open,1989,Russia,94.85,,,,,-135,135,-142.5,135,,,,,,,135,100,M,Артем Галяминских,B
Raw,Yes,DQ,Ivan Lavrenyuk,Amateur Open,1990,Russia,96.4,,,,,-142.5,,,,,,,,,,,100,M,Иван Лавренюк,B
Raw,Yes,1,Dmitriy Shagabutdinov,Amateur Masters 40-44,1971,Russia,99.9,,,,,-150,150,-155,150,,,,,,,150,100,M,Дмитрий Шагабутдинов,B
Raw,Yes,1,Viktor Permyakov,Amateur Masters 45-49,1966,Russia,97.6,,,,,145,162.5,-170,162.5,,,,,,,162.5,100,M,Виктор Пермяков,B
Raw,Yes,2,Anatoliy Butakov,Amateur Masters 45-49,1966,Russia,99.5,,,,,135,142.5,145,145,,,,,,,145,100,M,Анатолий Бутаков,B
Raw,Yes,1,Aleksandr Loskutnikov,Amateur Masters 50-54,1964,Russia,96.2,,,,,150,155,160,160,,,,,,,160,100,M,Александр Лоскутников,B
Raw,Yes,2,Andrey Zhebelev,Amateur Masters 50-54,1962,Russia,94.35,,,,,110,-120,-125,110,,,,,,,110,100,M,Андрей Жебелев,B
Raw,Yes,1,Petr Komarov,Amateur Masters 55-59,1958,Russia,96.25,,,,,155,-165,165,165,,,,,,,165,100,M,Петр Комаров,B
Raw,Yes,1,Artem Avdyukov,Amateur Juniors 20-23,1994,Russia,107,,,,,-157.5,157.5,-167.5,157.5,,,,,,,157.5,110,M,Артем Авдюков,B
Raw,Yes,2,Nikita Karamalak,Amateur Juniors 20-23,1994,Russia,103.3,,,,,150,-157.5,-157.5,150,,,,,,,150,110,M,Никита Карамалак,B
Raw,Yes,3,Kirill Barov,Amateur Juniors 20-23,1991,Russia,103.3,,,,,147.5,-157.5,-157.5,147.5,,,,,,,147.5,110,M,Кирилл Баров,B
Raw,Yes,1,Sergey Tovstukha,Amateur Open,1963,Russia,107.2,,,,,185,-195,197.5,197.5,,,,,,,197.5,110,M,Сергей Товстуха,B
Raw,Yes,2,Denis Sokolov,Amateur Open,1987,Russia,105.9,,,,,132.5,147.5,-152.5,147.5,,,,,,,147.5,110,M,Денис Соколов,B
Raw,Yes,3,Timofey Sharapov,Amateur Open,1978,Russia,108.5,,,,,142.5,147.5,-152.5,147.5,,,,,,,147.5,110,M,Тимофей Шарапов,B
Raw,Yes,4,Sergey Linguryan,Amateur Open,1977,Russia,109.1,,,,,-140,140,-147.5,140,,,,,,,140,110,M,Сергей Лингурян,B
Raw,Yes,1,Andrey Pinyazhin,Amateur Masters 40-44,1974,Russia,104.8,,,,,185,-200,-200,185,,,,,,,185,110,M,Андрей Пиняжин,B
Raw,Yes,2,Vyacheslav Chernikov,Amateur Masters 40-44,1974,Russia,102.1,,,,,-125,-125,125,125,,,,,,,125,110,M,Вячеслав Черников,B
Raw,Yes,1,Ivan Kazantsev,Amateur Masters 45-49,1967,Russia,102,,,,,-167.5,170,175,175,,,,,,,175,110,M,Иван Казанцев,B
Raw,Yes,1,Sergey Tovstukha,Amateur Masters 50-54,1963,Russia,107.2,,,,,185,-195,197.5,197.5,,,,,,,197.5,110,M,Сергей Товстуха,B
Raw,Yes,1,Yuriy Bytov,Amateur Masters 65-69,1949,Russia,107.3,,,,,-130,130,-135,130,,,,,,,130,110,M,Юрий Бытов,B
Raw,Yes,1,Pavel Karamalak,Amateur Open,1973,Russia,125,,,,,190,-195,-195,190,,,,,,,190,125,M,Павел Карамалак,B
Raw,Yes,2,Evgeniy Nazimov,Amateur Open,1977,Russia,120.9,,,,,175,185,-190,185,,,,,,,185,125,M,Евгений Назимов,B
Raw,Yes,1,Pavel Karamalak,Amateur Masters 40-44,1973,Russia,125,,,,,190,-195,-195,190,,,,,,,190,125,M,Павел Карамалак,B
Raw,Yes,2,Sergey Fomin,Amateur Masters 40-44,1971,Russia,112.9,,,,,155,165,-175,165,,,,,,,165,125,M,Сергей Фомин,B
Raw,Yes,1,Aleksey Chernysh,Amateur Masters 45-49,1967,Russia,112.6,,,,,170,180,185,185,,,,,,,185,125,M,Алексей Черныш,B
Raw,Yes,1,Ivan Svyazhin,Amateur Teen 16-17,1997,Russia,135.5,,,,,-130,130,135,135,,,,,,,135,140,M,Иван Свяжин,B
Raw,Yes,1,Nikita Grigoryev,Amateur Teen 18-19,1996,Russia,126.5,,,,,-145,145,150,150,,,,,,,150,140,M,Никита Григорьев,B
Raw,Yes,1,Dmitriy Belyy,Amateur Open,1972,Russia,136.5,,,,,190,200,-205,200,,,,,,,200,140,M,Дмитрий Белый,B
Raw,Yes,2,Ivan Svyazhin,Amateur Open,1997,Russia,135.5,,,,,-130,130,135,135,,,,,,,135,140,M,Иван Свяжин,B
Raw,Yes,1,Dmitriy Belyy,Amateur Masters 40-44,1972,Russia,136.5,,,,,190,200,-205,200,,,,,,,200,140,M,Дмитрий Белый,B
Raw,Yes,1,Vyacheslav Tyazhelnikov,Amateur Masters 60-64,1950,Russia,137,,,,,150,160,162.5,162.5,-165,,,,,,162.5,140,M,Вячеслав Тяжельников,B
Raw,Yes,1,Sergey Lazarev,Amateur Masters 55-59,1960,Russia,144.6,,,,,125,130,-135,130,,,,,,,130,140+,M,Сергей Лазарев,B
Raw,No,1,Elena Pyanova,Pro Masters 40-44,1974,Russia,59.1,,,,,30,37.5,40,40,,,,,,,40,60,F,Елена Пьянова,B
Raw,No,1,Kristina Ivanova,Pro Teen 16-17,1999,Russia,71.9,,,,,45,55,57.5,57.5,,,,,,,57.5,75,F,Кристина Иванова,B
Raw,No,1,Evgeniya Volkova,Pro Open,1987,Russia,73.6,,,,,90,95,100,100,,,,,,,100,75,F,Евгения Волкова,B
Raw,No,1,Natalya Salimova,Pro Masters 40-44,1975,Russia,71.8,,,,,85,-95,-95,85,,,,,,,85,75,F,Наталья Салимова,B
Raw,No,1,Kirill Terentyev,Pro Teen 14-15,2001,Russia,60.95,,,,,50,55,-57.5,55,,,,,,,55,67.5,M,Кирилл Терентьев,B
Raw,No,1,Ivan Nezgovorov,Pro Open,1981,Russia,66.15,,,,,145,-152.5,-152.5,145,,,,,,,145,67.5,M,Иван Незговоров,B
Raw,No,2,Marat Zanakhov,Pro Open,1989,Russia,61.5,,,,,115,120,-125,120,,,,,,,120,67.5,M,Марат Занахов,B
Raw,No,1,Yuriy Lebedev,Pro Masters 75-79,1938,Russia,63.8,,,,,-80,80,82.5,82.5,,,,,,,82.5,67.5,M,Юрий Лебедев,B
Raw,No,1,Valentin Makarov,Pro Masters 50-54,1963,Russia,71.9,,,,,-125,125,-130,125,,,,,,,125,75,M,Валентин Макаров,B
Raw,No,1,Gennadiy Pereladov,Pro Masters 75-79,1939,Russia,73.9,,,,,-75,75,80,80,,,,,,,80,75,M,Геннадий Переладов,B
Raw,No,1,Artem Pashiev,Pro Open,1983,Russia,80.9,,,,,185,-200,200,200,,,,,,,200,82.5,M,Артем Пашиев,B
Raw,No,2,Stanislav Pigilev,Pro Open,1970,Russia,79.9,,,,,120,125,-130,125,,,,,,,125,82.5,M,Станислав Пигилев,B
Raw,No,1,Stanislav Pigilev,Pro Masters 45-49,1970,Russia,79.9,,,,,120,125,-130,125,,,,,,,125,82.5,M,Станислав Пигилев,B
Raw,No,1,Eldar Tsoriev,Pro Masters 65-69,1946,Russia,82.5,,,,,125,131,132.5,132.5,,,,,,,132.5,82.5,M,Эльдар Цориев,B
Raw,No,1,Vladimir Smolonogov,Pro Open,1982,Russia,90,,,,,185,190,-195,190,,,,,,,190,90,M,Владимир Смолоногов,B
Raw,No,2,Aleksey Chubarev,Pro Open,1990,Russia,89.9,,,,,170,-185,-185,170,,,,,,,170,90,M,Алексей Чубарев,B
Raw,No,1,Igor Gavrikov,Pro Masters 45-49,1965,Russia,89.15,,,,,147.5,-155,155,155,,,,,,,155,90,M,Игорь Гавриков,B
Raw,No,1,Fedor Chesnokov,Pro Masters 65-69,1947,Russia,89,,,,,135,145,150,150,,,,,,,150,90,M,Федор Чесноков,B
Raw,No,1,Egor Agashin,Pro Teen 16-17,1997,Russia,95.6,,,,,115,-125,-125,115,,,,,,,115,100,M,Егор Агашин,B
Raw,No,1,Igor Sergeev,Pro Open,1966,Russia,99.4,,,,,220,227.5,-230,227.5,,,,,,,227.5,100,M,Игорь Сергеев,B
Raw,No,2,Vyacheslav Shisterov,Pro Open,1988,Russia,98.2,,,,,185,-192.5,192.5,192.5,,,,,,,192.5,100,M,Вячеслав Шистеров,B
Raw,No,3,Stanislav Alikin,Pro Open,1985,Russia,99.7,,,,,180,185,190,190,,,,,,,190,100,M,Станислав Аликин,B
Raw,No,4,Kirill Shiparev,Pro Open,1982,Russia,98.85,,,,,170,-180,-180,170,,,,,,,170,100,M,Кирилл Шипарев,B
Raw,No,5,Ivan Lavrenyuk,Pro Open,1990,Russia,96.4,,,,,142.5,150,160,160,,,,,,,160,100,M,Иван Лавренюк,B
Raw,No,DQ,Aleksandr Novinskiy,Pro Open,1983,Russia,94,,,,,-210,-210,-210,,,,,,,,,100,M,Александр Новинский,B
Raw,No,1,Igor Sergeev,Pro Masters 45-49,1966,Russia,99.4,,,,,220,227.5,-230,227.5,,,,,,,227.5,100,M,Игорь Сергеев,B
Raw,No,2,Sergey Konovalov #4,Pro Masters 45-49,1969,Russia,92.5,,,,,145,152.5,157.5,157.5,,,,,,,157.5,100,M,Сергей Коновалов,B
Raw,No,1,Yuriy Tretyakov,Pro Masters 50-54,1963,Russia,97.15,,,,,155,-162.5,162.5,162.5,,,,,,,162.5,100,M,Юрий Третьяков,B
Raw,No,1,Artem Kobanov,Pro Juniors 20-23,1992,Russia,108.4,,,,,205,215,-225,215,,,,,,,215,110,M,Артем Кобанов,B
Raw,No,1,Stepan Kochkin,Pro Open,1986,Russia,110,,,,,210,225,-235,225,,,,,,,225,110,M,Степан Кочкин,B
Raw,No,2,Aleksandr Kozhevin,Pro Open,1979,Russia,103.1,,,,,187.5,195,202.5,202.5,,,,,,,202.5,110,M,Александр Кожевин,B
Raw,No,3,Eduard Gizatulin,Pro Open,1976,Russia,108.6,,,,,190,-202.5,202.5,202.5,,,,,,,202.5,110,M,Эдуард Гизатулин,B
Raw,No,4,Vladimir Beloglazov,Pro Open,1969,Russia,102.8,,,,,185,195,-200,195,,,,,,,195,110,M,Владимир Белоглазов,B
Raw,No,5,Aleksandr Spiryanin,Pro Open,1977,Russia,106.4,,,,,192.5,-202.5,-205,192.5,,,,,,,192.5,110,M,Александр Спирянин,B
Raw,No,6,Vladimir Petrov,Pro Open,1968,Russia,105.5,,,,,180,-187.5,-195,180,,,,,,,180,110,M,Владимир Петров,B
Raw,No,1,Vladimir Beloglazov,Pro Masters 45-49,1969,Russia,102.8,,,,,185,195,-200,195,,,,,,,195,110,M,Владимир Белоглазов,B
Raw,No,2,Vladimir Petrov,Pro Masters 45-49,1968,Russia,105.5,,,,,180,-187.5,-195,180,,,,,,,180,110,M,Владимир Петров,B
Raw,No,3,Evgeniy Korovin,Pro Masters 45-49,1969,Russia,109.8,,,,,-177.5,-177.5,180,180,,,,,,,180,110,M,Евгений Коровин,B
Raw,No,1,Sergey Kirillov,Pro Masters 50-54,1964,Russia,109.7,,,,,180,-197.5,,180,,,,,,,180,110,M,Сергей Кириллов,B
Raw,No,1,Yuriy Obukhov,Pro Masters 55-59,1958,Russia,108.6,,,,,155,-160,162.5,162.5,,,,,,,162.5,110,M,Юрий Обухов,B
Raw,No,1,Aleksey Kapitonov,Pro Teen 18-19,1995,Russia,124.2,,,,,175,185,-195,185,,,,,,,185,125,M,Алексей Капитонов,B
Raw,No,1,Anatoliy Serbin,Pro Open,1990,Russia,116.1,,,,,260,270,,270,,,,,,,270,125,M,Анатолий Сербин,B
Raw,No,1,Aleksey Lenkov,Pro Masters 45-49,1968,Russia,122.9,,,,,-185,185,,185,,,,,,,185,125,M,Алексей Леньков,B
Raw,No,1,Sergey Kharlamov,Pro Open,1973,Russia,131.2,,,,,-190,190,202.5,202.5,,,,,,,202.5,140,M,Сергей Харламов,B
Raw,No,2,Sergey Trepakov,Pro Open,1962,Russia,126.2,,,,,162.5,170,175,175,,,,,,,175,140,M,Сергей Трепаков,B
Raw,No,1,Sergey Trepakov,Pro Masters 50-54,1962,Russia,126.2,,,,,162.5,170,175,175,,,,,,,175,140,M,Сергей Трепаков,B
