Equipment,Place,Name,BirthYear,Country,BodyweightKg,Bench1Kg,Bench2Kg,Bench3Kg,Best3BenchKg,WeightClassKg,Sex,CyrillicName,Event,TotalKg,Division
Raw,1,Evgeniya Tarasenko,1984,Russia,52.6,45,50,52.5,52.5,57,F,Евгения Тарасенко,B,52.5,Open
Raw,2,Anna Grebenets,1990,Russia,55.9,47.5,50,-55,50,57,F,Анна Гребенец,B,50,Open
Raw,3,Elena Kulavaskaya,1996,Russia,56.8,42.5,47.5,-50,47.5,57,F,Елена Кулаваская,B,47.5,Open
Raw,4,Kseniya Malakina,2000,Russia,55.4,37.5,40,42.5,42.5,57,F,Ксения Малакина,B,42.5,Open
Raw,5,Yana Korotina,1980,Russia,55.3,35,37.5,40,40,57,F,Яна Коротина,B,40,Open
Raw,1,Ulyana Shestakova,1991,Russia,60.4,60,65,70,70,63,F,Ульяна Шестакова,B,70,Open
Raw,2,Olga Gorbacheva,1985,Russia,61,60,65,-70,65,63,F,Ольга Горбачева,B,65,Open
Raw,3,Yuliya Shvets,1983,Russia,59,55,57.5,62.5,62.5,63,F,Юлия Швец,B,62.5,Open
Raw,4,Marina Gostintseva,2000,Russia,59.7,45,50,-52.5,50,63,F,Марина Гостинцева,B,50,Open
Raw,5,Anzhelika Kalenitsina,1970,Russia,59.5,45,47.5,-50,47.5,63,F,Анжелика Каленицина,B,47.5,Open
Raw,6,Nadezhda Kostyuk,1992,Russia,60.1,40,-45,-45,40,63,F,Надежда Костюк,B,40,Open
Raw,1,Svetlana Korobitsina,1984,Russia,63.1,60,-62.5,62.5,62.5,72,F,Светлана Коробицина,B,62.5,Open
Raw,2,Irina Elizarova,1960,Russia,67.6,-45,47.5,-52.5,47.5,72,F,Ирина Елизарова,B,47.5,Open
Raw,3,Evgeniya Fedotova,1997,Russia,69.6,-40,40,45,45,72,F,Евгения Федотова,B,45,Open
Raw,1,Vadim Masorin,1998,Russia,58.5,80,85,-87.5,85,66,M,Вадим Масорин,B,85,Open
Raw,2,Dmitriy Voronov,2000,Russia,60.4,45,52.5,-55,52.5,66,M,Дмитрий Воронов,B,52.5,Open
Raw,3,Egor Zaytsev,2002,Russia,65.1,50,-57.5,-57.5,50,66,M,Егор Зайцев,B,50,Open
Raw,4,Egor Romanov,2002,Russia,55.8,40,-47.5,-47.5,40,66,M,Егор Романов,B,40,Open
Raw,1,Aleksey Korotin,1976,Russia,72.1,110,117.5,122.5,122.5,74,M,Алексей Коротин,B,122.5,Open
Raw,2,Aleksey Kalimulin,1982,Russia,72.5,115,120,122.5,122.5,74,M,Алексей Калимулин,B,122.5,Open
Raw,3,Tair Yusupov,1985,Russia,71,110,115,-120,115,74,M,Таир Юсупов,B,115,Open
Raw,4,Oleg Pilipenko,1990,Russia,70.9,100,110,-120,110,74,M,Олег Пилипенко,B,110,Open
Raw,5,Aleksandr Gutikov,1993,Russia,71.2,75,85,-95,85,74,M,Александр Гутиков,B,85,Open
Raw,6,Roman Ivanov #11,2002,Russia,67.8,60,-67.5,67.5,67.5,74,M,Роман Иванов,B,67.5,Open
Raw,7,Ivan Yakovlev,2002,Russia,73.1,55,62.5,-65,62.5,74,M,Иван Яковлев,B,62.5,Open
Raw,1,Pavel Kasperavichyus,1991,Russia,77.3,170,180,185,185,83,M,Павел Касперавичюс,B,185,Open
Raw,2,Rubin Vakengut,1991,Russia,82,125,132.5,-137.5,132.5,83,M,Рубин Вакенгут,B,132.5,Open
Raw,3,Ivan Repkin,1978,Russia,81.3,120,125,-130,125,83,M,Иван Репкин,B,125,Open
Raw,4,Aleksandr Laptev,1969,Russia,77.7,97.5,-102.5,105,105,83,M,Александр Лаптев,B,105,Open
Raw,5,Sergey Ganshin,1987,Russia,82.2,90,-95,-95,90,83,M,Сергей Ганьшин,B,90,Open
Raw,1,Aleksandr Levunets,1985,Russia,92.1,190,205,212.5,212.5,93,M,Александр Левунец,B,212.5,Open
Raw,2,Sergey Smirnov,1990,Russia,88,180,185,-187.5,185,93,M,Сергей Смирнов,B,185,Open
Raw,3,Aleksandr Perezhogin,1978,Russia,84.9,150,160,-167.5,160,93,M,Александр Пережогин,B,160,Open
Raw,4,Denis Kovalskiy,1993,Russia,90,150,160,-165,160,93,M,Денис Ковальский,B,160,Open
Raw,5,Artem Sheptura,2000,Russia,86.7,120,125,130,130,93,M,Артем Шептура,B,130,Open
Raw,6,Konstantin Sviridov,1986,Russia,91,115,120,122.5,122.5,93,M,Константин Свиридов,B,122.5,Open
Raw,7,Aleksandr Morozov,1982,Russia,86.7,115,-122.5,-122.5,115,93,M,Александр Морозов,B,115,Open
Raw,8,Denis Vostrilov,1990,Russia,84.5,85,90,-92.5,90,93,M,Денис Вострилов,B,90,Open
Raw,9,Yuriy Filippov,1998,Russia,86.4,90,-97.5,-97.5,90,93,M,Юрий Филиппов,B,90,Open
Raw,10,Aleksandr Uglin,1986,Russia,89.6,75,80,85,85,93,M,Александр Углин,B,85,Open
Raw,1,Andrey Kuzmin,1968,Russia,104.4,175,180,-185,180,105,M,Андрей Кузьмин,B,180,Open
Raw,2,Ruslan Kiryanov,1972,Russia,105,165,170,-175,170,105,M,Руслан Кирьянов,B,170,Open
Raw,3,Vitaliy Belyaev #4,1991,Russia,103.2,155,160,165,165,105,M,Виталий Беляев,B,165,Open
Raw,4,Grigoriy Stenyakin,1988,Russia,102.9,150,-155,155,155,105,M,Григорий Стенякин,B,155,Open
Raw,1,Vadim Kotov,1992,Russia,118.7,200,210,218,218,120,M,Вадим Котов,B,218,Open
Raw,2,Nikita Morozov,2002,Russia,109.2,75,-85,87.5,87.5,120,M,Никита Морозов,B,87.5,Open
