Equipment,Place,Name,Division,BirthYear,Country,BodyweightKg,Squat1Kg,Squat2Kg,Squat3Kg,Best3SquatKg,Bench1Kg,Bench2Kg,Bench3Kg,Best3BenchKg,Deadlift1Kg,Deadlift2Kg,Deadlift3Kg,Best3DeadliftKg,TotalKg,WeightClassKg,Sex,Event
Raw,1,Anna Severkina,Pro Teen & Juniors,1992,Russia,58.2,90,-95,-100,90,55,-60,-60,55,95,100,110,110,255,60,F,SBD
Raw,2,Liliya Myazhitova,Pro Teen & Juniors,1993,Russia,58.9,60,70,-75,70,40,45,50,50,110,115,120,120,240,60,F,SBD
Raw,3,Olesya Sinelnikova,Pro Teen & Juniors,1993,Russia,51.7,70,80,-90,80,45,50,-55,50,80,90,100,100,230,60,F,SBD
Raw,1,Olga Lobanova,Pro Open,1974,Russia,56.1,75,-80,80,80,37.5,-42.5,42.5,42.5,85,90,95,95,217.5,60,F,SBD
Raw,1,Natalya Molchanova,Pro Open,1973,Russia,66.6,85,95,-100,95,50,55,-57.5,55,100,105,110,110,260,75,F,SBD
Raw,2,Irina Grishina,Pro Open,,Russia,60.5,75,85,-90,85,40,-45,-45,40,90,-100,100,100,225,75,F,SBD
Raw,1,Gevorg Muradyan,Pro Teen & Juniors,,Russia,58.7,,-100,100,100,60,70,-80,70,120,130,-140,130,300,60,M,SBD
Raw,2,Artem Makhonin,Pro Teen & Juniors,,Russia,59.3,-80,80,95,95,45,50,-55,50,90,100,-110,100,245,60,M,SBD
Raw,1,Sergey Potemkin,Pro Teen & Juniors,1989,Russia,64.2,120,-130,130,130,95,-100,100,100,160,170,180,180,410,67.5,M,SBD
Raw,2,Aleksey Komarov,Pro Teen & Juniors,,Russia,64.2,85,-95,-95,85,45,55,-60,55,115,120,130,130,270,67.5,M,SBD
Raw,1,David Sarkisyan,Pro Teen & Juniors,1990,Russia,71.3,160,170,-175,170,100,110,-115,110,180,190,200,200,480,75,M,SBD
Raw,2,Nikita Kartazaev,Pro Teen & Juniors,1994,Russia,71,140,150,165,165,80,90,-100,90,145,160,170,170,425,75,M,SBD
Raw,3,Sergey Chekmasov,Pro Teen & Juniors,1989,Russia,72.8,130,140,-150,140,80,87.5,-90,87.5,160,170,180,180,407.5,75,M,SBD
Raw,1,Dmitriy Rastorguev,Pro Teen & Juniors,1993,Russia,76.9,-190,190,200,200,120,-130,-130,120,190,-200,-200,190,510,82.5,M,SBD
Raw,1,Maksim Petrov,Pro Teen & Juniors,1993,Russia,82.5,120,-135,135,135,90,95,-100,95,140,-155,-155,140,370,82.5,M,SBD
Raw,2,Evgeniy Tsvetkov,Pro Teen & Juniors,1994,Russia,79,140,150,160,160,90,100,-107.5,100,160,170,180,180,440,82.5,M,SBD
Raw,1,Aleksandr Koshelev #1,Pro Open,1987,Russia,77.3,185,200,210,210,115,125,130,130,210,230,-250,230,570,82.5,M,SBD
Raw,1,Pavel Arbuzov,Pro Open,,Russia,78.3,-145,145,150,150,110,117.5,-122.5,117.5,190,200,210,210,477.5,82.5,M,SBD
Raw,1,Vladimir Gorbachev,Pro Teen & Juniors,1988,Russia,89.6,-180,-180,180,180,130,140,-145,140,210,230,-240,230,550,90,M,SBD
Raw,2,Anton Terebin,Pro Teen & Juniors,1990,Russia,90,-140,140,-160,140,140,-150,-150,140,170,190,210,210,490,90,M,SBD
Raw,1,Aleksandr Morozkin,Pro Open,1984,Russia,87.9,130,145,150,150,112.5,117.5,122.5,122.5,150,170,180,180,452.5,90,M,SBD
Raw,1,Andrey Bayzhanov,Pro Teen & Juniors,1993,Russia,91.6,180,190,200,200,125,135,-140,135,210,230,240,240,575,100,M,SBD
Raw,2,Renat Agaev,Pro Teen & Juniors,1990,Russia,92.4,155,165,175,175,150,162.5,-167.5,162.5,190,205,215,215,552.5,100,M,SBD
Raw,3,Viktor Ivanov,Pro Teen & Juniors,1993,Russia,94.2,150,160,175,175,100,-110,115,115,170,190,200,200,490,100,M,SBD
Raw,1,Sergey Chernyshov,Pro Open,1977,Russia,107.5,-190,200,,200,120,,,120,150,,,150,470,110,M,SBD
Multi-ply,1,Yuliana Krupova,Pro Open,1984,Russia,59.2,95,110,-115,110,55,-57.5,57.5,57.5,95,110,120,120,287.5,60,F,SBD
Multi-ply,2,Olga Lobanova,Pro Open,1974,Russia,56.1,75,-80,80,80,37.5,-42.5,42.5,42.5,85,90,95,95,217.5,60,F,SBD
Multi-ply,1,Inna Myagkova,Pro Teen & Juniors,1995,Russia,70.4,100,110,115,115,65,-72.5,72.5,72.5,100,110,115,115,302.5,75,F,SBD
Multi-ply,1,Mikhail Semenikhin,Pro Teen & Juniors,1995,Russia,64.5,-190,200,215,215,100,110,112.5,112.5,180,-190,,180,507.5,67.5,M,SBD
Multi-ply,1,Stanislav Feklyunin,Pro Teen & Juniors,1995,Russia,72.2,80,90,100,100,70,75,80,80,100,110,120,120,300,75,M,SBD
Multi-ply,1,Vladimir Konkin,Pro Teen & Juniors,1989,Russia,81.1,275,290,300,300,150,160,165,165,190,205,-215,205,670,82.5,M,SBD
Multi-ply,1,Vladimir Konkin,Pro Open,1989,Russia,81.1,275,290,300,300,150,160,165,165,190,205,-215,205,670,82.5,M,SBD
Multi-ply,1,Andrey Frolov,Pro Open,1982,Russia,96,240,250,-260,250,195,-205,-205,195,250,265,270,270,715,100,M,SBD
Multi-ply,1,Aleksandr Myzrov,Pro Teen & Juniors,,Russia,108.4,140,160,-180,160,110,120,125,125,140,150,160,160,445,110,M,SBD
Raw,1,Tatyana Kulagina,Pro Open,1972,Russia,56.3,,,,,72.5,-80,80,80,,,,,80,60,F,B
Raw,2,Alena Levchenko,Pro Open,1979,Russia,51.3,,,,,45,50,55,55,,,,,55,60,F,B
Raw,1,Anna Ogorodnikova,Pro Open,1984,Russia,60.5,,,,,60,67.5,70,70,,,,,70,67.5,F,B
Raw,1,Narik Danelyan,Pro Open,1987,Russia,54.6,,,,,90,97.5,100,100,,,,,100,60,M,B
Raw,1,Valeriy Yurin,Pro Teen & Juniors,1990,Russia,75,,,,,100,105,110,110,,,,,110,75,M,B
Raw,2,Evgeniy Dubovikov,Pro Teen & Juniors,,Russia,70.7,,,,,-80,80,-85,80,,,,,80,75,M,B
Raw,1,Anton Nazarov,Pro Open,1984,Russia,74.2,,,,,145,150,152.5,152.5,,,,,152.5,75,M,B
Raw,1,Ilya Schukin,Pro Teen & Juniors,1991,Russia,80.4,,,,,125,130,135,135,,,,,135,82.5,M,B
Raw,2,Oleg Seleznev,Pro Teen & Juniors,1992,Russia,80.9,,,,,110,115,117.5,117.5,,,,,117.5,82.5,M,B
Raw,3,Dmitriy Krylov,Pro Teen & Juniors,1988,Russia,77.4,,,,,100,105,-110,105,,,,,105,82.5,M,B
Raw,1,Aleksandr Kopanev,Pro Open,1983,Russia,81.7,,,,,155,160,162.5,162.5,,,,,162.5,82.5,M,B
Raw,1,Anton Terebin,Pro Teen & Juniors,1990,Russia,90,,,,,140,147.5,-150,147.5,,,,,147.5,90,M,B
Raw,2,Vadim Kurashev,Pro Teen & Juniors,,Russia,85.1,,,,,90,95,100,100,,,,,100,90,M,B
Raw,1,Andrey Fokin,Pro Open,1991,Russia,89.2,,,,,-170,175,185,185,,,,,185,90,M,B
Raw,2,Dmitriy Ivashechkin,Pro Open,1971,Russia,85,,,,,120,127.5,132.5,132.5,,,,,132.5,90,M,B
Raw,1,Vladislav Nikolskiy,Pro Teen & Juniors,,Russia,91.6,,,,,120,-130,-130,120,,,,,120,100,M,B
Raw,1,Renat Agaev,Pro Teen & Juniors,1990,Russia,92.4,,,,,150,162.5,167.5,167.5,,,,,167.5,110,M,B
Raw,2,Aleksandr Koshelev #3,Pro Teen & Juniors,1987,Russia,107.5,,,,,130,140,-145,140,,,,,140,110,M,B
Raw,1,Aleksey Kunichkin,Pro Open,1973,Russia,99,,,,,140,150,-155,150,,,,,150,110,M,B
Raw,2,Aleksandr Roganov,Pro Open,,Russia,104.8,,,,,135,142.5,147.5,147.5,,,,,147.5,110,M,B
Raw,1,Eduard Shepelev,Pro Open,,Russia,110.3,,,,,-130,130,137.5,137.5,,,,,137.5,110+,M,B
Multi-ply,1,Vasilina Avdeenko,Pro Open,1983,Russia,59.9,,,,,55,65,-70,65,,,,,65,60,F,B
Multi-ply,1,Inna Myagkova,Pro Teen & Juniors,1995,Russia,70.4,,,,,65,72.5,75,75,,,,,75,75,F,B
Multi-ply,1,Sergey Zlobin,Pro Teen & Juniors,1991,Russia,54,,,,,80,-87.5,-87.5,80,,,,,80,60,M,B
Multi-ply,1,Ivan Ryazantsev,Pro Teen & Juniors,1991,Russia,64.5,,,,,100,,,100,,,,,100,67,M,B
Multi-ply,1,Ivan Semenikhin,Pro Teen & Juniors,1991,Russia,74.7,,,,,160,170,180,180,,,,,180,75,M,B
Multi-ply,2,Stanislav Feklyunin,Pro Teen & Juniors,1995,Russia,72.2,,,,,70,80,-85,80,,,,,80,75,M,B
Multi-ply,1,Vladimir Konkin,Pro Teen & Juniors,1989,Russia,81.1,,,,,150,160,167.5,167.5,,,,,167.5,82.5,M,B
Multi-ply,1,Vladimir Konkin,Pro Open,1989,Russia,81.1,,,,,150,160,167.5,167.5,,,,,167.5,82.5,M,B
Multi-ply,1,Vyacheslav Rakhmanov,Pro Open,1968,Russia,105,,,,,250,260,270,270,,,,,270,110,M,B
Multi-ply,2,Sergey Zakharov #3,Pro Open,1971,Russia,96,,,,,240,250,-257.5,250,,,,,250,110,M,B
Multi-ply,3,Sergey Alkhov,Pro Open,1984,Russia,109.4,,,,,175,185,195,195,,,,,195,110,M,B
Multi-ply,1,Aleksandr Ablizin,Pro Open,1973,Russia,155,,,,,220,230,240,240,,,,,240,110+,M,B
