Equipment,Place,Name,BirthYear,Country,BodyweightKg,Best3SquatKg,Best3BenchKg,Best3DeadliftKg,TotalKg,WeightClassKg,Sex,CyrillicName,Event,Division
Single-ply,1,Anna Grebenets,1990,Russia,54.45,125,75,130,330,57,F,Анна Гребенец,SBD,Open
Single-ply,2,Alina Zvonkina,2001,Russia,55.6,85,47.5,80,212.5,57,F,Алина Звонкина,SBD,Open
Single-ply,1,Elena Kiricheva,,Russia,61.95,100,70,95,265,63,F,Елена Киричева,SBD,Open
Single-ply,1,Maksim Baglay,,Russia,64.05,112.5,95,150,357.5,66,M,Максим Баглай,SBD,Open
Single-ply,1,Maksim Kutovoy,1989,Russia,73.95,250,185,215,650,74,M,Максим Кутовой,SBD,Open
Single-ply,2,Denis Cherepov,1998,Russia,69.5,190,127.5,220,537.5,74,M,Денис Черепов,SBD,Open
Single-ply,3,Aleksey Lauskis,1999,Russia,72.7,175,145,200,520,74,M,Алексей Лаускис,SBD,Open
Single-ply,4,Maksim Parkin,2001,Russia,71.3,175,125,200,500,74,M,Максим Паркин,SBD,Open
Single-ply,5,Sergey Kukhkh,1992,Russia,71.5,200,110,180,490,74,M,Сергей Кухх,SBD,Open
Single-ply,6,Aleksey Zakharov,2000,Russia,73.65,170,130,175,475,74,M,Алексей Захаров,SBD,Open
Single-ply,1,Yuriy Ershov,1972,Russia,90.45,270,190,260,720,93,M,Юрий Ершов,SBD,Open
Single-ply,2,Andrey Onufriychuk,1987,Russia,92.9,245,170,240,655,93,M,Андрей Онуфрийчук,SBD,Open
Single-ply,3,Yuriy Almyashov,1979,Russia,91.45,240,155,230,625,93,M,Юрий Альмяшов,SBD,Open
Single-ply,4,Igor Kuzmin,1988,Russia,90.2,210,152.5,230,592.5,93,M,Игорь Кузьмин,SBD,Open
Single-ply,1,Aleksandr Gorokhovskiy,1989,Russia,101.4,300,240,300,840,105,M,Александр Гороховский,SBD,Open
Single-ply,2,Ivan Asandi,1979,Russia,98.95,320,230,260,810,105,M,Иван Асанди,SBD,Open
Single-ply,3,Denis Pilipenko,1984,Russia,102.5,220,200,240,660,105,M,Денис Пилипенко,SBD,Open
Single-ply,4,Oleg Sokov,1981,Russia,96.8,205,145,220,570,105,M,Олег Соков,SBD,Open
Single-ply,1,Maksim Sukhov,1974,Russia,119.5,290,235,270,795,120,M,Максим Сухов,SBD,Open
Single-ply,2,Maksim Prischip,1982,Russia,119.95,305,207.5,252.5,765,120,M,Максим Прищип,SBD,Open
Single-ply,DQ,Dmitriy Bludnev,1971,Russia,127.3,235,,,,120+,M,Дмитрий Блуднев,SBD,Open
Raw,1,Elena Toksarova,2002,Russia,44.5,67.5,35,75,177.5,47,F,Елена Токсарова,SBD,Open
Raw,2,Karina Zamorskaya,2003,Russia,46,57.5,35,80,172.5,47,F,Карина Заморская,SBD,Open
Raw,3,Olga Zinovaya,2001,Russia,47,55,35,70,160,47,F,Ольга Зиновая,SBD,Open
Raw,1,Evgeniya Tarasenko,1984,Russia,51.6,80,50,105,235,52,F,Евгения Тарасенко,SBD,Open
Raw,2,Darina Povidaychik,2004,Russia,51.2,80,37.5,100,217.5,52,F,Дарина Повидайчик,SBD,Open
Raw,3,Galina Polukhina,1989,Russia,50.8,80,35,80,195,52,F,Галина Полухина,SBD,Open
Raw,4,Darya Mandryka,1997,Russia,51.2,70,37.5,87.5,195,52,F,Дарья Мандрыка,SBD,Open
Raw,DQ,Anna Klisch,1989,Russia,51.1,100,,,,52,F,Анна Клищ,SBD,Open
Raw,1,Yuliya Shvets,1983,Russia,56.5,112.5,75,125,312.5,57,F,Юлия Швец,SBD,Open
Raw,2,Olga Kopylova,1992,Russia,55,95,62.5,107.5,265,57,F,Ольга Копылова,SBD,Open
Raw,3,Viktoriya Soskova,1999,Russia,55,75,42.5,107.5,225,57,F,Виктория Соскова,SBD,Open
Raw,4,Kseniya Gendelman,1991,Russia,55.9,80,50,90,220,57,F,Ксения Гендельман,SBD,Open
Raw,5,Darya Belashova,2000,Russia,56.1,75,35,110,220,57,F,Дарья Белашова,SBD,Open
Raw,6,Galina Gnilitsa,2001,Russia,54.5,55,45,95,195,57,F,Галина Гнилица,SBD,Open
Raw,DQ,Yuliya Fayzulina,1993,Russia,55.9,,,,,57,F,Юлия Файзулина,SBD,Open
Raw,1,Irina Artyushkina,1993,Russia,62.7,100,62.5,135,297.5,63,F,Ирина Артюшкина,SBD,Open
Raw,2,Kristina Shnayder,1997,Russia,62.8,80,62.5,120,262.5,63,F,Кристина Шнайдер,SBD,Open
Raw,3,Taisiya Veresova,1999,Russia,57.9,87.5,52.5,105,245,63,F,Таисия Вересова,SBD,Open
Raw,4,Melan Movsesyan,2000,Russia,60.5,72.5,45,95,212.5,63,F,Мелан Мовсесян,SBD,Open
Raw,5,Marina Chebotareva,1985,Russia,59.3,80,30,95,205,63,F,Марина Чеботарева,SBD,Open
Raw,6,Alena Alekseeva,1986,Russia,60.5,65,42.5,95,202.5,63,F,Алена Алексеева,SBD,Open
Raw,7,Viktoriya Miseva,2000,Russia,60.2,75,42.5,70,187.5,63,F,Виктория Мисева,SBD,Open
Raw,1,Olga Gorbacheva,1985,Russia,67.8,120,70,115,305,72,F,Ольга Горбачева,SBD,Open
Raw,2,Irina Elizarova,1960,Russia,69.8,95,55,135,285,72,F,Ирина Елизарова,SBD,Open
Raw,3,Agata Goltsova,2005,Russia,69.9,72.5,45,82.5,200,72,F,Агата Гольцова,SBD,Open
Raw,DQ,Evgeniya Fedotova,1997,Russia,70.7,107.5,,,,72,F,Евгения Федотова,SBD,Open
Raw,1,Yuliya Gorelova,1987,Russia,82.4,115,70,155,340,84,F,Юлия Горелова,SBD,Open
Raw,2,Olesya Pugach,1983,Russia,81.9,117.5,67.5,120,305,84,F,Олеся Пугач,SBD,Open
Raw,3,Vladislava Babenko,2001,Russia,76.5,95,42.5,100,237.5,84,F,Владислава Бабенко,SBD,Open
Raw,1,Andrey Grishakin,1992,Russia,54.7,100,75,155,330,59,M,,SBD,Open
Raw,2,Sergey Zatsarin,2003,Russia,48.5,55,35,90,180,59,M,Сергей Зацарин,SBD,Open
Raw,3,Artem Tretyakov,2005,Russia,41.8,42.5,30,72.5,145,59,M,Артем Третьяков,SBD,Open
Raw,1,Yuriy Novoselov,1992,Russia,65.5,140,90,195,425,66,M,Юрий Новоселов,SBD,Open
Raw,2,Nikita Mikhanov,2003,Russia,64.1,130,75,162.5,367.5,66,M,Никита Миханов,SBD,Open
Raw,3,Sergey Tikhonov,2001,Russia,63.7,120,90,150,360,66,M,Сергей Тихонов,SBD,Open
Raw,4,Ilya Artamonov,2001,Russia,62.1,115,70,150,335,66,M,Илья Артамонов,SBD,Open
Raw,5,Danila Poletaev,2000,Russia,64.1,105,82.5,120,307.5,66,M,Данила Полетаев,SBD,Open
Raw,6,Nikita Vasilyev,2002,Russia,63.6,105,60,115,280,66,M,Никита Васильев,SBD,Open
Raw,7,Vladimir Efanov,2001,Russia,63.4,80,60,130,270,66,M,Владимир Ефанов,SBD,Open
Raw,1,Artem Slepukhin,1981,Russia,71.4,165,135,210,510,74,M,Артем Слепухин,SBD,Open
Raw,2,Kirill Bozheskov,1990,Russia,73.5,165,125,200,490,74,M,,SBD,Open
Raw,3,Aleksey Kalimulin,1982,Russia,73.2,155,117.5,177.5,450,74,M,Алексей Калимулин,SBD,Open
Raw,4,Mikhail Pakholkov,1983,Russia,73.4,145,115,185,445,74,M,Михаил Пахолков,SBD,Open
Raw,5,Timur Urazmetov,2001,Russia,73.1,135,87.5,155,377.5,74,M,Тимур Уразметов,SBD,Open
Raw,6,Linur Zakiev,1988,Russia,73.1,125,100,147.5,372.5,74,M,Линур Закиев,SBD,Open
Raw,7,Roman Sukharev,2002,Russia,71.3,125,85,160,370,74,M,Роман Сухарев,SBD,Open
Raw,8,Nikita Naranovich,2002,Russia,71.9,115,90,150,355,74,M,Никита Наранович,SBD,Open
Raw,9,Konstantin Kromm,2002,Russia,69.4,105,65,130,300,74,M,Константин Кромм,SBD,Open
Raw,DQ,Sergey Danilov,2002,Russia,71.6,,,,,74,M,Сергей Данилов,SBD,Open
Raw,DQ,Denis Ledyakhov,1987,Russia,73.9,,,,,74,M,Денис Ледяхов,SBD,Open
Raw,1,Konstantin Bachinov,1992,Russia,82.25,210,170,260,640,83,M,Константин Бачинов,SBD,Open
Raw,2,Viktor Kurzenev,1993,Russia,82.8,220,150,230,600,83,M,Виктор Курзенев,SBD,Open
Raw,3,Ivan Goncharov,1985,Russia,81.65,195,150,230,575,83,M,Иван Гончаров,SBD,Open
Raw,4,Aleksandr Klepikov,1974,Russia,79.95,180,155,235,570,83,M,Александр Клепиков,SBD,Open
Raw,5,Artem Zlobin,1999,Russia,81.75,195,130,225,550,83,M,Артем Злобин,SBD,Open
Raw,6,Nikolay Tvardovskiy,1978,Russia,78.9,192.5,110,230,532.5,83,M,Николай Твардовский,SBD,Open
Raw,7,Aleksandr Matisov,1987,Russia,80,160,132.5,230,522.5,83,M,Александр Матисов,SBD,Open
Raw,8,Aleksey Shuleshov,1982,Russia,82.2,180,120,210,510,83,M,Алексей Шулешов,SBD,Open
Raw,9,Sergey Kuznetsov #4,1988,Russia,82.75,175,132.5,170,477.5,83,M,Сергей Кузнецов,SBD,Open
Raw,10,Aleksey Syromyatnikov,1980,Russia,78.7,160,110,190,460,83,M,,SBD,Open
Raw,11,Sergey Karasev,1992,Russia,79.5,147.5,120,157.5,425,83,M,Сергей Карасев,SBD,Open
Raw,12,Aleksandr Leonov,1986,Russia,81,140,120,165,425,83,M,Александр Леонов,SBD,Open
Raw,13,Aleksandr Goltsov,2002,Russia,80.1,135,85,152.5,372.5,83,M,Александр Гольцов,SBD,Open
Raw,DQ,Aleksandr Zhigulin,1986,Russia,82.2,185,142.5,,,83,M,Александр Жигулин,SBD,Open
Raw,1,Nikolay Kravchenko,1986,Russia,90.8,250,182.5,262.5,695,93,M,Николай Кравченко,SBD,Open
Raw,2,Anatoliy Gudin,1990,Russia,91.1,230,192.5,255,677.5,93,M,Анатолий Гудин,SBD,Open
Raw,3,Aleksandr Perezhogin,1978,Russia,84.55,255,167.5,240,662.5,93,M,Александр Пережогин,SBD,Open
Raw,4,Eduard Galkov,1975,Russia,91.7,225,195,240,660,93,M,Эдуард Гальков,SBD,Open
Raw,5,Valeriy Bulatov,1985,Russia,89.45,210,155,240,605,93,M,Валерий Булатов,SBD,Open
Raw,6,Aleksandr Bardin,1975,Russia,90.5,210,140,230,580,93,M,Александр Бардин,SBD,Open
Raw,7,Anton Nikonov,1991,Russia,83.75,180,155,240,575,93,M,Антон Никонов,SBD,Open
Raw,8,Aleksandr Apukhtin,1993,Russia,90.4,180,132.5,227.5,540,93,M,Александр Апухтин,SBD,Open
Raw,9,Valeriy Malakhov,1984,Russia,91.75,190,130,220,540,93,M,Валерий Малахов,SBD,Open
Raw,10,Daniil Necheporenko,1993,Russia,92.8,190,122.5,210,522.5,93,M,Даниил Нечепоренко,SBD,Open
Raw,11,Aleksandr Morozov,1982,Russia,90.7,170,130,210,510,93,M,Александр Морозов,SBD,Open
Raw,12,Vitaliy Cherisov,1993,Russia,90.6,155,100,210,465,93,M,Виталий Черисов,SBD,Open
Raw,13,Sergey Ganshin,1987,Russia,88.85,160,107.5,185,452.5,93,M,Сергей Ганьшин,SBD,Open
Raw,14,Denis Vostrilov,1990,Russia,87.1,160,97.5,172.5,430,93,M,Денис Вострилов,SBD,Open
Raw,15,Andrey Kascheev,1983,Russia,91.4,140,100,160,400,93,M,Андрей Кащеев,SBD,Open
Raw,16,Aleksandr Kuyukin,2002,Russia,88.65,135,95,165,395,93,M,Александр Куюкин,SBD,Open
Raw,17,Aleksandr Uglin,1986,Russia,90.85,130,107.5,150,387.5,93,M,Александр Углин,SBD,Open
Raw,DQ,Dmitriy Nosov,1991,Russia,89.7,170,,,,93,M,Дмитрий Носов,SBD,Open
Raw,DQ,Roman Mazitov,2000,Russia,92.1,,,,,93,M,Роман Мазитов,SBD,Open
Raw,1,Aleksandr Gorokhovskiy,1989,Russia,100.45,257.5,172.5,306,736,105,M,Александр Гороховский,SBD,Open
Raw,2,Andrey Rodichev,1982,Russia,103.7,235,162.5,280,677.5,105,M,,SBD,Open
Raw,3,Stanislav Ivanov,1984,Russia,102.15,222.5,167.5,272.5,662.5,105,M,Станислав Иванов,SBD,Open
Raw,4,Pavel Tushin,1988,Russia,102.9,220,160,270,650,105,M,Павел Тушин,SBD,Open
Raw,5,Egor Romantsov,1989,Russia,96.9,230,152.5,255,637.5,105,M,Егор Романцов,SBD,Open
Raw,6,Aleksandr Gulevskiy,,Russia,103.9,220,150,240,610,105,M,Александр Гулевский,SBD,Open
Raw,7,Demid Daneykin,1997,Russia,99.4,230,125,230,585,105,M,,SBD,Open
Raw,8,Denis Lukyanchenko,1991,Russia,97,205,140,230,575,105,M,Денис Лукьянченко,SBD,Open
Raw,9,Georgiy Astapkovich,1988,Russia,99.4,187.5,130,192.5,510,105,M,Георгий Астапкович,SBD,Open
Raw,10,Albert Shapovalov,1978,Russia,102.9,160,160,190,510,105,M,Альберт Шаповалов,SBD,Open
Raw,DQ,Andrey Somov,1974,Russia,94.65,180,,,,105,M,Андрій Сомов,SBD,Open
Raw,1,Andrey Chukhin,1972,Russia,117.5,230,155,262.5,647.5,120,M,Андрей Чухин,SBD,Open
Raw,1,Mikhail Molodchev,1972,Russia,128.4,247.5,155,275,677.5,120+,M,Михаил Молодчев,SBD,Open
Raw,2,Georgiy Kuznetsov,1984,Russia,127.8,276,188,140,604,120+,M,Георгий Кузнецов,SBD,Open
