Equipment,Tested,Place,Name,Division,BirthYear,Country,BodyweightKg,Squat1Kg,Squat2Kg,Squat3Kg,Best3SquatKg,Bench1Kg,Bench2Kg,Bench3Kg,Best3BenchKg,Deadlift1Kg,Deadlift2Kg,Deadlift3Kg,Best3DeadliftKg,TotalKg,WeightClassKg,Sex,CyrillicName,Event
Wraps,Yes,1,Tetyana Oliynik,Juniors 20-23,1994,Ukraine,46.95,95,105,-115,105,45,50,-52.5,50,100,110,115,115,270,48,F,Тетяна Олійник,SBD
Wraps,Yes,1,Anna Tarasenko,Open,1989,Ukraine,47.9,-80,80,90,90,65,67.5,70,70,100,105,110,110,270,48,F,Анна Тарасенко,SBD
Wraps,Yes,2,Olga Selezen,Open,1982,Ukraine,47.55,-100,100,105,105,50,52.5,-55,52.5,100,105,107.5,107.5,265,48,F,Ольга Селезень,SBD
Wraps,Yes,1,Oksana Prikhodko,Open,1991,Ukraine,52,135,142.5,,142.5,80,87.5,,87.5,140,150,,150,380,52,F,Оксана Приходько,SBD
Wraps,Yes,2,Mariya Koshil,Open,1978,Ukraine,50.3,-75,75,-85,75,50,-55,-55,50,-105,105,110,110,235,52,F,Марія Кошиль,SBD
Wraps,Yes,1,Katerina Prokopenko,Juniors 20-23,1996,Ukraine,55.7,100,-105,-105,100,50,55,-57.5,55,115,-130,-130,115,270,56,F,Катерина Прокопенко,SBD
Wraps,Yes,2,Polina Bereznikova,Juniors 20-23,1993,Ukraine,53.25,-90,90,-100,90,45,-50,-50,45,-110,,110,110,245,56,F,Поліна Березнікова,SBD
Wraps,Yes,1,Oksana Storozhuk,Open,1984,Ukraine,54.25,-120,120,-127.5,120,75,80,-82.5,80,130,137.5,145,145,345,56,F,Оксана Сторожук,SBD
Wraps,Yes,2,Tetyana Dzvinchuk,Open,1982,Ukraine,54.75,85,92.5,-100,92.5,45,-47.5,47.5,47.5,100,110,-120,110,250,56,F,Тетяна Дзвінчук,SBD
Wraps,Yes,1,Lidiya Grigoraschuk,Juniors 20-23,1993,Ukraine,58.3,60,70,75,75,35,-40,-40,35,65,75,80,80,190,60,F,Лідія Григоращук,SBD
Wraps,Yes,1,Nataliya Sokurenko,Open,1981,Ukraine,59.75,120,-125,125,125,67.5,70,-72.5,70,115,120,122.5,122.5,317.5,60,F,Наталія Сокуренко,SBD
Wraps,Yes,2,Svitlana Glatman,Open,1981,Ukraine,59.3,-110,110,117.5,117.5,50,55,57.5,57.5,112.5,120,125,125,300,60,F,Світлана Глатман,SBD
Wraps,Yes,1,Nadiya Tischenko,Juniors 20-23,1993,Ukraine,66.6,125,130,-135,130,80,-85,85,85,110,115,-120,115,330,67.5,F,Надія Тищенко,SBD
Wraps,Yes,2,Marina Tekuchova,Juniors 20-23,1994,Ukraine,63.25,105,112.5,117.5,117.5,55,60,62.5,62.5,95,102.5,107.5,107.5,287.5,67.5,F,Марина Текучева,SBD
Wraps,Yes,3,Eleonora Barkovska,Juniors 20-23,1996,Ukraine,66.85,70,-77.5,82.5,82.5,47.5,-52.5,-52.5,47.5,-75,82.5,90,90,220,67.5,F,Елеонора Барковська,SBD
Wraps,Yes,1,Margarita Matyushenko,Open,1984,Ukraine,67.5,140,150,155,155,75,80,-85,80,150,160,165,165,400,67.5,F,Маргарита Матюшенко,SBD
Wraps,Yes,2,Nadiya Tischenko,Open,1993,Ukraine,66.6,125,130,-135,130,80,-85,85,85,110,115,-120,115,330,67.5,F,Надія Тищенко,SBD
Wraps,Yes,3,Tetyana Malchenko,Open,1983,Ukraine,66.15,60,65,-70,65,40,42.5,-45,42.5,85,90,-95,90,197.5,67.5,F,Тетяна Мальченко,SBD
Wraps,Yes,4,Tetyana Babina,Open,1985,Ukraine,64.9,-107.5,110,-112.5,110,57.5,-60,-60,57.5,-130,-130,130,130,297.5,67.5,F,Тетяна Бабина,SBD
Wraps,Yes,1,Inna Zhovta,Open,1981,Ukraine,88.45,-100,100,110,110,50,55,60,60,100,110,120,120,290,90,F,Інна Жовта,SBD
Wraps,Yes,1,Dmitro Ardashov,Teen 13-15,2001,Ukraine,50.25,-90,100,-110,100,-50,50,-60,50,90,100,110,110,260,52,M,Дмитро Ардашов,SBD
Wraps,Yes,1,Oleksandr Dityuk,Juniors 20-23,1992,Ukraine,59.05,-120,-120,120,120,90,100,-105,100,160,180,-200,180,400,60,M,Олександр Дітюк,SBD
Wraps,Yes,1,Egor Kislinskiy,Teen 13-15,2002,Ukraine,64.3,100,115,,115,60,70,-80,70,110,120,130,130,315,67.5,M,Єгор Кислинський,SBD
Wraps,Yes,1,Pavlo Pidobid,Teen 16-17,2000,Ukraine,67.5,125,130,135,135,80,85,90,90,120,-130,132.5,132.5,357.5,67.5,M,Павло Підобід,SBD
Wraps,Yes,1,Pavel Loktionov,Teen 18-19,1997,Ukraine,66.4,-145,-145,145,145,85,90,-95,90,150,160,-170,160,395,67.5,M,Павло Локтіонов,SBD
Wraps,Yes,2,Petro Goldun,Teen 18-19,1997,Ukraine,61.65,120,132.5,-140,132.5,-85,90,-95,90,130,-145,-145,130,352.5,67.5,M,Петро Голдун,SBD
Wraps,Yes,DQ,Vladislav Vishnevskiy #1,Teen 18-19,1998,Ukraine,63.35,-105,-105,-105,,,,,,,,,,,67.5,M,Владислав Вишневський,SBD
Wraps,Yes,1,Artur Shpakov,Juniors 20-23,1993,Ukraine,65.2,175,-185,-185,175,100,105,107.5,107.5,195,205,210,210,492.5,67.5,M,Артур Шпаков,SBD
Wraps,Yes,2,Oleksandr Onischenko #2,Juniors 20-23,1996,Ukraine,64.25,-130,130,137.5,137.5,80,90,92.5,92.5,140,155,160,160,390,67.5,M,Олександр Оніщенко,SBD
Wraps,Yes,3,Valentin Nesin,Juniors 20-23,1994,Ukraine,67.5,170,177.5,185,185,120,-125,-125,120,165,180,195,195,500,67.5,M,Валентин Несин,SBD
Wraps,Yes,1,Sergiy Kalchuk,Open,1989,Ukraine,65.25,150,-160,-160,150,105,-110,-110,105,150,160,170,170,425,67.5,M,Сергій Кальчук,SBD
Wraps,Yes,1,Andriy Novikov,Teen 13-15,2001,Ukraine,68.4,175,177.5,-180,177.5,-75,80,-82.5,80,150,-155,,150,407.5,75,M,Андрій Новіков,SBD
Wraps,Yes,2,Vitaliy Salenko,Teen 13-15,2001,Ukraine,69.1,-125,-130,130,130,60,-65,-65,60,112.5,115,117.5,117.5,307.5,75,M,Віталій Саленко,SBD
Wraps,Yes,1,Pavlo Prudskiy,Teen 18-19,1998,Ukraine,73.75,-150,150,-160,150,110,117.5,-125,117.5,170,185,187.5,187.5,455,75,M,Павло Прудський,SBD
Wraps,Yes,2,Valeriy Oleksenko,Teen 18-19,1997,Ukraine,74.8,140,-150,-150,140,120,130,-135,130,170,-182.5,185,185,455,75,M,Валерій Олексенко,SBD
Wraps,Yes,1,Denis Maksimchuk,Juniors 20-23,1993,Ukraine,74.85,175,185,190,190,125,130,-135,130,210,217.5,-222.5,217.5,537.5,75,M,Денис Максимчук,SBD
Wraps,Yes,2,Oleg Zhuchkov,Juniors 20-23,1994,Ukraine,73.2,180,-200,-200,180,110,117.5,122.5,122.5,200,227.5,-232.5,227.5,530,75,M,Олег Жучков,SBD
Wraps,Yes,1,Oleksandr Volkov,Open,1985,Ukraine,75,190,-200,-205,190,160,167.5,172.5,172.5,220,230,-237.5,230,592.5,75,M,Олександр Волков,SBD
Wraps,Yes,2,Vladislav Dotsenko,Open,1987,Ukraine,73.85,180,200,210,210,130,135,-140,135,202.5,210,220,220,565,75,M,Владислав Доценко,SBD
Wraps,Yes,DQ,Maksim Yakimov #2,Open,1981,Ukraine,74.45,-160,-170,-170,,,,,,,,,,,75,M,Максим Якімов,SBD
Wraps,Yes,1,Oleksandr Gladkikh,Masters 70-74,1946,Ukraine,74.75,85,95,-102.5,95,70,75,-80,75,110,120,-130,120,290,75,M,Олександр Гладких,SBD
Wraps,Yes,1,Andriy Kuzmuk,Teen 18-19,1997,Ukraine,81.6,175,190,-205,190,112.5,115,120,120,225,-240,-240,225,535,82.5,M,Андрій Кузьмук,SBD
Wraps,Yes,1,Evgeniy Boloban,Juniors 20-23,1996,Ukraine,75.5,232.5,245,252.5,252.5,160,-167.5,172.5,172.5,192.5,205,-210,205,630,82.5,M,Євгеній Болобан,SBD
Wraps,Yes,2,Dmitro Paterilo,Juniors 20-23,1996,Ukraine,79.05,180,190,200,200,135,140,145,145,220,230,237.5,237.5,582.5,82.5,M,Дмитро Патерило,SBD
Wraps,Yes,3,Maksim Melaschenko,Juniors 20-23,1993,Ukraine,81.15,190,210,225,225,125,135,142.5,142.5,180,200,-215,200,567.5,82.5,M,Максим Мелащенко,SBD
Wraps,Yes,4,Viktor Pirog,Juniors 20-23,1996,Ukraine,80.45,200,-220,220,220,120,127.5,135,135,190,205,-212.5,205,560,82.5,M,Віктор Пирог,SBD
Wraps,Yes,5,Oleg Litvinenko,Juniors 20-23,1995,Ukraine,80.05,150,-180,190,190,95,102.5,105,105,212.5,220,225,225,520,82.5,M,Олег Литвиненко,SBD
Wraps,Yes,1,Oleksiy Perebatinskiy,Open,1989,Ukraine,82.45,200,220,-230,220,140,147.5,-152.5,147.5,230,250,-255,250,617.5,82.5,M,Олексій Перебатинський,SBD
Wraps,Yes,2,Oleksandr Novak,Open,1983,Ukraine,82.25,190,200,210,210,125,-135,135,135,230,240,-250,240,585,82.5,M,Олександр Новак,SBD
Wraps,Yes,3,Roman Strizhak,Open,1991,Ukraine,80.9,190,200,212.5,212.5,115,120,125,125,200,-210,-210,200,537.5,82.5,M,Роман Стрижак,SBD
Wraps,Yes,4,Andriy Kuzmuk,Open,1997,Ukraine,81.6,175,190,-205,190,112.5,115,120,120,225,-240,-240,225,535,82.5,M,Андрій Кузьмук,SBD
Wraps,Yes,5,Viktor Borinets,Open,1989,Ukraine,78.05,150,165,172.5,172.5,142.5,-145,-145,142.5,170,185,195,195,510,82.5,M,Віктор Боринец,SBD
Wraps,Yes,DQ,Nazar Solovey,Open,1992,Ukraine,82.1,-190,-195,-195,,,,,,,,,,,82.5,M,Назар Соловей,SBD
Wraps,Yes,1,Oleksandr Ostrovskiy,Masters 60-64,1953,Ukraine,76.6,125,135,-140,135,90,-95,-100,90,140,150,162.5,162.5,387.5,82.5,M,Олександр Островський,SBD
Wraps,Yes,1,Yaroslav Gavyada,Teen 13-15,2003,Ukraine,86.65,-130,135,145,145,70,80,-85,80,170,180,190,190,415,90,M,Ярослав Гав'яда,SBD
Wraps,Yes,1,Mikola Marisov,Teen 16-17,1999,Ukraine,84.05,180,190,-200,190,105,115,-117.5,115,170,180,190,190,495,90,M,Микола Марисов,SBD
Wraps,Yes,1,Maksim Mokhamad,Juniors 20-23,1994,Ukraine,88.35,-200,200,-215,200,140,145,147.5,147.5,210,220,230,230,577.5,90,M,Максим Мохамад,SBD
Wraps,Yes,2,Dmitro Nikolaev,Juniors 20-23,1996,Ukraine,88.45,190,-202.5,202.5,202.5,125,132.5,-140,132.5,220,-230,230,230,565,90,M,Дмитро Ніколаєв,SBD
Wraps,Yes,3,Vladislav Shevchenko,Juniors 20-23,,Ukraine,84.8,160,175,180,180,-125,130,-135,130,200,225,242.5,242.5,552.5,90,M,Владислав Шевченко,SBD
Wraps,Yes,4,Evgeniy Ivanets,Juniors 20-23,1995,Ukraine,86.6,-210,215,-225,215,110,115,-120,115,200,210,222.5,222.5,552.5,90,M,Євгеній Іванець,SBD
Wraps,Yes,1,Anton Novosad,Open,1992,Ukraine,85.9,210,230,245,245,120,132.5,137.5,137.5,215,230,250,250,632.5,90,M,Антон Новосад,SBD
Wraps,Yes,2,Dmitro Goropakha,Open,1992,Ukraine,87.95,230,245,255,255,135,142.5,-150,142.5,225,235,-240,235,632.5,90,M,Дмитро Горопаха,SBD
Wraps,Yes,3,Sergiy Vdovichenko,Open,1984,Ukraine,85.1,-210,-210,210,210,-135,135,-140,135,235,250,255,255,600,90,M,Сергій Вдовиченко,SBD
Wraps,Yes,4,Kirilo Tilikin,Open,1990,Ukraine,87.45,-180,180,190,190,150,155,-160,155,230,240,250,250,595,90,M,Кирило Тілікін,SBD
Wraps,Yes,5,Oleksandr Chorniy,Open,1989,Ukraine,87.95,185,-200,210,210,130,140,-145,140,200,215,225,225,575,90,M,Олександр Чорний,SBD
Wraps,Yes,6,Daniil Sandak,Open,1990,Ukraine,88,175,-190,195,195,135,145,-150,145,200,212.5,222.5,222.5,562.5,90,M,Даніїл Сандак,SBD
Wraps,Yes,7,Oleksiy Gritsenko,Open,1978,Ukraine,88.55,-110,-120,120,120,110,120,125,125,160,170,185,185,430,90,M,Олексій Гриценко,SBD
Wraps,Yes,1,Oleg Lungu,Masters 40-44,1972,Ukraine,88.2,-200,200,210,210,100,110,-115,110,200,210,215,215,535,90,M,Олег Лунгу,SBD
Wraps,Yes,2,Oleksandr Drobilko,Masters 40-44,1972,Ukraine,86.6,155,-160,-160,155,115,-117.5,-117.5,115,190,200,202.5,202.5,472.5,90,M,Олександр Дробілко,SBD
Wraps,Yes,DQ,Valentin Gostev,Masters 40-44,1975,Ukraine,88.55,-180,-180,-180,,,,,,,,,,,90,M,Валентин Гостєв,SBD
Wraps,Yes,1,Viktor Poshtarenko,Masters 45-49,1970,Ukraine,86.95,175,-182.5,182.5,182.5,120,127.5,130,130,190,205,218.5,218.5,531,90,M,Віктор Поштаренко,SBD
Wraps,Yes,1,Gennadiy Ostrovskiy,Masters 50-54,1965,Ukraine,86,165,175,190,190,115,122.5,127.5,127.5,185,200,207.5,207.5,525,90,M,Геннадій Островський,SBD
Wraps,Yes,1,Yuriy Starkov,Masters 65-69,1947,Ukraine,83.65,140,-150,150,150,60,70,80,80,200,215,-225,215,445,90,M,Юрій Старков,SBD
Wraps,Yes,1,Andriy Karaban,Teen 18-19,1997,Ukraine,97.15,225,235,-245,235,145,150,-160,150,270,285,-300,285,670,100,M,Андрій Карабан,SBD
Wraps,Yes,1,Oleksandr Savin,Juniors 20-23,1994,Ukraine,97.6,-160,-165,170,170,120,127.5,-132.5,127.5,-160,160,172.5,172.5,470,100,M,Олександр Савін,SBD
Wraps,Yes,1,Dmytro Chumash,Open,1980,Ukraine,99.6,240,260,270,270,150,162.5,167.5,167.5,-240,250,260,260,697.5,100,M,Дмитро Чумаш,SBD
Wraps,Yes,2,Andriy Karaban,Open,1997,Ukraine,97.15,225,235,-245,235,145,150,-160,150,270,285,-300,285,670,100,M,Андрій Карабан,SBD
Wraps,Yes,3,Oleksandr Shevtsov,Open,1985,Ukraine,98.28,245,260,270,270,130,140,,140,230,240,245,245,655,100,M,Олександр Шевцов,SBD
Wraps,Yes,4,Evgen Omelyanovskiy,Open,1989,Ukraine,98.6,175,190,200,200,145,150,155,155,195,-205,-205,195,550,100,M,Євген Омельяновський,SBD
Wraps,Yes,1,Dmitro Strelnikov,Masters 40-44,1975,Ukraine,98.95,140,150,-160,150,115,120,125,125,160,170,180,180,455,100,M,Дмитро Стрельніков,SBD
Wraps,Yes,1,Volodimir Kolomiets,Masters 50-54,1966,Ukraine,99.4,165,175,180,180,122.5,127.5,130,130,165,175,-185,175,485,100,M,Володимир Коломіець,SBD
Wraps,Yes,1,Viktor Stefanov,Masters 65-69,1948,Ukraine,99.35,-150,150,160,160,90,100,105,105,160,170,-175,170,435,100,M,Віктор Стефанов,SBD
Wraps,Yes,1,Igor Zaychuk,Open,1989,Ukraine,107.85,245,255,-262.5,255,185,-195,-195,185,290,-300,-300,290,730,110,M,Ігор Зайчук,SBD
Wraps,Yes,DD,Viktor Chernysh #3,Open,1992,Ukraine,107.85,260,280,-290,280,160,170,180,180,260,272.5,-282.5,272.5,,110,M,Віктор Черниш,SBD
Wraps,Yes,DD,Volodymyr Gaydamaka,Open,1990,Ukraine,108.65,220,237.5,-250,237.5,165,175,-180,175,240,265,272.5,272.5,,110,M,Володимир Гайдамака,SBD
Wraps,Yes,1,Oles Petrenko,Teen 16-17,2000,Ukraine,116.35,120,125,130,130,70,75,-77.5,75,140,150,160,160,365,125,M,Олесь Петренко,SBD
Wraps,Yes,1,Igor Kotsyuba,Open,1982,Ukraine,117.4,240,260,275,275,160,170,180,180,250,270,-280,270,725,125,M,Ігор Коцюба,SBD
Wraps,No,1,Mariya Kravchuk,Open,1983,Ukraine,51.4,100,105,-110,105,60,-65,-65,60,-130,130,135,135,300,52,F,Марія Кравчук,SBD
Wraps,No,DQ,Oleksiy Krokhmalenko,Teen 18-19,1997,Ukraine,66.45,-180,-195,-195,,,,,,,,,,,67.5,M,Олексій Крохмаленко,SBD
Wraps,No,1,Arthur Mylin,Open,1989,Ukraine,81.05,160,175,-190,175,120,-130,130,130,165,180,-190,180,485,82.5,M,Артур Милін,SBD
Wraps,No,1,Sergiy Osadchiy,Juniors 20-23,1992,Ukraine,88.25,240,255,-270,255,150,157.5,-162.5,157.5,215,230,-240,230,642.5,90,M,Сергій Осадчий,SBD
Wraps,No,1,Andriy Zhitar,Open,1990,Ukraine,89,-275,275,-290,275,167.5,-175,-175,167.5,265,-270,-270,265,707.5,90,M,Андрій Житарь,SBD
Wraps,No,2,Mikola Tishuk,Open,1992,Ukraine,87.7,-230,230,-240,230,150,155,160,160,240,250,260,260,650,90,M,Микола Тишук,SBD
Wraps,No,DQ,Artem Pedorenko,Teen 18-19,1997,Ukraine,98.35,-230,-230,-230,,,,,,,,,,,100,M,Артем Педоренко,SBD
Wraps,No,1,Volodimir Petukhov,Open,1987,Ukraine,98.2,-260,-260,260,260,155,160,162.5,162.5,272.5,280,-290,280,702.5,100,M,Володимир Петухов,SBD
Wraps,No,2,Viktor Rublyov,Open,1975,Ukraine,98.1,-230,240,255,255,165,177.5,-182.5,177.5,240,-255,-255,240,672.5,100,M,Віктор Рубльов,SBD
Wraps,No,3,Andriy Lesin,Open,1987,Ukraine,92.6,240,-250,-255,240,-155,160,-165,160,220,230,-245,230,630,100,M,Андрій Лесін,SBD
Wraps,No,1,Viktor Rublyov,Masters 40-44,1975,Ukraine,98.1,-230,240,255,255,165,177.5,-182.5,177.5,240,-255,-255,240,672.5,100,M,Віктор Рубльов,SBD
Wraps,No,DQ,Vladislav Omelchenko,Juniors 20-23,1996,Ukraine,100.55,-270,-270,-270,,,,,,,,,,,110,M,Владислав Омельченко,SBD
Wraps,No,1,Oleksandr Chernish,Open,1988,Ukraine,109,295,-310,310,310,207.5,215,-220,215,290,307.5,-315,307.5,832.5,110,M,Олександр Черниш,SBD
Raw,Yes,1,Oksana Usatyuk,Juniors 20-23,1993,Ukraine,43.7,,,,,42.5,45,-47.5,45,,,,,45,44,F,Оксана Усатюк,B
Raw,Yes,1,Anna Nichiporuk,Teen 18-19,1996,Ukraine,48,,,,,45,47.5,50,50,,,,,50,48,F,Анна Ничипорук,B
Raw,Yes,1,Irina Dichenko,Juniors 20-23,1996,Ukraine,47.15,,,,,-65,65,-70,65,,,,,65,48,F,Ірина Диченко,B
Raw,Yes,1,Anna Tarasenko,Open,1989,Ukraine,47.9,,,,,65,67.5,70,70,,,,,70,48,F,Анна Тарасенко,B
Raw,Yes,2,Irina Dichenko,Open,1996,Ukraine,47.15,,,,,-65,65,-70,65,,,,,65,48,F,Ірина Диченко,B
Raw,Yes,3,Irina Piven,Open,1983,Ukraine,47.35,,,,,40,-42.5,-42.5,40,,,,,40,48,F,Ірина Півень,B
Raw,Yes,1,Oleksandra Astakhova,Open,1990,Ukraine,50.45,,,,,55,-57.5,57.5,57.5,,,,,57.5,52,F,Олександра Астахова,B
Raw,Yes,2,Nataliya Bortnik,Open,1985,Ukraine,51.9,,,,,52.5,-57.5,-57.5,52.5,,,,,52.5,52,F,Наталія Бортнік,B
Raw,Yes,3,Mariya Koshil,Open,1978,Ukraine,50.3,,,,,50,-55,-55,50,,,,,50,52,F,Марія Кошиль,B
Raw,Yes,4,Tetyana Malanyuk,Open,1980,Ukraine,50.7,,,,,40,-45,-45,40,,,,,40,52,F,Тетяна Маланюк,B
Raw,Yes,1,Renata Ignatova,Youth,2004,Ukraine,52.55,,,,,25,27.5,30,30,,,,,30,56,F,Рената Ігнатова,B
Raw,Yes,1,Anna Scherbak,Juniors 20-23,1994,Ukraine,54.6,,,,,-52.5,-55,55,55,,,,,55,56,F,Анна Щербак,B
Raw,Yes,1,Olena Lysenko,Open,1975,Ukraine,53.65,,,,,72.5,-75,75,75,,,,,75,56,F,Олена Лисенко,B
Raw,Yes,2,Olena Budzinska,Open,1981,Ukraine,56,,,,,60,62.5,65,65,,,,,65,56,F,Олена Будзінська,B
Raw,Yes,3,Olena Rozdorozhnyuk,Open,1980,Ukraine,55.65,,,,,-60,60,-62.5,60,,,,,60,56,F,Олена Роздорожнюк,B
Raw,Yes,4,Kseniya Pleva,Open,1978,Ukraine,55.9,,,,,-50,50,-55,50,,,,,50,56,F,Ксенія Плєва,B
Raw,Yes,5,Yuliya Rul,Open,1981,Ukraine,52.75,,,,,-40,40,42.5,42.5,,,,,42.5,56,F,Юлія Руль,B
Raw,Yes,1,Olena Lysenko,Masters 40-44,1975,Ukraine,53.65,,,,,72.5,-75,75,75,,,,,75,56,F,Олена Лисенко,B
Raw,Yes,1,Inna Shinkaruk,Teen 13-15,2002,Ukraine,58.05,,,,,-52.5,-52.5,52.5,52.5,,,,,52.5,60,F,Інна Шинкарук,B
Raw,Yes,1,Anastasiya Kurdesha,Teen 16-17,1999,Ukraine,56.45,,,,,50,-55,55,55,,,,,55,60,F,Анастасія Курдеша,B
Raw,Yes,2,Anna Bankovska,Teen 16-17,2000,Ukraine,59.75,,,,,52.5,55,-57.5,55,,,,,55,60,F,Анна Банковська,B
Raw,Yes,1,Nataliya Batrak,Open,1989,Ukraine,58.8,,,,,72.5,-75,75,75,,,,,75,60,F,Наталія Батрак,B
Raw,Yes,2,Yanina Karpeeva,Open,1980,Ukraine,58.75,,,,,-70,70,-72.5,70,,,,,70,60,F,Яніна Карпєєва,B
Raw,Yes,3,Nataliya Sokurenko,Open,1981,Ukraine,59.75,,,,,67.5,70,-72.5,70,,,,,70,60,F,Наталія Сокуренко,B
Raw,Yes,1,Katerina Timoshenko,Teen 16-17,2000,Ukraine,64.7,,,,,42.5,-47.5,47.5,47.5,,,,,47.5,67.5,F,Катерина Тимошенко,B
Raw,Yes,1,Nadiya Tischenko,Juniors 20-23,1993,Ukraine,66.6,,,,,80,-85,85,85,,,,,85,67.5,F,Надія Тищенко,B
Raw,Yes,1,Nadiya Tischenko,Open,1993,Ukraine,66.6,,,,,80,-85,85,85,,,,,85,67.5,F,Надія Тищенко,B
Raw,Yes,2,Margarita Matyushenko,Open,1984,Ukraine,67.5,,,,,75,80,-85,80,,,,,80,67.5,F,Маргарита Матюшенко,B
Raw,Yes,3,Yana Gura,Open,1989,Ukraine,65.45,,,,,42.5,45,47.5,47.5,,,,,47.5,67.5,F,Яна Гура,B
Raw,Yes,4,Tetyana Strizhak,Open,1982,Ukraine,67.1,,,,,45,-47.5,-50,45,,,,,45,67.5,F,Тетяна Стрижак,B
Raw,Yes,1,Yuliya Nikitina,Masters 40-44,1973,Ukraine,62.55,,,,,47.5,50,-52.5,50,,,,,50,67.5,F,Юлія Нікітіна,B
Raw,Yes,1,Irina Koropets,Open,1981,Ukraine,68.8,,,,,72.5,75,-80,75,,,,,75,75,F,Ірина Коропець,B
Raw,Yes,1,Irina Koropets,Submasters 35-39,1981,Ukraine,68.8,,,,,72.5,75,-80,75,,,,,75,75,F,Ірина Коропець,B
Raw,Yes,1,Inna Zhovta,Open,1981,Ukraine,88.45,,,,,50,55,60,60,,,,,60,90,F,Інна Жовта,B
Raw,Yes,1,Prokhor Shlyakhtun,Youth,2004,Ukraine,51.85,,,,,55,60,-62.5,60,,,,,60,52,M,Прохор Шляхтун,B
Raw,Yes,2,Vladislav Tsivina,Youth,2004,Ukraine,46.45,,,,,40,45,47.5,47.5,,,,,47.5,52,M,Владислав Цівина,B
Raw,Yes,1,Artem Nelin,Teen 13-15,2003,Ukraine,48,,,,,35,-37.5,37.5,37.5,,,,,37.5,52,M,Артем Нелин,B
Raw,Yes,1,Viktor Smichuk,Juniors 20-23,1994,Ukraine,55.65,,,,,90,95,-97.5,95,,,,,95,56,M,Віктор Смичук,B
Raw,Yes,DQ,Igor Vasichkin,Teen 13-15,2000,Ukraine,56.95,,,,,-60,,,,,,,,,60,M,Ігор Васічкін,B
Raw,Yes,1,Ruslan Ivanchik,Teen 16-17,1999,Ukraine,60,,,,,105,112.5,-116,112.5,,,,,112.5,60,M,Руслан Іванчик,B
Raw,Yes,2,Artur Ivaschenko,Teen 16-17,2000,Ukraine,57.4,,,,,70,75,-77.5,75,,,,,75,60,M,Артур Іващенко,B
Raw,Yes,1,Pavlo Sharan,Teen 18-19,1996,Ukraine,58.05,,,,,80,90,-97.5,90,,,,,90,60,M,Павло Шаран,B
Raw,Yes,1,Oleksandr Dityuk,Juniors 20-23,1992,Ukraine,59.05,,,,,90,100,-105,100,,,,,100,60,M,Олександр Дітюк,B
Raw,Yes,1,Dmitro Onischenko,Open,1989,Ukraine,59.95,,,,,102.5,107.5,-110,107.5,,,,,107.5,60,M,Дмитро Онищенко,B
Raw,Yes,2,Vitaliy Churuta,Open,1992,Ukraine,58,,,,,90,100,-105,100,,,,,100,60,M,Віталій Чурута,B
Raw,Yes,1,Andriy Orlinskiy,Teen 13-15,2002,Ukraine,64.45,,,,,70,75,80,80,,,,,80,67.5,M,Андрій Орлінський,B
Raw,Yes,1,Bogdan Ben,Teen 16-17,1999,Ukraine,66.75,,,,,100,107.5,-112.5,107.5,,,,,107.5,67.5,M,Богдан Бень,B
Raw,Yes,1,Andriy Klok,Teen 18-19,1997,Ukraine,66.25,,,,,87.5,97.5,-107.5,97.5,,,,,97.5,67.5,M,Андрій Клок,B
Raw,Yes,1,Sergiy Polodyuk,Open,1992,Ukraine,66.8,,,,,125,132.5,137.5,137.5,,,,,137.5,67.5,M,Сергій Полодюк,B
Raw,Yes,2,Dmitro Zmitruk,Open,1985,Ukraine,65.5,,,,,115,120,-125,120,,,,,120,67.5,M,Дмитро Змитрук,B
Raw,Yes,3,Roman Makarenko,Open,1988,Ukraine,66.1,,,,,110,117.5,-125,117.5,,,,,117.5,67.5,M,Роман Макаренко,B
Raw,Yes,4,Sergiy Rogoviy,Open,1987,Ukraine,64.8,,,,,100,-107.5,107.5,107.5,,,,,107.5,67.5,M,Сергій Роговий,B
Raw,Yes,1,Nazar Sidyaga,Teen 13-15,2000,Ukraine,74.2,,,,,80,87.5,95,95,,,,,95,75,M,Назар Сидяга,B
Raw,Yes,1,Vitaliy Serbin,Teen 16-17,1999,Ukraine,68.95,,,,,95,100,-107.5,100,,,,,100,75,M,Віталій Сербін,B
Raw,Yes,2,Oleg Zon,Teen 16-17,2000,Ukraine,71.68,,,,,85,95,97.5,97.5,,,,,97.5,75,M,Олег Зонь,B
Raw,Yes,1,Valeriy Oleksenko,Teen 18-19,1997,Ukraine,74.8,,,,,120,130,-135,130,,,,,130,75,M,Валерій Олексенко,B
Raw,Yes,2,Evgen Sokolenko,Teen 18-19,1997,Ukraine,74.05,,,,,110,-120,120,120,,,,,120,75,M,Євген Соколенко,B
Raw,Yes,3,Pavlo Prudskiy,Teen 18-19,1998,Ukraine,73.75,,,,,110,117.5,-125,117.5,,,,,117.5,75,M,Павло Прудський,B
Raw,Yes,1,Nazar Solyan,Juniors 20-23,1993,Ukraine,74.9,,,,,165,-170,170,170,,,,,170,75,M,Назар Солян,B
Raw,Yes,2,Yuriy Tsushko,Juniors 20-23,1994,Ukraine,70.5,,,,,-130,130,-135,130,,,,,130,75,M,Юрій Цушко,B
Raw,Yes,3,Denis Maksimchuk,Juniors 20-23,1993,Ukraine,74.85,,,,,125,130,-135,130,,,,,130,75,M,Денис Максимчук,B
Raw,Yes,4,Bogdan Bilmach,Juniors 20-23,1994,Ukraine,74.35,,,,,117.5,120,-125,120,,,,,120,75,M,Богдан Більмач,B
Raw,Yes,1,Oleksandr Volkov,Open,1985,Ukraine,75,,,,,-160,-172.2,172.5,172.5,,,,,172.5,75,M,Олександр Волков,B
Raw,Yes,2,Nazar Solyan,Open,1993,Ukraine,74.9,,,,,165,-170,170,170,,,,,170,75,M,Назар Солян,B
Raw,Yes,3,Vadim Marinich,Open,1981,Ukraine,74.5,,,,,150,155,-160,155,,,,,155,75,M,Вадим Маринич,B
Raw,Yes,5,Yakiv Goldenberg,Open,1964,Ukraine,73.9,,,,,140,145,150,150,,,,,150,75,M,Яків Гольденберг,B
Raw,Yes,6,Mikola Garbuzyuk,Open,1991,Ukraine,71.45,,,,,135,140,145,145,,,,,145,75,M,Микола Гарбузюк,B
Raw,Yes,7,Vladislav Dotsenko,Open,1987,Ukraine,73.85,,,,,130,135,-140,135,,,,,135,75,M,Владислав Доценко,B
Raw,Yes,8,Oleksandr Onufriychuk,Open,1991,Ukraine,72.5,,,,,117.5,122.5,-125,122.5,,,,,122.5,75,M,Олександр Онуфрійчук,B
Raw,Yes,9,Sergiy Grinishin,Open,1990,Ukraine,69.3,,,,,-115,-120,120,120,,,,,120,75,M,Сергій Гринішин,B
Raw,Yes,10,Mikola Slyusarenko,Open,1986,Ukraine,73.3,,,,,120,-130,-130,120,,,,,120,75,M,Микола Слюсаренко,B
Raw,Yes,11,Andriy Kultishev,Open,1988,Ukraine,73.65,,,,,120,-125,,120,,,,,120,75,M,Андрій Култишев,B
Raw,Yes,12,Ruslan Zavazhenko,Open,1987,Ukraine,74.1,,,,,117.5,120,-125,120,,,,,120,75,M,Руслан Заваженко,B
Raw,Yes,13,Oleksandr Snegurskiy,Open,1990,Ukraine,74.9,,,,,117.5,-120,120,120,,,,,120,75,M,Олександр Снегурський,B
Raw,Yes,DD,Sergiy Medunitsya,Open,1992,Ukraine,75,,,,,145,155,,155,,,,,,75,M,Сергій Медуниця,B
Raw,Yes,1,Yakiv Goldenberg,Masters 50-54,1964,Ukraine,73.9,,,,,140,145,150,150,,,,,150,75,M,Яків Гольденберг,B
Raw,Yes,2,Volodimir Potseluy,Masters 50-54,1961,Ukraine,74.85,,,,,105,110,-112.5,110,,,,,110,75,M,Володимир Поцелуй,B
Raw,Yes,1,Oleksandr Gladkikh,Masters 70-74,1946,Ukraine,74.75,,,,,70,75,-80,75,,,,,75,75,M,Олександр Гладких,B
Raw,Yes,1,Vladlen Krivov,Juniors 20-23,1996,Ukraine,80.65,,,,,140,145,-150,145,,,,,145,82.5,M,Владлен Кривов,B
Raw,Yes,2,Vladislav Bolokhov,Juniors 20-23,1995,Ukraine,81.6,,,,,-135,135,-145,135,,,,,135,82.5,M,Владислав Болохов,B
Raw,Yes,3,Rostislav Fortuna,Juniors 20-23,1996,Ukraine,79.65,,,,,132.5,-135,-135,132.5,,,,,132.5,82.5,M,Ростислав Фортуна,B
Raw,Yes,4,Viktor Ignatenko,Juniors 20-23,1993,Ukraine,81.55,,,,,120,125,-127.5,125,,,,,125,82.5,M,Віктор Ігнатенко,B
Raw,Yes,5,Oleksandr Pilipenko,Juniors 20-23,1994,Ukraine,77.6,,,,,100,110,-115,110,,,,,110,82.5,M,Олександр Пилипенко,B
Raw,Yes,DQ,Mikola Gorbatko,Juniors 20-23,1993,Ukraine,81.6,,,,,-130,-130,-132.5,,,,,,,82.5,M,Микола Горбатко,B
Raw,Yes,1,Oleksiy Balakleets,Open,1992,Ukraine,80.2,,,,,155,165,-170,165,,,,,165,82.5,M,Олексій Балаклєєць,B
Raw,Yes,2,Volodymyr Lagoda,Open,1968,Ukraine,81.9,,,,,160,165,-170,165,,,,,165,82.5,M,Володимир Лагода,B
Raw,Yes,3,Evgen Benedik,Open,1985,Ukraine,80.8,,,,,145,155,160,160,,,,,160,82.5,M,Євген Бенедик,B
Raw,Yes,4,Kostyantin Chabanenko,Open,1984,Ukraine,81.8,,,,,145,152.5,-155,152.5,,,,,152.5,82.5,M,Костянтин Чабаненко,B
Raw,Yes,5,Sergiy Vostrukhin,Open,1992,Ukraine,81.35,,,,,135,-145,145,145,,,,,145,82.5,M,Сергій Вострухін,B
Raw,Yes,6,Kostyantin Galtsev,Open,1990,Ukraine,78.8,,,,,125,135,-145,135,,,,,135,82.5,M,Костянтин Гальцев,B
Raw,Yes,7,Oleksiy Rusetskiy,Open,1992,Ukraine,78.8,,,,,127.5,132.5,-135,132.5,,,,,132.5,82.5,M,Олексій Русецький,B
Raw,Yes,8,Eduard Tsushko,Open,1988,Ukraine,80.15,,,,,130,-135,-135,130,,,,,130,82.5,M,Едуард Цушко,B
Raw,Yes,9,Oleksandr Samko,Open,1987,Ukraine,81.25,,,,,120,-127,-127.5,120,,,,,120,82.5,M,Олександр Самко,B
Raw,Yes,DQ,Andriy Katanov,Open,1985,Ukraine,81.9,,,,,-160,-160,-160,,,,,,,82.5,M,Андрій Катанов,B
Raw,Yes,1,Valeriy Grubiy,Masters 40-44,1973,Ukraine,81.05,,,,,135,137.5,140,140,,,,,140,82.5,M,Валерій Грубий,B
Raw,Yes,1,Volodymyr Lagoda,Masters 45-49,1968,Ukraine,81.9,,,,,160,165,-170,165,,,,,165,82.5,M,Володимир Лагода,B
Raw,Yes,1,Viktor Polovko,Masters 50-54,1964,Ukraine,79.6,,,,,107.5,112.5,-115,112.5,,,,,112.5,82.5,M,Віктор Половко,B
Raw,Yes,2,Volodimir Galeta,Masters 50-54,1964,Ukraine,81.5,,,,,95,-100,-100,95,,,,,95,82.5,M,Володимир Галета,B
Raw,Yes,1,Oleksandr Ostrovskiy,Masters 60-64,1953,Ukraine,76.6,,,,,90,-95,-100,90,,,,,90,82.5,M,Олександр Островський,B
Raw,Yes,1,Yaroslav Gavyada,Teen 13-15,2003,Ukraine,86.65,,,,,70,80,-85,80,,,,,80,90,M,Ярослав Гав'яда,B
Raw,Yes,1,Mykola Khlusov,Juniors 20-23,1994,Ukraine,87.2,,,,,145,152.5,157.5,157.5,,,,,157.5,90,M,Микола Хлусов,B
Raw,Yes,2,Oleksandr Cherednichenko,Juniors 20-23,1996,Ukraine,89.55,,,,,-145,150,152.5,152.5,,,,,152.5,90,M,Олександр Чередниченко,B
Raw,Yes,3,Bogdan Fedko,Juniors 20-23,1994,Ukraine,86.8,,,,,140,150,-155,150,,,,,150,90,M,Богдан Федько,B
Raw,Yes,4,Eduard Ivanyuk,Juniors 20-23,1995,Ukraine,88.1,,,,,-150,150,-155,150,,,,,150,90,M,Едуард Іванюк,B
Raw,Yes,5,Ivan Chupriy,Juniors 20-23,1993,Ukraine,85.45,,,,,-147.5,147.5,-150,147.5,,,,,147.5,90,M,Іван Чупрій,B
Raw,Yes,6,V'yacheslav Kramarenko,Juniors 20-23,1993,Ukraine,87.7,,,,,145,-152.5,-152.5,145,,,,,145,90,M,В'ячеслав Крамаренко,B
Raw,Yes,DQ,Maksim Fanin,Juniors 20-23,1994,Ukraine,88.15,,,,,-130,-140,-140,,,,,,,90,M,Максим Фанін,B
Raw,Yes,1,Denis Bunchuk,Open,1989,Ukraine,87.3,,,,,-205,207.5,-215,207.5,,,,,207.5,90,M,Денис Бунчук,B
Raw,Yes,2,Oleksandr Karvas,Open,1985,Ukraine,90,,,,,152.5,160,167.5,167.5,,,,,167.5,90,M,Олександр Карвась,B
Raw,Yes,3,Levon Ayriyan,Open,1978,Ukraine,85.5,,,,,165,-175,-175,165,,,,,165,90,M,Левон Айріян,B
Raw,Yes,4,Mikola Kazimirchuk,Open,1992,Ukraine,89.75,,,,,150,157.5,-165,157.5,,,,,157.5,90,M,Микола Казімірчук,B
Raw,Yes,5,Oleksandr Pogodin,Open,1992,Ukraine,90,,,,,140,152.5,-155,152.5,,,,,152.5,90,M,Олександр Погодін,B
Raw,Yes,6,Maksim Melnikov,Open,1988,Ukraine,87.5,,,,,140,150,-155,150,,,,,150,90,M,Максим Мельников,B
Raw,Yes,7,Sergiy Berezhnoy,Open,1992,Ukraine,89.95,,,,,145,-152.5,-152.5,145,,,,,145,90,M,Сергій Бережной,B
Raw,Yes,8,Viktor Yatsenko,Open,1977,Ukraine,87.55,,,,,135,140,-145,140,,,,,140,90,M,Віктор Яценко,B
Raw,Yes,9,Ivan Buryak,Open,1984,Ukraine,88.7,,,,,120,-132.5,-132.5,120,,,,,120,90,M,Іван Буряк,B
Raw,Yes,DQ,Oleksandr Kovalenko,Open,1991,Ukraine,87,,,,,-205,-205,-205,,,,,,,90,M,Олександр Коваленко,B
Raw,Yes,1,Aleksandr Denisov,Masters 40-44,1972,Ukraine,88.15,,,,,130,-140,140,140,,,,,140,90,M,Александр Денисов,B
Raw,Yes,2,Oleksandr Drobilko,Masters 40-44,1972,Ukraine,86.6,,,,,115,-117.5,-117.5,115,,,,,115,90,M,Олександр Дробілко,B
Raw,Yes,1,Viktor Poshtarenko,Masters 45-49,1970,Ukraine,86.95,,,,,120,127.5,130,130,,,,,130,90,M,Віктор Поштаренко,B
Raw,Yes,2,Kostyantin V'Yazovskiy,Masters 45-49,1968,Ukraine,84.2,,,,,110,117.5,-130,117.5,,,,,117.5,90,M,Костянтин В'Язовський,B
Raw,Yes,1,Yuriy Ischenko #1,Masters 50-54,1963,Ukraine,85.75,,,,,-115,-115,115,115,,,,,115,90,M,Юрій Іщенко,B
Raw,Yes,1,Yuriy Starkov,Masters 65-69,1947,Ukraine,83.65,,,,,60,70,80,80,,,,,80,90,M,Юрій Старков,B
Raw,Yes,1,Andriy Karaban,Teen 18-19,1997,Ukraine,97.15,,,,,145,150,-160,150,,,,,150,100,M,Андрій Карабан,B
Raw,Yes,1,Oleksandr Fedoruk,Juniors 20-23,1996,Ukraine,92.55,,,,,155,162.5,165,165,,,,,165,100,M,Олександр Федорук,B
Raw,Yes,2,Ivan Khudobenko,Juniors 20-23,1996,Ukraine,97.25,,,,,162.5,-165,-165,162.5,,,,,162.5,100,M,Іван Худобенко,B
Raw,Yes,3,Anton Orlov,Juniors 20-23,1993,Ukraine,97,,,,,150,155,-162.5,155,,,,,155,100,M,Антон Орлов,B
Raw,Yes,4,Andriy Patrakov,Juniors 20-23,1993,Ukraine,98,,,,,142.5,152.5,-162.5,152.5,,,,,152.5,100,M,Андрій Патраков,B
Raw,Yes,5,Maxym Raev,Juniors 20-23,1993,Ukraine,94.7,,,,,150,-162.5,-162.5,150,,,,,150,100,M,Максим Раєв,B
Raw,Yes,6,Dmitro Dranovskiy,Juniors 20-23,1995,Ukraine,97,,,,,-130,140,-162.5,140,,,,,140,100,M,Дмитро Драновський,B
Raw,Yes,7,Andriy Bronishevskiy,Juniors 20-23,1993,Ukraine,95.95,,,,,125,-135,-135,125,,,,,125,100,M,Андрій Бронішєвський,B
Raw,Yes,1,Igor Danilov #1,Open,1985,Ukraine,93.4,,,,,185,195,-200,195,,,,,195,100,M,Ігор Данилов,B
Raw,Yes,2,Sergiy Kafilinos,Open,1977,Ukraine,97.6,,,,,175,180,-182.5,180,,,,,180,100,M,Сергій Кафілінос,B
Raw,Yes,3,Vitaliy Zinchenko,Open,1980,Ukraine,96.3,,,,,165,170,177.5,177.5,,,,,177.5,100,M,Віталій Зінченко,B
Raw,Yes,4,Valeriy Babeshko,Open,1980,Ukraine,97.2,,,,,160,165,172.5,172.5,,,,,172.5,100,M,Валерій Бабешко,B
Raw,Yes,5,Andriy Voloshin,Open,1982,Ukraine,97.15,,,,,150,160,-165,160,,,,,160,100,M,Андрій Волошин,B
Raw,Yes,6,Maksim Vlasov,Open,1989,Ukraine,93.25,,,,,150,155,-162.5,155,,,,,155,100,M,Максим Власов,B
Raw,Yes,7,Mikhaylo Prutskiy,Open,1980,Ukraine,93.15,,,,,130,-140,140,140,,,,,140,100,M,Михайло Пруцький,B
Raw,Yes,1,Ustim Antonenko,Masters 40-44,1972,Ukraine,99.85,,,,,167.5,177.5,-180,177.5,,,,,177.5,100,M,Устим Антоненко,B
Raw,Yes,2,Dmitro Strelnikov,Masters 40-44,1975,Ukraine,98.95,,,,,115,120,125,125,,,,,125,100,M,Дмитро Стрельніков,B
Raw,Yes,1,Yuriy Scherbina,Masters 45-49,1968,Ukraine,95.35,,,,,150,155,-160,155,,,,,155,100,M,Юрій Щербина,B
Raw,Yes,2,Igor Krikunov,Masters 45-49,1968,Ukraine,95.4,,,,,140,145,150,150,,,,,150,100,M,Ігор Крікунов,B
Raw,Yes,1,Volodimir Kolomiets,Masters 50-54,1966,Ukraine,99.4,,,,,122.5,127.5,130,130,,,,,130,100,M,Володимир Коломіець,B
Raw,Yes,1,Viktor Stefanov,Masters 65-69,1948,Ukraine,99.35,,,,,90,100,105,105,,,,,105,100,M,Віктор Стефанов,B
Raw,Yes,1,Sergiy Kafilinos,Submasters 35-39,1977,Ukraine,97.6,,,,,175,180,-182.5,180,,,,,180,100,M,Сергій Кафілінос,B
Raw,Yes,1,Mykola Shataylo,Juniors 20-23,1994,Ukraine,101,,,,,150,-155,-155,150,,,,,150,110,M,Микола Шатайло,B
Raw,Yes,1,Sergiy Dromov,Open,1968,Ukraine,109.1,,,,,180,190,197.5,197.5,,,,,197.5,110,M,Сергій Дрьомов,B
Raw,Yes,2,Oleksandr Tertichniy,Open,1968,Ukraine,108.3,,,,,185,190,195,195,,,,,195,110,M,Олександр Тертичний,B
Raw,Yes,3,Igor Zaychuk,Open,1989,Ukraine,107.85,,,,,185,-195,-195,185,,,,,185,110,M,Ігор Зайчук,B
Raw,Yes,4,Oleg Gervas,Open,1978,Ukraine,103.1,,,,,175,180,-185,180,,,,,180,110,M,Олег Гервас,B
Raw,Yes,5,Yuriy Voloshin,Open,1975,Ukraine,100.4,,,,,167.5,-172.5,172.5,172.5,,,,,172.5,110,M,Юрій Волошин,B
Raw,Yes,6,Maksim Zubarev #2,Open,1982,Ukraine,109.25,,,,,172.5,-177.5,,172.5,,,,,172.5,110,M,Максим Зубарєв,B
Raw,Yes,7,Yuriy Shkurat,Open,1979,Ukraine,107.65,,,,,145,152.5,160,160,,,,,160,110,M,Юрій Шкурат,B
Raw,Yes,1,Sergiy Dromov,Masters 45-49,1968,Ukraine,109.1,,,,,180,190,197.5,197.5,,,,,197.5,110,M,Сергій Дрьомов,B
Raw,Yes,2,Oleksandr Tertichniy,Masters 45-49,1968,Ukraine,108.3,,,,,185,190,195,195,,,,,195,110,M,Олександр Тертичний,B
Raw,Yes,1,Anatoliy Tiroshko,Masters 50-54,1966,Ukraine,106.9,,,,,145,-150,150,150,,,,,150,110,M,Анатолій Тирошко,B
Raw,Yes,1,Denis Alekseenko,Juniors 20-23,1993,Ukraine,121.3,,,,,132.5,140,142.5,142.5,,,,,142.5,125,M,Денис Алексеєнко,B
Raw,Yes,1,Andriy Tkachuk,Open,1989,Ukraine,124.7,,,,,200,-205,205,205,,,,,205,125,M,Андрій Ткачук,B
Raw,Yes,2,Bohdan Kharakhash,Open,1974,Ukraine,120.35,,,,,190,200,202.5,202.5,,,,,202.5,125,M,Богдан Харахаш,B
Raw,Yes,3,Igor Kotsyuba,Open,1982,Ukraine,117.4,,,,,160,170,180,180,,,,,180,125,M,Ігор Коцюба,B
Raw,Yes,1,Bohdan Kharakhash,Masters 40-44,1974,Ukraine,120.35,,,,,190,200,202.5,202.5,,,,,202.5,125,M,Богдан Харахаш,B
Raw,Yes,1,Andriy Voloshinenko,Submasters 35-39,1980,Ukraine,113.25,,,,,152.5,160,165,165,,,,,165,125,M,Андрій Волошиненко,B
Raw,Yes,1,Mikhaylo Schegolev,Open,1986,Ukraine,127.5,,,,,175,180,190,190,,,,,190,140,M,Михайло Щеголєв,B
Single-ply,Yes,1,Nazar Solovey,Open,1992,Ukraine,82.1,,,,,172.5,-185,185,185,,,,,185,82.5,M,Назар Соловей,B
Single-ply,Yes,1,Sergiy Mozgovyy,Open,1984,Ukraine,105.35,,,,,210,220,232.5,232.5,,,,,232.5,110,M,Сергій Мозговий,B
Raw,No,1,Mariya Kravchuk,Open,1983,Ukraine,51.4,,,,,60,-65,-65,60,,,,,60,52,F,Марія Кравчук,B
Raw,No,1,Mikhaylo Gluschenko,Juniors 20-23,1996,Ukraine,51.05,,,,,100,-107.5,-107.5,100,,,,,100,52,M,Михайло Глущенко,B
Raw,No,1,Igor Filyuk,Teen 13-15,2001,Ukraine,58.15,,,,,75,85,-90,85,,,,,85,60,M,Ігор Філюк,B
Raw,No,1,Ivan Bondarenko #1,Teen 13-15,2000,Ukraine,64.5,,,,,100,-105,-105,100,,,,,100,67.5,M,Іван Бондаренко,B
Raw,No,1,Volodimir Filyuk,Juniors 20-23,1993,Ukraine,72.5,,,,,-115,-125,125,125,,,,,125,75,M,Володимир Філюк,B
Raw,No,2,Evgeniy Zgurskiy,Teen 16-17,1999,Ukraine,72.35,,,,,105,112.5,-122.5,112.5,,,,,112.5,75,M,Євгеній Згурський,B
Raw,No,1,Andriy Tsitson,Open,1983,Ukraine,74,,,,,120,-122.5,-122.5,120,,,,,120,75,M,Андрій Цицонь,B
Raw,No,1,Vasil Pashkevich,Open,1988,Ukraine,82.35,,,,,160,165,167.5,167.5,,,,,167.5,82.5,M,Василь Пашкевич,B
Raw,No,2,Mikhail Demchenko,Open,1987,Ukraine,80,,,,,130,-140,-140,130,,,,,130,82.5,M,Михайло Демченко,B
Raw,No,3,V'yacheslav Boroday,Open,1992,Ukraine,79.7,,,,,110,-132.5,-132.5,110,,,,,110,82.5,M,В'ячеслав Бородай,B
Raw,No,1,Roman Martynenko #1,Open,1990,Ukraine,85.05,,,,,195,205,-212.5,205,,,,,205,90,M,Роман Мартиненко,B
Raw,No,2,Maksim Elskiy,Open,1985,Ukraine,87.6,,,,,205,-212.5,-212.5,205,,,,,205,90,M,Максим Єльський,B
Raw,No,3,Yaroslav Podvorchanskiy,Open,1991,Ukraine,86.75,,,,,190,195,-202.5,195,,,,,195,90,M,Ярослав Подворчанський,B
Raw,No,DQ,Oleksiy Bronishevskiy,Open,1988,Ukraine,90,,,,,,,,,,,,,,90,M,Олексій Бронішевський,B
Raw,No,1,Oleg Zavolovich,Masters 40-44,1976,Ukraine,84.6,,,,,155,162.5,165,165,,,,,165,90,M,Олег Заволович,B
Raw,No,1,Andriy Suprun,Masters 45-49,1971,Ukraine,89.1,,,,,145,-152.5,-155,145,,,,,145,90,M,Андрій Супрун,B
Raw,No,1,Ruslan Sidorenko,Open,1987,Ukraine,97.2,,,,,200,205,210,210,,,,,210,100,M,Руслан Сидоренко,B
Raw,No,2,Vitaliy Drozd,Open,1988,Ukraine,94.9,,,,,165,175,180,180,,,,,180,100,M,Віталій Дрозд,B
Raw,No,3,Oleksandr Mironov,Open,1985,Ukraine,95.6,,,,,-165,165,-177.5,165,,,,,165,100,M,Олександр Міронов,B
Raw,No,1,Viktor Rublyov,Masters 40-44,1975,Ukraine,98.1,,,,,165,177.5,-182.5,177.5,,,,,177.5,100,M,Віктор Рубльов,B
Raw,No,1,Andriy Romanchuk,Submasters 35-39,1976,Ukraine,99.3,,,,,150,157.5,162.5,162.5,,,,,162.5,100,M,Андрій Романчук,B
Raw,No,1,Artem Tkachenko,Open,1991,Ukraine,102.25,,,,,220,231,-235,231,,,,,231,110,M,Артем Ткаченко,B
Raw,No,2,Oleksandr Chernish,Open,1988,Ukraine,109,,,,,207.5,215,-220,215,,,,,215,110,M,Олександр Черниш,B
Raw,No,3,Volodymyr Oliynyk,Open,1990,Ukraine,101.45,,,,,200,-210,-210,200,,,,,200,110,M,Володимир Олійник,B
Raw,No,4,Oleksandr Kostyrya,Open,1963,Ukraine,107.4,,,,,170,175,-180,175,,,,,175,110,M,Олександр Костиря,B
Raw,No,1,Oleksandr Kostyrya,Masters 50-54,1963,Ukraine,107.4,,,,,170,175,-180,175,,,,,175,110,M,Олександр Костиря,B
Raw,No,1,Vladislav Zdrachuk,Juniors 20-23,1996,Ukraine,112.65,,,,,-165,165,-175,165,,,,,165,125,M,Владислав Здрачук,B
Raw,No,1,Igor Petruk,Open,1980,Ukraine,116.25,,,,,205,210,-220,210,,,,,210,125,M,Ігор Петрук,B
Raw,No,2,Oleksandr Tarasov,Open,1991,Ukraine,116.45,,,,,195,207.5,-212.5,207.5,,,,,207.5,125,M,Олександр Тарасов,B
Raw,No,3,Oleksandr Desyatskiy,Open,1976,Ukraine,123.2,,,,,195,207.5,-212.5,207.5,,,,,207.5,125,M,Олександр Десяцький,B
Raw,No,1,Mikhaylo Pitinov,Masters 45-49,1971,Ukraine,124.85,,,,,140,160,-172.5,160,,,,,160,125,M,Михайло Пітінов,B
Raw,No,1,Viktor Leusenko,Open,1988,Ukraine,125.65,,,,,200,205,210,210,,,,,210,140,M,Віктор Леусенко,B
Single-ply,No,DQ,Anna Yatsun,Juniors 20-23,1994,Ukraine,55.05,,,,,-90,-92.5,-92.5,,,,,,,56,F,Анна Яцун,B
Single-ply,No,1,Evgen Dobrokonniy,Open,1978,Ukraine,99.9,,,,,-225,-225,225,225,,,,,225,100,M,Євген Доброконний,B
Single-ply,No,1,Yuriy Kostenko,Masters 45-49,1971,Ukraine,95.25,,,,,175,-182.5,,175,,,,,175,100,M,Юрій Костенко,B
Single-ply,No,1,Oleksandr Bayda,Open,1982,Ukraine,108.5,,,,,210,215,-220,215,,,,,215,110,M,Олександр Байда,B
Single-ply,No,DQ,Igor Gritsenko,Open,1987,Ukraine,121.55,,,,,-235,-235,-235,,,,,,,125,M,Ігор Гриценко,B
Raw,Yes,1,Oksana Usatyuk,Juniors 20-23,1993,Ukraine,43.7,,,,,,,,,77.5,-82.5,85,85,85,44,F,Оксана Усатюк,D
Raw,Yes,1,Anna Nichiporuk,Teen 18-19,1996,Ukraine,48,,,,,,,,,110,120,127.5,127.5,127.5,48,F,Анна Ничипорук,D
Raw,Yes,1,Anna Nichiporuk,Open,1996,Ukraine,48,,,,,,,,,110,120,127.5,127.5,127.5,48,F,Анна Ничипорук,D
Raw,Yes,1,Oleksandra Astakhova,Open,1990,Ukraine,50.45,,,,,,,,,115,120,127.5,127.5,127.5,52,F,Олександра Астахова,D
Raw,Yes,1,Nataliya Sokurenko,Open,1981,Ukraine,59.75,,,,,,,,,115,120,122.5,122.5,122.5,60,F,Наталія Сокуренко,D
Raw,Yes,2,Tetyana Stronska,Open,1984,Ukraine,58.05,,,,,,,,,100,107.5,112.5,112.5,112.5,60,F,Тетяна Стронська,D
Raw,Yes,3,Dina Eremeeva,Open,1985,Ukraine,59.2,,,,,,,,,50,55,60,60,60,60,F,Діна Єремеєва,D
Raw,Yes,1,Katerina Timoshenko,Teen 16-17,2000,Ukraine,64.7,,,,,,,,,100,-105,-105,100,100,67.5,F,Катерина Тимошенко,D
Raw,Yes,1,Lyubov Strashko,Juniors 20-23,1993,Ukraine,62.7,,,,,,,,,100,110,-122.5,110,110,67.5,F,Любов Страшко,D
Raw,Yes,1,Margarita Matyushenko,Open,1984,Ukraine,67.5,,,,,,,,,150,160,165,165,165,67.5,F,Маргарита Матюшенко,D
Raw,Yes,1,Inna Zhovta,Open,1981,Ukraine,88.45,,,,,,,,,100,110,120,120,120,90,F,Інна Жовта,D
Raw,Yes,1,Vladislav Tsivina,Youth,2004,Ukraine,46.45,,,,,,,,,85,95,100,100,100,52,M,Владислав Цівина,D
Raw,Yes,1,Stanislav Tsivina,Teen 16-17,2000,Ukraine,59.6,,,,,,,,,115,125,130,130,130,60,M,Станіслав Цівина,D
Raw,Yes,1,Oleksandr Dityuk,Juniors 20-23,1992,Ukraine,59.05,,,,,,,,,160,180,-200,180,180,60,M,Олександр Дітюк,D
Raw,Yes,1,Oleksandr Dityuk,Open,1992,Ukraine,59.05,,,,,,,,,160,180,-200,180,180,60,M,Олександр Дітюк,D
Raw,Yes,2,Stanislav Tsivina,Open,2000,Ukraine,59.6,,,,,,,,,115,125,130,130,130,60,M,Станіслав Цівина,D
Raw,Yes,1,Bogdan Ben,Teen 16-17,1999,Ukraine,66.75,,,,,,,,,-180,180,-195,180,180,67.5,M,Богдан Бень,D
Raw,Yes,1,Pavel Loktionov,Teen 18-19,1997,Ukraine,66.4,,,,,,,,,150,160,-170,160,160,67.5,M,Павло Локтіонов,D
Raw,Yes,2,Vladislav Vishnevskiy #1,Teen 18-19,1998,Ukraine,63.35,,,,,,,,,115,122.5,132.5,132.5,132.5,67.5,M,Владислав Вишневський,D
Raw,Yes,1,Volodimir Ivasyutin,Juniors 20-23,1995,Ukraine,66.68,,,,,,,,,160,170,172.5,172.5,172.5,67.5,M,Володимир Івасютин,D
Raw,Yes,2,Yaroslav Fedorenko,Juniors 20-23,1993,Ukraine,65.55,,,,,,,,,140,160,170,170,170,67.5,M,Ярослав Федоренко,D
Raw,Yes,1,Sergiy Kalchuk,Open,1989,Ukraine,65.25,,,,,,,,,150,160,170,170,170,67.5,M,Сергій Кальчук,D
Raw,Yes,2,Oleksandr Krizhevskiy,Open,1982,Ukraine,63.4,,,,,,,,,150,160,-170,160,160,67.5,M,Олександр Крижевський,D
Raw,Yes,3,Dmitro Shpak,Open,1991,Ukraine,66.25,,,,,,,,,160,-172.5,-172.5,160,160,67.5,M,Дмитро Шпак,D
Raw,Yes,4,Taras Dmitrenko,Open,1992,Ukraine,66.65,,,,,,,,,110,120,-140,120,120,67.5,M,Тарас Дмитренко,D
Raw,Yes,1,Ivan Skladchikov,Teen 16-17,1999,Ukraine,73.85,,,,,,,,,140,152.5,-162.5,152.5,152.5,75,M,Іван Складчіков,D
Raw,Yes,1,Valeriy Oleksenko,Teen 18-19,1997,Ukraine,74.8,,,,,,,,,170,-182.5,185,185,185,75,M,Валерій Олексенко,D
Raw,Yes,1,Denis Maksimchuk,Juniors 20-23,1993,Ukraine,74.85,,,,,,,,,210,217.5,-222.5,217.5,217.5,75,M,Денис Максимчук,D
Raw,Yes,2,Evgen Musienko,Juniors 20-23,1995,Ukraine,73.5,,,,,,,,,190,200,207.5,207.5,207.5,75,M,Євген Мусієнко,D
Raw,Yes,1,Vadim Marinich,Open,1981,Ukraine,74.5,,,,,,,,,215,225,-237.5,225,225,75,M,Вадим Маринич,D
Raw,Yes,2,Vladislav Dotsenko,Open,1987,Ukraine,73.85,,,,,,,,,202.5,210,220,220,220,75,M,Владислав Доценко,D
Raw,Yes,3,Maksim Yakimov #2,Open,1981,Ukraine,74.45,,,,,,,,,215,-220,,215,215,75,M,Максим Якімов,D
Raw,Yes,1,Oleksandr Gladkikh,Masters 70-74,1946,Ukraine,74.75,,,,,,,,,110,120,-130,120,120,75,M,Олександр Гладких,D
Raw,Yes,1,Oleksandr Zaporozhets,Teen 16-17,1998,Ukraine,77,,,,,,,,,160,170,-175,170,170,82.5,M,Олександр Запорожець,D
Raw,Yes,1,Andriy Kuzmuk,Teen 18-19,1997,Ukraine,81.6,,,,,,,,,225,-240,-240,225,225,82.5,M,Андрій Кузьмук,D
Raw,Yes,1,Oleksandr Trondyuk,Juniors 20-23,1995,Ukraine,78.4,,,,,,,,,245,262.5,271,271,271,82.5,M,Олександр Трондюк,D
Raw,Yes,2,Oleg Litvinenko,Juniors 20-23,1995,Ukraine,80.05,,,,,,,,,212.5,220,225,225,225,82.5,M,Олег Литвиненко,D
Raw,Yes,3,Denis Bragin #1,Juniors 20-23,1993,Ukraine,80.15,,,,,,,,,190,205,220,220,220,82.5,M,Денис Брагін,D
Raw,Yes,4,Oleksandr Pilipenko,Juniors 20-23,1994,Ukraine,77.6,,,,,,,,,140,150,160,160,160,82.5,M,Олександр Пилипенко,D
Raw,Yes,1,Oleksandr Trondyuk,Open,1995,Ukraine,78.4,,,,,,,,,245,262.5,271,271,271,82.5,M,Олександр Трондюк,D
Raw,Yes,2,Oleksandr Novak,Open,1983,Ukraine,82.25,,,,,,,,,230,240,-250,240,240,82.5,M,Олександр Новак,D
Raw,Yes,3,Andriy Kuzmuk,Open,1997,Ukraine,81.6,,,,,,,,,225,-240,-240,225,225,82.5,M,Андрій Кузьмук,D
Raw,Yes,4,Denis Bragin #1,Open,1993,Ukraine,80.15,,,,,,,,,190,205,220,220,220,82.5,M,Денис Брагін,D
Raw,Yes,5,Evgen Benedik,Open,1985,Ukraine,80.8,,,,,,,,,-190,190,200,200,200,82.5,M,Євген Бенедик,D
Raw,Yes,6,Dmitro Smolinets,Open,1982,Ukraine,81.65,,,,,,,,,160,170,180,180,180,82.5,M,Дмитро Смолинець,D
Raw,Yes,1,Mikhaylo Litvinenko,Masters 45-49,1969,Ukraine,80.2,,,,,,,,,-125,125,130,130,130,82.5,M,Михайло Литвиненко,D
Raw,Yes,1,Volodimir Galeta,Masters 50-54,1964,Ukraine,81.5,,,,,,,,,-150,150,-160,150,150,82.5,M,Володимир Галета,D
Raw,Yes,1,Oleksandr Ostrovskiy,Masters 60-64,1953,Ukraine,76.6,,,,,,,,,140,150,162.5,162.5,162.5,82.5,M,Олександр Островський,D
Raw,Yes,1,Yaroslav Gavyada,Teen 13-15,2003,Ukraine,86.65,,,,,,,,,170,180,190,190,190,90,M,Ярослав Гав'яда,D
Raw,Yes,1,Vladislav Mazur,Juniors 20-23,1995,Ukraine,84.7,,,,,,,,,230,240,255,255,255,90,M,Владислав Мазур,D
Raw,Yes,2,Maksim Mokhamad,Juniors 20-23,1994,Ukraine,88.35,,,,,,,,,210,220,230,230,230,90,M,Максим Мохамад,D
Raw,Yes,3,Dmitro Nikolaev,Juniors 20-23,1996,Ukraine,88.45,,,,,,,,,220,-230,230,230,230,90,M,Дмитро Ніколаєв,D
Raw,Yes,4,Ivan Tyutyunnik,Juniors 20-23,1995,Ukraine,88.3,,,,,,,,,180,-210,210,210,210,90,M,Іван Тютюнник,D
Raw,Yes,1,Sergiy Vdovichenko,Open,1984,Ukraine,85.1,,,,,,,,,235,250,255,255,255,90,M,Сергій Вдовиченко,D
Raw,Yes,2,Sergiy Radchenko,Open,1989,Ukraine,88.65,,,,,,,,,230,-240,240,240,240,90,M,Сергій Радченко,D
Raw,Yes,3,Dmitro Dovbush,Open,1988,Ukraine,86.1,,,,,,,,,215,-222.5,222.5,222.5,222.5,90,M,Дмитро Довбиш,D
Raw,Yes,4,Daniil Sandak,Open,1990,Ukraine,88,,,,,,,,,200,212.5,222.5,222.5,222.5,90,M,Даніїл Сандак,D
Raw,Yes,5,Evgeniy Gutnik,Open,1990,Ukraine,89,,,,,,,,,165,177.5,-180,177.5,177.5,90,M,Євгеній Гутник,D
Raw,Yes,1,Oleg Lungu,Masters 40-44,1972,Ukraine,88.2,,,,,,,,,200,210,215,215,215,90,M,Олег Лунгу,D
Raw,Yes,2,Oleksandr Drobilko,Masters 40-44,1972,Ukraine,86.6,,,,,,,,,190,200,202.5,202.5,202.5,90,M,Олександр Дробілко,D
Raw,Yes,1,Viktor Poshtarenko,Masters 45-49,1970,Ukraine,86.95,,,,,,,,,190,205,218.5,218.5,218.5,90,M,Віктор Поштаренко,D
Raw,Yes,1,Gennadiy Ostrovskiy,Masters 50-54,1965,Ukraine,86,,,,,,,,,185,200,207.5,207.5,207.5,90,M,Геннадій Островський,D
Raw,Yes,2,Yuriy Ischenko #1,Masters 50-54,1963,Ukraine,85.75,,,,,,,,,145,152.5,157.5,157.5,157.5,90,M,Юрій Іщенко,D
Raw,Yes,1,Yuriy Starkov,Masters 65-69,1947,Ukraine,83.65,,,,,,,,,200,215,-225,215,215,90,M,Юрій Старков,D
Raw,Yes,1,Andriy Karaban,Teen 18-19,1997,Ukraine,97.15,,,,,,,,,270,285,-300,285,285,100,M,Андрій Карабан,D
Raw,Yes,1,Vladislav Scherbak,Juniors 20-23,1993,Ukraine,100,,,,,,,,,255,268.5,275,275,275,100,M,Владислав Щербак,D
Raw,Yes,2,Andriy Bronishevskiy,Juniors 20-23,1993,Ukraine,95.5,,,,,,,,,220,-230,-230,220,220,100,M,Андрій Бронішєвський,D
Raw,Yes,1,Dmitro Prosvirin,Open,1986,Ukraine,97.55,,,,,,,,,280,290,300,300,300,100,M,Дмитро Просвірін,D
Raw,Yes,2,Andriy Karaban,Open,1997,Ukraine,97.15,,,,,,,,,270,285,-300,285,285,100,M,Андрій Карабан,D
Raw,Yes,3,Vladislav Scherbak,Open,1993,Ukraine,100,,,,,,,,,255,268.5,275,275,275,100,M,Владислав Щербак,D
Raw,Yes,1,Dmitro Strelnikov,Masters 40-44,1975,Ukraine,98.95,,,,,,,,,160,170,180,180,180,100,M,Дмитро Стрельніков,D
Raw,Yes,1,Volodimir Kolomiets,Masters 50-54,1966,Ukraine,99.4,,,,,,,,,165,175,-185,175,175,100,M,Володимир Коломіець,D
Raw,Yes,1,Viktor Stefanov,Masters 65-69,1948,Ukraine,99.35,,,,,,,,,160,170,-175,170,170,100,M,Віктор Стефанов,D
Raw,Yes,1,Igor Zaychuk,Open,1989,Ukraine,107.85,,,,,,,,,290,-300,-300,290,290,110,M,Ігор Зайчук,D
Raw,Yes,2,Volodimir Gorbachenko,Open,1978,Ukraine,108.3,,,,,,,,,-250,-250,250,250,250,110,M,Володимир Горбаченко,D
Raw,Yes,3,Valentin Kazmirenko,Open,1991,Ukraine,107.75,,,,,,,,,220,230,240,240,240,110,M,Валентин Казьміренко,D
Raw,Yes,4,Oleg Piskun,Open,1962,Ukraine,103.45,,,,,,,,,195,202.5,207.5,207.5,207.5,110,M,Олег Піскун,D
Raw,Yes,1,Oleg Piskun,Masters 50-54,1962,Ukraine,103.45,,,,,,,,,195,202.5,207.5,207.5,207.5,110,M,Олег Піскун,D
Raw,Yes,1,Oles Petrenko,Teen 16-17,2000,Ukraine,116.35,,,,,,,,,140,150,160,160,160,125,M,Олесь Петренко,D
Raw,Yes,1,Denis Alekseenko,Juniors 20-23,1993,Ukraine,121.3,,,,,,,,,190,215,-226,215,215,125,M,Денис Алексеєнко,D
Raw,Yes,1,Igor Kotsyuba,Open,1982,Ukraine,117.4,,,,,,,,,250,270,-280,270,270,125,M,Ігор Коцюба,D
Raw,Yes,2,Andriy Voloshinenko,Open,1980,Ukraine,113.25,,,,,,,,,205,215,-227.5,215,215,125,M,Андрій Волошиненко,D
Raw,Yes,3,Denis Alekseenko,Open,1993,Ukraine,121.3,,,,,,,,,190,215,-226,215,215,125,M,Денис Алексеєнко,D
Single-ply,Yes,1,Ruslan Timoshenko,Open,1990,Ukraine,89.1,,,,,,,,,242.5,252.5,-260,252.5,252.5,90,M,Руслан Тимошенко,D
Raw,No,1,Mariya Kravchuk,Open,1983,Ukraine,51.4,,,,,,,,,-130,130,135,135,135,52,F,Марія Кравчук,D
Raw,No,1,Anatoliy Starostenko,Teen 16-17,1999,Ukraine,65.85,,,,,,,,,200,210,220,220,220,67.5,M,Анатолій Старостенко,D
Raw,No,1,Anatoliy Starostenko,Open,1999,Ukraine,65.85,,,,,,,,,200,210,220,220,220,67.5,M,Анатолій Старостенко,D
Raw,No,2,Ihor Hamarnik,Open,1988,Ukraine,66.55,,,,,,,,,200,210,-212.5,210,210,67.5,M,Ігор Гамарник,D
Raw,No,1,Mykola Bilozerov,Open,1982,Ukraine,71.35,,,,,,,,,230,237.5,-242.5,237.5,237.5,75,M,Николай Белозеров,D
Raw,No,2,Sergiy Solomyrskyy #2,Open,1983,Ukraine,74.6,,,,,,,,,205,215,225,225,225,75,M,Сергій Соломірський,D
Raw,No,1,Igor Severin,Open,1985,Ukraine,81.6,,,,,,,,,215,220,-227.5,220,220,82.5,M,Ігор Северин,D
Raw,No,2,Rafael Avdolyan,Open,1984,Ukraine,82.35,,,,,,,,,210,-220,-222.5,210,210,82.5,M,Рафаель Авдолян,D
Raw,No,1,Mykola Chirikalo,Open,1987,Ukraine,88.4,,,,,,,,,230,240,262.5,262.5,262.5,90,M,Микола Чирікало,D
Raw,No,2,Mikola Tishuk,Open,1992,Ukraine,87.7,,,,,,,,,240,250,260,260,260,90,M,Микола Тишук,D
Raw,No,3,Oleksandr Voloshin,Open,1987,Ukraine,89.15,,,,,,,,,-230,240,245,245,245,90,M,Олександр Волошин,D
Raw,No,1,Oleg Yanovych,Open,1992,Ukraine,94.8,,,,,,,,,275,285,290,290,290,100,M,Олег Янович,D
Raw,No,1,Viktor Rublyov,Masters 40-44,1975,Ukraine,98.1,,,,,,,,,240,-255,-255,240,240,100,M,Віктор Рубльов,D
Raw,No,1,Yuriy Kostenko,Masters 45-49,1971,Ukraine,95.25,,,,,,,,,250,260,,260,260,100,M,Юрій Костенко,D
Raw,No,2,Volodimir Petukhov,Open,1987,Ukraine,98.2,,,,,,,,,272.5,280,-290,280,280,100,M,Володимир Петухов,D
Raw,No,1,Oleksandr Chernish,Open,1988,Ukraine,109,,,,,,,,,290,307.5,-315,307.5,307.5,110,M,Олександр Черниш,D
Raw,No,1,Oleksandr Tarasov,Open,1991,Ukraine,116.45,,,,,,,,,280,-300,-300,280,280,125,M,Олександр Тарасов,D
Raw,No,1,Mikhaylo Pitinov,Masters 45-49,1971,Ukraine,124.85,,,,,,,,,180,200,-210,200,200,125,M,Михайло Пітінов,D
Single-ply,No,1,Andriy Romanchuk,Submasters 35-39,1976,Ukraine,99.3,,,,,,,,,280,290,-300,290,290,100,M,Андрій Романчук,D
Single-ply,No,1,Oleksandr Bayda,Open,1982,Ukraine,108.5,,,,,,,,,290,300,-305,300,300,110,M,Олександр Байда,D
