Equipment,Place,Name,Division,BirthYear,Country,BodyweightKg,Bench1Kg,Bench2Kg,Bench3Kg,Best3BenchKg,WeightClassKg,Sex,CyrillicName,Event,TotalKg,BirthDate
Raw,1,Anastasiya Poltaeva,Open,1987,Russia,45.5,57.5,62.5,65,65,47,F,Анастасия Полтаева,B,65,
Raw,2,Nina Akilbaeva,Open,1985,Russia,45.65,35,37.5,40,40,47,F,Нина Акилбаева,B,40,
Raw,1,Olga Lavrentyeva,Open,1999,Russia,51.5,67.5,72.5,77.5,77.5,52,F,Ольга Лаврентьева,B,77.5,
Raw,2,Darya Zinovyeva,Open,1999,Russia,52,45,47.5,50,50,52,F,Дарья Зиновьева,B,50,
Raw,3,Anastasiya Alekseeva,Open,1985,Russia,49.8,45,-50,-50,45,52,F,Анастасия Алексеева,B,45,
Raw,4,Natalya Rybakova,Open,1991,Russia,50.85,-37.5,37.5,40,40,52,F,Наталья Рыбакова,B,40,
Raw,5,Gulnaz Maulitdinova,Open,2002,Russia,50.9,30,35,-37.5,35,52,F,Гульназ Маулитдинова,B,35,
Raw,1,Olga Viktorova,Open,1983,Russia,55.6,65,67.5,70,70,57,F,Ольга Викторова,B,70,
Raw,2,Lyubov Shmakova,Open,1988,Russia,54.7,45,47.5,50,50,57,F,Любовь Шмакова,B,50,
Raw,3,Nadezhda Yakimova,Open,1972,Russia,54.45,45,-47.5,-47.5,45,57,F,Надежда Якимова,B,45,
Raw,1,Anna Palkova,Open,1990,Russia,62.1,87.5,90,-95,90,63,F,Анна Палькова,B,90,
Raw,2,Irina Kamurkina,Open,1979,Russia,61.2,85,-87.5,-87.5,85,63,F,Ирина Камуркина,B,85,
Raw,3,Anastasiya Nikonova,Open,1983,Russia,61.65,50,-55,-55,50,63,F,Анастасия Никонова,B,50,
Raw,4,Varvara Mikhaylova,Open,2003,Russia,60.65,35,37.5,40,40,63,F,Варвара Михайлова,B,40,
Raw,1,Marina Belyaeva,Open,1982,Russia,67.8,75,-77.5,77.5,77.5,72,F,Марина Беляева,B,77.5,
Raw,2,Oksana Antropova,Open,1986,Russia,70.9,60,62.5,65,65,72,F,,B,65,
Raw,3,Aygul Gafiyatullina,Open,1995,Russia,67.45,-57.5,57.5,62.5,62.5,72,F,Айгуль Гафиятуллина,B,62.5,
Raw,4,Olga Kuramina,Open,1972,Russia,66.2,47.5,50,-52.5,50,72,F,Ольга Курамина,B,50,
Raw,1,Elena Ivanova,Open,1992,Russia,83.3,85,92.5,-105,92.5,84,F,Елена Иванова,B,92.5,
Raw,2,Irina Trefilova,Open,1975,Russia,74.3,60,65,67.5,67.5,84,F,Ирина Трефилова,B,67.5,
Raw,1,Ramis Akhmatgaliev,Open,2003,Russia,57.45,72.5,77.5,80,80,59,M,Рамис Ахматгалиев,B,80,
Raw,1,Yuriy Alekseev #2,Open,1995,Russia,65.7,102.5,107.5,112.5,112.5,66,M,Юрий Алексеев,B,112.5,
Raw,2,Alfis Gimadiev,Open,1996,Russia,64.35,97.5,102.5,-107.5,102.5,66,M,Альфис Гимадиев,B,102.5,
Raw,3,Aleksey Dmitriev,Open,1988,Russia,65.3,82.5,87.5,-90,87.5,66,M,Алексей Дмитриев,B,87.5,
Raw,DQ,Rakhul Yadav,Open,2000,Russia,65.95,-65,-65,-65,,66,M,Рахул Йадав,B,,
Raw,1,Vladislav Atlashkin,Open,1985,Russia,73.1,145,147.5,-150,147.5,74,M,Владислав Атлашкин,B,147.5,
Raw,2,Aleksandr Komarov,Open,1970,Russia,70.7,130,135,-137.5,135,74,M,Александр Комаров,B,135,
Raw,3,Maksim Mironov,Open,1987,Russia,74,127.5,132.5,-137.5,132.5,74,M,Максим Миронов,B,132.5,
Raw,4,Sergey Sizov,Open,1982,Russia,73.8,122.5,127.5,-135,127.5,74,M,Сергей Сизов,B,127.5,
Raw,5,Damir Kasimov,Open,1985,Russia,73.2,112.5,117.5,120,120,74,M,Дамир Касимов,B,120,
Raw,6,Mikhail Shatunov,Open,1993,Russia,70.85,110,115,-117.5,115,74,M,Михаил Шатунов,B,115,
Raw,7,Anatoliy Yakimov,Open,1966,Russia,72.55,85,100,105,105,74,M,Анатолий Якимов,B,105,
Raw,8,Bakhriddin Radzhabov,Open,1998,Russia,73.95,97.5,105,-112.5,105,74,M,Бахриддин Раджабов,B,105,
Raw,9,Zakhar Ryabov,Open,1996,Russia,73.05,85,90,-92.5,90,74,M,Захар Рябов,B,90,
Raw,1,Roman Andrianov,Open,1979,Russia,81.05,165,175,-180,175,83,M,Роман Андрианов,B,175,
Raw,2,Aleksandr Kasyanov,Open,1991,Russia,80.85,165,-172.5,-175,165,83,M,Александр Касьянов,B,165,
Raw,3,Andrey Okhotnikov,Open,1986,Russia,82.3,145,152.5,157.5,157.5,83,M,Андрей Охотников,B,157.5,
Raw,4,Mikhail Nikitin,Open,1983,Russia,80.05,142.5,147.5,-150,147.5,83,M,Михаил Никитин,B,147.5,
Raw,5,Andrey Pavlov #16,Open,,Russia,81.9,-140,145,-152.5,145,83,M,Андрей Павлов,B,145,
Raw,6,Sergey Suslov,Open,1992,Russia,82.85,135,142.5,-147.5,142.5,83,M,Сергей Суслов,B,142.5,
Raw,7,Sergey Tikhonov,Open,1965,Russia,81.55,90,95,-100,95,83,M,Сергей Тихонов,B,95,
Raw,1,Eduard Korotkov,Open,1978,Russia,91.5,165,175,180,180,93,M,Эдуард Коротков,B,180,
Raw,2,Evgeniy Sereev,Open,1984,Russia,89.5,135,145,155,155,93,M,Евгений Сереев,B,155,
Raw,3,Semen Solovyev,Open,1997,Russia,87.25,120,-125,-125,120,93,M,Семен Соловьев,B,120,
Raw,4,Ilya Kulemin,Open,1999,Russia,87.6,-115,120,-122.5,120,93,M,Илья Кулемин,B,120,
Raw,DQ,Khasan Gulomov,Open,1980,Russia,91.1,-140,-140,-142.5,,93,M,Хасан Гуломов,B,,
Raw,1,Aleksandr Belyaev,Open,1979,Russia,103.2,205,210,212.5,212.5,105,M,Александр Беляев,B,212.5,
Raw,2,Aleksandr Ozhiganov,Open,1976,Russia,100.1,152.5,160,-167.5,160,105,M,Александр Ожиганов,B,160,
Raw,3,Islam Shagiev,Open,1973,Russia,104.95,152.5,-160,,152.5,105,M,Ислам Шагиев,B,152.5,
Raw,4,Yuriy Sofronov,Open,1982,Russia,93.65,115,-120,,115,105,M,Юрий Софронов,B,115,
Raw,5,Andrey Vasilyev,Open,1988,Russia,96.35,105,110,115,115,105,M,Андрей Васильев,B,115,
Raw,1,Rustam Shakirov,Open,1991,Russia,112.75,180,190,200,200,120,M,Рустам Шакиров,B,200,
Raw,2,Algis Neknedavichyus,Open,1977,Russia,111.9,175,185,-192.5,185,120,M,Альгис Некнедавичюс,B,185,
Raw,3,Konstantin Poduzov,Open,1979,Russia,111.5,170,180,-190,180,120,M,Константин Подузов,B,180,
Raw,4,Vladimir Efremov,Open,1950,Russia,106,150,152.5,-157.5,152.5,120,M,Владимир Ефремов,B,152.5,
Raw,1,Aleksandr Loginov,Open,1976,Russia,120.45,190,-200,-200,190,120+,M,Александр Логинов,B,190,
Raw,2,Mikhail Belyaev,Open,1992,Russia,123.05,140,150,155,155,120+,M,Михаил Беляев,B,155,
Raw,1,Aleksey Churakov,Open,1991,Russia,73.9,150,155,-160,155,74,M,Алексей Чураков,B,155,
Raw,2,Maksim Kochetov,Open,2001,Russia,68.85,120,-127.5,-127.5,120,74,M,Максим Кочетов,B,120,
Raw,1,Linar Safiullin,Open,1988,Russia,79.6,165,172.5,175,175,83,M,Линар Сафиуллин,B,175,
Raw,2,Andrey Zverev,Open,1977,Russia,82.25,140,147.5,152.5,152.5,83,M,Андрей Зверев,B,152.5,
Raw,DQ,Aleksey Paramonov,Open,1985,Russia,80.55,-180,-180,-180,,83,M,Алексей Парамонов,B,,
Raw,1,Ilya Suslikov,Open,1982,Russia,87.25,190,200,-205,200,93,M,Илья Сусликов,B,200,
Raw,2,Maksim Lavrenyuk,Open,1988,Russia,86.4,190,-195,-195,190,93,M,Максим Лавренюк,B,190,
Raw,1,Aleksandr Dudin,Open,1985,Russia,100.35,250,260,-270,260,105,M,Александр Дудин,B,260,
Raw,2,Timur Akhmetov,Open,1986,Russia,93.75,-135,135,,135,105,M,Тимур Ахметов,B,135,
Raw,1,Nikita Tokarev,Sub-Juniors,2003,Russia,52.55,70,-75,-75,70,53,M,Никита Токарев,B,70,
Raw,2,Samir Nasyrov,Sub-Juniors,2004,Russia,52.3,45,50,55,55,53,M,Самир Насыров,B,55,
Raw,3,Amir Mullagaliev,Sub-Juniors,2006,Russia,51,42.5,47.5,-50,47.5,53,M,Амир Муллагалиев,B,47.5,
Raw,1,Mikhail Zagaynov,Sub-Juniors,2002,Russia,58.35,85,90,-92.5,90,59,M,Михаил Загайнов,B,90,
Raw,2,Aleksey Pavlovskiy #2,Sub-Juniors,2002,Russia,58.4,62.5,67.5,70,70,59,M,Алексей Павловский,B,70,
Raw,3,Daniil Mukhridinov,Sub-Juniors,2004,Russia,58.8,62.5,67.5,-70,67.5,59,M,Даниил Мухридинов,B,67.5,
Raw,4,Nikita Gorinov,Sub-Juniors,2005,Russia,54.1,52.5,-57.5,-60,52.5,59,M,Никита Горинов,B,52.5,
Raw,1,Ilsaf Khaliullin,Sub-Juniors,2004,Russia,66,82.5,87.5,92.5,92.5,66,M,Ильсаф Халиуллин,B,92.5,
Raw,2,Mikhail Fedorov,Sub-Juniors,2003,Russia,62.75,80,90,-95,90,66,M,Михаил Федоров,B,90,
Raw,3,Klim Sofronov,Sub-Juniors,2003,Russia,61.1,65,70,75,75,66,M,Клим Софронов,B,75,
Raw,4,Konstantin Yashtulov,Sub-Juniors,2004,Russia,65.35,62.5,67.5,72.5,72.5,66,M,Константин Яштулов,B,72.5,
Raw,5,Roman Krivosheev,Sub-Juniors,2004,Russia,60.25,-55,65,-70,65,66,M,Роман Кривошеев,B,65,
Raw,1,Ivan Korotin,Sub-Juniors,2002,Russia,66.7,100,105,-110,105,74,M,Иван Коротин,B,105,
Raw,2,Nikita Palagin,Sub-Juniors,2004,Russia,73.2,82.5,90,97.5,97.5,74,M,Никита Палагин,B,97.5,
Raw,3,Fedor Ignatyev,Sub-Juniors,2002,Russia,73.85,85,87.5,-100,87.5,74,M,Федор Игнатьев,B,87.5,
Raw,4,Marat Khabibullin,Sub-Juniors,2004,Russia,72.9,70,75,80,80,74,M,Марат Хабибуллин,B,80,
Raw,5,Danil Danilov,Sub-Juniors,2006,Russia,67.7,62.5,70,75,75,74,M,Данил Данилов,B,75,
Raw,1,Ivan Maksimov,Sub-Juniors,2004,Russia,77.85,105,112.5,117.5,117.5,83,M,Иван Максимов,B,117.5,
Raw,DQ,Aleksey Kamernyy,Sub-Juniors,2002,Russia,76.35,-90,-95,-95,,83,M,Алексей Камерный,B,,
Raw,DQ,Maksim Trubitsyn,Sub-Juniors,2002,Russia,82.35,-135,-135,-135,,83,M,Максим Трубицын,B,,
Raw,1,Roman Ukolov,Sub-Juniors,2003,Russia,88.05,70,75,80,80,93,M,Роман Уколов,B,80,
Raw,1,Ivan Khokholkov,Sub-Juniors,2002,Russia,95.5,120,130,-135,130,105,M,Иван Хохолков,B,130,
Raw,2,David Khachatryan,Sub-Juniors,2004,Russia,94.75,62.5,70,72.5,72.5,105,M,Давид Хачатрян,B,72.5,
