Equipment,Place,Name,Division,BirthYear,Country,BodyweightKg,Bench1Kg,Bench2Kg,Bench3Kg,Best3BenchKg,WeightClassKg,Sex,CyrillicName,Event,TotalKg
Raw,1,Natalya Melnichuk,O,1975,Ukraine,50.3,47.5,-52.5,-52.5,47.5,50.5,F,Наталя Мельничук,B,47.5
Raw,1,Mariya Purtova,O,1989,Ukraine,49.9,25,30,35,35,50.5,F,Мария Пуртова,B,35
Raw,2,Tamila Tkachenko,O,1983,Ukraine,50.5,40,42.5,-45,42.5,50.5,F,Тамила Ткаченко,B,42.5
Raw,1,Lyudmyla Rossol,O,1975,,58,65,72.5,-75,72.5,58.5,F,Людмила Россол,B,72.5
Raw,1,Vita Syumak,O,1986,Ukraine,69.7,52.5,57.5,-60,57.5,70,F,Віта Сюмак,B,57.5
Raw,1,Iryna Pedoryaka,M2,1962,Ukraine,87.5,40,47.5,,47.5,90,F,Ірина Педоряка,B,47.5
Raw,1,Oleksiy Filippov,T3,1991,Ukraine,53.9,90,95,-97.5,95,56,M,Олексій Філіппов,B,95
Raw,1,Dmytro Kulyk,O,1992,,56,105,111,115,115,56,M,Дмитро Кулик,B,115
Raw,1,Ashot Eganyan,T3,1990,Ukraine,58,100,110,-115.5,110,60,M,Ашот Єганян,B,110
Raw,1,Artem Galkevich,O,1994,Ukraine,59.7,57.5,62.5,67.5,67.5,60,M,Артем Галькевич,B,67.5
Raw,1,Dmytro Zhurilo,T2,1992,Ukraine,65,70,-75,-75,70,67.5,M,Дмитро Журило,B,70
Raw,2,Dmitriy Cheverda,T2,1993,Ukraine,65,60,65,-70,65,67.5,M,Дмитро Чеверда,B,65
Raw,1,Valeriy Gnutov,O,1980,Ukraine,66.7,125,132.5,-140,132.5,67.5,M,Валерій Гнутов,B,132.5
Raw,2,Sergiy Totskiy,O,1977,,67.5,110,115,120,120,67.5,M,Сергій Тоцький,B,120
Raw,1,Vyacheslav Tuzov,T1,1994,Ukraine,72.6,70,75,-82.5,75,75,M,Вячеслав Тузов,B,75
Raw,1,Andrey Tarasenko,T2,1993,Ukraine,68.3,50,55,-60,55,75,M,Андрей Тарасенко,B,55
Raw,1,Vitaliy Krivetskiy,O,1982,Ukraine,74.4,135,-140,-140,135,75,M,Виталий Кривецкий,B,135
Raw,1,Sergey Rudenko,O,1987,Ukraine,75,-115,115,117.5,117.5,75,M,Сергей Руденко,B,117.5
Raw,2,Igor Prus,O,1979,Ukraine,74.6,125,-130,,125,75,M,Ігор Прус,B,125
Raw,3,Pavlo Novikov,O,1984,Ukraine,74.8,125,-127.5,-127.5,125,75,M,Павло Новиков,B,125
Raw,DQ,Anton Yuzhakov,T2,1993,Ukraine,77.6,-125,-125,-125,,82.5,M,Антон Южаков,B,
Raw,2,Maxym Ivaschenko,J,1987,Ukraine,80.1,127.5,130,-132.5,130,82.5,M,Максим Іващенко,B,130
Raw,1,Yuriy Totskiy,O,1976,,81.8,155,160,-162.5,160,82.5,M,Юрій Тоцький,B,160
Raw,1,Igor Martynov,O,1989,Ukraine,82.3,130,135,-145,135,82.5,M,Игорь Мартынов,B,135
Raw,2,Yuriy Klymenko,O,1982,,80.1,145,150,-155,150,82.5,M,Юрій Клименко,B,150
Raw,4,Andriy Galkevich,O,1971,Ukraine,82.4,127.5,-137.5,-137.5,127.5,82.5,M,Андрій Галькевич,B,127.5
Raw,1,Volodymyr Vasylenko,M6,1943,Ukraine,77.9,60,,,60,82.5,M,Володимир Василенко,B,60
Raw,1,Yaroslav Grosu,J,1988,Ukraine,88.4,137.5,150,-152.5,150,90,M,Ярослав Гросу,B,150
Raw,2,Andriy Mazanovich,J,1987,,89.2,-140,145,150,150,90,M,Андрій Мазанович,B,150
Raw,1,Rostyslav Bondarenko,O,1972,,89.7,150,160,170,170,90,M,Ростислав Бондаренко,B,170
Raw,2,Ruslan Petrenko,O,1974,,89.2,150,155,-160,155,90,M,Руслан Петренко,B,155
Raw,3,Yaroslav Shulyak,O,1981,,87.5,-130,135,137.5,137.5,90,M,Ярослав Шуляк,B,137.5
Raw,DQ,Igor Ivanchenko,O,1975,Ukraine,89.9,-172.5,-172.5,-172.5,,90,M,Ігор Іванченко,B,
Raw,DQ,Seyran Akimov,O,1978,Ukraine,88.7,-140,-140,,,90,M,Сейран Акімов,B,
Raw,1,Oleg Nagachevskyy,M3,1959,Ukraine,87.3,130,140,-145,140,90,M,Олег Нагачевський,B,140
Raw,1,Yuriy Filonenko,M4,1954,Ukraine,89,115,120,-122.5,120,90,M,Юрій Філоненко,B,120
Raw,2,Leonid Kot,M4,1950,Ukraine,90,110,-115,115,115,90,M,Леонід Кот,B,115
Raw,3,Volodymyr Nagalyuk,M4,1951,Ukraine,89.4,-90,90,,90,90,M,Володимир Нагалюк,B,90
Raw,1,Maksim Tretyak,T1,1994,Ukraine,91.3,70,75,-80,75,100,M,Максим Третяк,B,75
Raw,1,Dmitriy Ionov,J,1989,Ukraine,98,150,-157.5,-157.5,150,100,M,Дмитрий Ионов,B,150
Raw,2,Petro Martinyuk,J,1987,Ukraine,97.8,120,130,-137.5,130,100,M,Петро Мартинюк,B,130
Raw,1,Volodymyr Kosobrodov,O,1978,Ukraine,96.4,160,167.5,172.5,172.5,100,M,Володимир Кособродов,B,172.5
Raw,1,Sergiy Echkenko,O,1962,Ukraine,100,167.5,172.5,-175,172.5,100,M,Сергій Ечкенко,B,172.5
Raw,3,Denis Oleynik,O,1985,Ukraine,98,157.5,162.5,-165,162.5,100,M,Денис Олейник,B,162.5
Raw,4,Vyacheslav Kireychuk,O,1980,Ukraine,99.6,145,152.5,-157.5,152.5,100,M,В'ячеслав Кірейчук,B,152.5
Raw,2,Gennadiy Stepanyuk,M2,1961,Ukraine,96.3,140,145,-150,145,100,M,Геннадій Степанюк,B,145
Raw,3,Sergiy Kolesnik,M2,1963,Ukraine,97.8,125,,,125,100,M,Сергій Колесник,B,125
Raw,1,Oleg Kaplun,O,1981,,100.9,140,145,150,150,110,M,Олег Каплун,B,150
Raw,2,Vyacheslav Grigorenko,O,1984,Ukraine,102.3,140,147.5,150,150,110,M,Вячеслав Григоренко,B,150
Raw,3,Andrey Kuschak,O,1975,Ukraine,102.5,150,-155,-155,150,110,M,Андрей Кущак,B,150
Raw,4,Sergiy Galita,O,1979,Ukraine,106.5,140,147.5,-150,147.5,110,M,Сергій Галіта,B,147.5
Raw,1,Valeriy Stretskul,M1,1964,Ukraine,103,120,127.5,,127.5,110,M,Валерій Стрецкул,B,127.5
Raw,1,Andriy Smolnikov,O,1978,,116.1,175,-180,,175,125,M,Андрій Смольников,B,175
Raw,1,Sergiy Doroschuk,O,1982,,124.9,165,-170,-170,165,125,M,Сергій Дорощук,B,165
Raw,1,Oleksandr Shvab,O,1976,Ukraine,125.8,170,175,177.5,177.5,145,M,Олександр Шваб,B,177.5
Raw,2,Volodymyr Ivaschenko,O,1969,,132.4,135,145,-155,145,145,M,Володимир Іващенко,B,145
Single-ply,1,Sergiy Kolesnik,M2,1963,Ukraine,97.8,145,170,,170,100,M,Сергій Колесник,B,170
Single-ply,1,Oleksandr Shvab,O,1976,Ukraine,125.8,200,205,210,210,145,M,Олександр Шваб,B,210
