Equipment,Place,Name,BirthYear,Country,BodyweightKg,Squat1Kg,Squat2Kg,Squat3Kg,Best3SquatKg,Bench1Kg,Bench2Kg,Bench3Kg,Best3BenchKg,Deadlift1Kg,Deadlift2Kg,Deadlift3Kg,Best3DeadliftKg,TotalKg,WeightClassKg,Sex,CyrillicName,Event,Division
Raw,1,Margarita Savelyeva,1994,Russia,46.65,45,50,55,55,25,30,-35,30,55,60,67.5,67.5,152.5,47,F,Маргарита Савельева,SBD,Open
Raw,1,Olesya Gordeeva,1992,Russia,48.1,50,55,62.5,62.5,30,35,-40,35,60,70,75,75,172.5,52,F,Олеся Гордеева,SBD,Open
Raw,1,Minara Farzalieva,1982,Russia,56.15,70,72.5,75,75,45,50,-55,50,105,115,120,120,245,57,F,Минара Фарзалиева,SBD,Open
Raw,2,Vera Muravyeva,1968,Russia,57,80,85,-87.5,85,47.5,50,52.5,52.5,100,105,107.5,107.5,245,57,F,Вера Муравьева,SBD,Open
Raw,1,Anna Kontorina,1977,Russia,58.45,90,-95,-95,90,-50,52.5,55,55,100,110,-120,110,255,63,F,Анна Конторина,SBD,Open
Raw,2,Darya Egorova,1992,Russia,61.25,75,82.5,-87.5,82.5,35,40,42.5,42.5,95,105,115,115,240,63,F,Дарья Егорова,SBD,Open
Raw,1,Tatyana Chekmareva,1975,Russia,71.35,-132.5,132.5,-135,132.5,87.5,92.5,-95,92.5,170,-175,175,175,400,72,F,Татьяна Чекмарева,SBD,Open
Raw,2,Mariya Volkova,1972,Russia,71.3,130,140,145,145,90,100,-110,100,115,125,135,135,380,72,F,Мария Волкова,SBD,Open
Raw,1,Veronika Ukolova,1997,Russia,75.3,-90,90,97.5,97.5,40,45,-47.5,45,100,110,115,115,257.5,84,F,Вероника Уколова,SBD,Open
Raw,1,Aleksandr Zanozin,1989,Russia,50.85,90,100,107.5,107.5,75,80,85,85,100,110,117.5,117.5,310,53,M,Александр Занозин,SBD,Open
Raw,2,Dmitriy Gonchar,1994,Russia,52.45,60,80,-100,80,60,70,80,80,80,100,110,110,270,53,M,Дмитрий Гончар,SBD,Open
Raw,1,Artem Okishev,1992,Russia,64,150,160,165,165,100,-110,110,110,170,177.5,182.5,182.5,457.5,66,M,Артем Окишев,SBD,Open
Raw,2,Artem Kurov,1992,Russia,65.5,100,120,-130,120,80,90,-95,90,120,130,140,140,350,66,M,Артем Куров,SBD,Open
Raw,1,Aleksandr Kuznetsov #17,1988,Russia,73.1,150,160,-165,160,100,110,-112.5,110,175,185,-195,185,455,74,M,Александр Кузнецов,SBD,Open
Raw,2,Aleksey Volkov,1984,Russia,74,130,142.5,155,155,85,95,105,105,130,145,155,155,415,74,M,Алексей Волков,SBD,Open
Raw,3,Petr Zabolotniy,1990,Russia,67.2,100,-110,110,110,90,100,-105,100,150,160,165,165,375,74,M,Петр Заболотний,SBD,Open
Raw,1,Vyacheslav Nikadimov,1987,Russia,82.85,190,200,-210,200,150,160,170,170,220,235,-250,235,605,83,M,Вячеслав Никадимов,SBD,Open
Raw,2,Vadim Sergeev,1984,Russia,82.35,165,-175,175,175,-130,130,-132.5,130,230,-250,-250,230,535,83,M,Вадим Сергеев,SBD,Open
Raw,3,Dmitriy Blinov,1974,Russia,81.35,130,-140,140,140,110,120,130,130,150,170,180,180,450,83,M,Дмитрий Блинов,SBD,Open
Raw,1,Aleksey Kraynichuk,1988,Russia,91.05,215,225,232.5,232.5,160,170,-175,170,-250,250,,250,652.5,93,M,Алексей Крайничук,SBD,Open
Raw,2,Aleksandr Nikitin,1975,Russia,89.95,210,220,-225,220,130,137.5,-140,137.5,215,-230,-230,215,572.5,93,M,Александр Никитин,SBD,Open
Raw,3,Oleg Stepanov #2,1977,Russia,89.55,175,182.5,190,190,135,142.5,-150,142.5,190,200,-205,200,532.5,93,M,Олег Степанов,SBD,Open
Raw,4,Sergey Rubin,1989,Russia,89.95,170,180,-185,180,120,125,130,130,175,185,-200,185,495,93,M,Сергей Рубин,SBD,Open
Raw,5,Aleksey Surenskiy,1986,Russia,90.6,160,170,-180,170,115,117.5,120,120,175,185,195,195,485,93,M,Алексей Суренский,SBD,Open
Raw,6,Dmitriy Zotkin,1993,Russia,91.3,150,162.5,-175,162.5,-120,130,-137.5,130,150,170,187.5,187.5,480,93,M,Дмитрий Зоткин,SBD,Open
Raw,7,Yuriy Kostrikin,1969,Russia,87.15,-130,130,145,145,130,-140,140,140,170,190,-200,190,475,93,M,Юрий Кострикин,SBD,Open
Raw,DQ,Aleksandr Zakharchenko,1979,Russia,88.25,130,-132.5,,130,-90,,,,-160,,,,,93,M,Александр Захарченко,SBD,Open
Raw,1,Mikhail Kim,1980,Russia,104.5,220,240,250,250,170,180,185,185,300,312.5,320,320,755,105,M,Михаил Ким,SBD,Open
Raw,2,Petr Ershov,1983,Russia,100.5,240,255,270,270,175,185,-190,185,260,275,292.5,292.5,747.5,105,M,Петр Ершов,SBD,Open
Raw,3,Aleksandr Fateev,1983,Russia,102.95,230,245,250,250,170,-180,180,180,250,270,280,280,710,105,M,Александр Фатеев,SBD,Open
Raw,4,Denis Podvizhnoy,1977,Russia,96.95,-240,240,-250,240,170,180,-185,180,240,255,270,270,690,105,M,Денис Подвижной,SBD,Open
Raw,5,Pavel Schutskoy,1979,Russia,101.85,250,-257.5,-257.5,250,170,180,-185,180,250,-260,,250,680,105,M,Павел Щуцкой,SBD,Open
Raw,6,Konstantin Gorenkov,1983,Russia,103.2,205,215,222.5,222.5,-145,150,155,155,250,-260,-260,250,627.5,105,M,Константин Горенков,SBD,Open
Raw,7,Roman Fedorenko,1988,Russia,102.35,170,-180,185,185,175,185,190,190,200,220,240,240,615,105,M,Роман Федоренко,SBD,Open
Raw,DQ,Andrey Pavlov #15,1981,Russia,95.35,-230,-245,-250,,-155,,,,-220,,,,,105,M,Андрей Павлов,SBD,Open
Raw,DQ,Aleksandr Savtsov,1985,Russia,99.8,-140,-150,-160,,-120,,,,-140,,,,,105,M,Александр Савцов,SBD,Open
Raw,1,Sergey Kosarev,1980,Russia,111.25,280,292.5,300,300,220,-230,230,230,280,290,-300,290,820,120,M,Сергей Косарев,SBD,Open
Raw,2,Kirill Nazoev,1983,Russia,110.3,180,192.5,200,200,160,172.5,180,180,210,230,237.5,237.5,617.5,120,M,Кирилл Назоев,SBD,Open
Raw,3,Aleksey Tolstykh,1973,Russia,105.95,190,200,205,205,140,145,150,150,210,220,-225,220,575,120,M,Алексей Толстых,SBD,Open
Raw,4,Kirill Novokschenov,1983,Russia,109.5,-180,190,200,200,120,130,140,140,-210,215,225,225,565,120,M,Кирилл Новокщенов,SBD,Open
Raw,1,Sergey Melnikov,1967,Russia,122.05,230,240,-255,240,180,190,200,200,240,250,,250,690,120+,M,Сергей Мельников,SBD,Open
Raw,2,Nikolay Markin,1981,Russia,121.7,240,-250,-250,240,150,160,,160,240,,,240,640,120+,M,Николай Маркин,SBD,Open
