Equipment,Place,Name,BirthYear,Country,BodyweightKg,Bench1Kg,Bench2Kg,Bench3Kg,Best3BenchKg,WeightClassKg,Sex,CyrillicName,Event,TotalKg,Division
Single-ply,1,Elvin Guseynov,1999,Russia,70,-140,140,-150,140,74,M,Эльвин Гусейнов,B,140,Open
Single-ply,1,Evgeniy Nosach,1976,Russia,79.55,195,207.5,220,220,83,M,Евгений Носач,B,220,Open
Single-ply,2,Ilya Cheshuin,1986,Russia,81.65,165,172.2,177.5,177.5,83,M,Илья Чешуин,B,177.5,Open
Single-ply,3,Aleksandr Filatov,1989,Russia,78.05,145,150,155,155,83,M,Александр Филатов,B,155,Open
Single-ply,4,Ilya Ermilov,1990,Russia,82.45,127.5,135,142.5,142.5,83,M,Илья Ермилов,B,142.5,Open
Single-ply,5,Sergey Zatulin,1990,Russia,75.35,130,135,-140,135,83,M,Сергей Затулин,B,135,Open
Single-ply,1,Anatoliy Menshikov,1962,Russia,91.5,207.5,215,220,220,93,M,Анатолий Меньшиков,B,220,Open
Single-ply,2,Aleksandr Kurochkin,1983,Russia,83.5,170,177.5,182.5,182.5,93,M,Александр Курочкин,B,182.5,Open
Single-ply,3,Sergey Saunin,1995,Russia,89,145,152.5,162.5,162.5,93,M,Сергей Саунин,B,162.5,Open
Single-ply,1,Roman Bazin,1980,Russia,97.25,240,250,260,260,105,M,Роман Базин,B,260,Open
Single-ply,2,Marat Gafurov,1989,Russia,96.55,220,227.5,235,235,105,M,Марат Гафуров,B,235,Open
Single-ply,3,Pavel Ershov,1989,Russia,99.8,230,-240,-240,230,105,M,Павел Ершов,B,230,Open
Single-ply,4,Oleg Matafonov,1976,Russia,99.3,180,185,190,190,105,M,Олег Матафонов,B,190,Open
Single-ply,1,Valeriy Utenkov,1990,Russia,108.8,215,227.5,-235,227.5,120,M,Валерий Утенков,B,227.5,Open
Single-ply,2,Grigoriy Chuprov,1985,Russia,112.25,205,215,225,225,120,M,Григорий Чупров,B,225,Open
Single-ply,3,Kirill Slesarev,2000,Russia,108.95,-150,-150,150,150,120,M,Кирилл Слесарев,B,150,Open
Single-ply,DQ,Filipp Savinov,1983,Russia,108.7,-190,-190,-190,,120,M,Филипп Савинов,B,,Open
Single-ply,1,Anastasiya Cherepanova,1997,Russia,51.7,47.5,52.5,57.5,57.5,52,F,Анастасия Черепанова,B,57.5,Open
Single-ply,1,Elena Scherbakova,1985,Russia,56.45,100,105,110,110,57,F,Елена Щербакова,B,110,Open
Single-ply,1,Alena Shnarevich,1999,Russia,63,50,,,50,63,F,Алена Шнаревич,B,50,Open
Single-ply,1,Svetlana Silchenko,1983,Russia,68.9,-105,105,110,110,72,F,Светлана Сильченко,B,110,Open
Raw,1,Evgeniy Stepanov #2,2001,Russia,64.5,95,100,105,105,66,M,Евгений Степанов,B,105,Open
Raw,2,Mikhail Skvortsov,1993,Russia,64.9,95,97.5,100,100,66,M,Михаил Скворцов,B,100,Open
Raw,1,Konstantin Berdnikov,1995,Russia,73.15,145,150,155,155,74,M,Константин Бердников,B,155,Open
Raw,2,Evgeniy Borisov,1987,Russia,74,125,135,-142.5,135,74,M,Евгений Борисов,B,135,Open
Raw,3,Ilya Zaloznov,1987,Russia,72.6,100,110,125,125,74,M,Илья Залознов,B,125,Open
Raw,4,Sergey Murtazin,1990,Russia,68.5,70,80,90,90,74,M,Сергей Муртазин,B,90,Open
Raw,1,Roman Abassov,1993,Russia,82.45,165,175,182.5,182.5,83,M,Роман Абассов,B,182.5,Open
Raw,2,Sergey Meshkauskas,1988,Russia,80,125,132.5,-135,132.5,83,M,Сергей Мешкаускас,B,132.5,Open
Raw,3,Andrey Chernousov,1996,Russia,79.6,100,110,120,120,83,M,Андрей Черноусов,B,120,Open
Raw,DQ,Aleksandr Poletykin,1961,Russia,81.85,-150,-150,-150,,83,M,Александр Полетыкин,B,,Open
Raw,1,Aleksandr Karelin,1981,Russia,92.4,150,157.5,165,165,93,M,Александр Карелин,B,165,Open
Raw,2,Andrey Bulaev,1983,Russia,90.8,150,157.5,162.5,162.5,93,M,Андрей Булаев,B,162.5,Open
Raw,3,Aleksey Boriskin,1985,Russia,87.75,145,152.5,-162.5,152.5,93,M,Алексей Борискин,B,152.5,Open
Raw,4,Kirill Skvortsov,1992,Russia,90.9,130,142.5,-155,142.5,93,M,Кирилл Скворцов,B,142.5,Open
Raw,5,Petr Savostin,1984,Russia,91.55,125,130,-135,130,93,M,Петр Савостин,B,130,Open
Raw,6,Vladimir Burykin,1985,Russia,91.65,120,130,-140,130,93,M,Владимир Бурыкин,B,130,Open
Raw,7,Ilya Masalskiy,1983,Russia,87.95,110,115,120,120,93,M,Илья Масальский,B,120,Open
Raw,8,Viktor Golykh,1986,Russia,84.4,105,110,-120,110,93,M,Виктор Голых,B,110,Open
Raw,1,Nikolay Kozlovskiy,1981,Russia,102.7,190,200,205,205,105,M,Николай Козловский,B,205,Open
Raw,2,Semen Derevyanko,1986,Russia,103.1,185,192.5,202.5,202.5,105,M,Семен Деревянко,B,202.5,Open
Raw,3,Evgeniy Savitskas,1989,Russia,103.9,190,200,-205,200,105,M,Евгений Савицкас,B,200,Open
Raw,4,Artem Poryadin,1995,Russia,102.1,170,182.5,185,185,105,M,Артем Порядин,B,185,Open
Raw,5,Sergey Butenko,1981,Russia,100.2,170,180,-190,180,105,M,Сергей Бутенко,B,180,Open
Raw,6,Vyacheslav Firinskiy,1982,Russia,103.2,165,175,-185,175,105,M,Вячеслав Фиринский,B,175,Open
Raw,7,Aleksandr Salmin,1992,Russia,97,160,170,-177.5,170,105,M,Александр Салмин,B,170,Open
Raw,8,Valeriy Panchikhin,1980,Russia,96,140,152.5,-157.5,152.5,105,M,Валерий Панчихин,B,152.5,Open
Raw,9,Vasiliy Kulakov,1993,Russia,93.45,135,-137.5,137.5,137.5,105,M,Василий Кулаков,B,137.5,Open
Raw,10,Vlad Lozovoy,1997,Russia,94.2,90,105,-115,105,105,M,Влад Лозовой,B,105,Open
Raw,1,Ivan Dzyuba,1990,Russia,118.55,185,195,200,200,120,M,Иван Дзюба,B,200,Open
Raw,2,Grigoriy Chuprov,1985,Russia,112.25,175,185,195,195,120,M,Григорий Чупров,B,195,Open
Raw,3,Kirill Yakubenko,1986,Russia,106.2,175,185,190,190,120,M,Кирилл Якубенко,B,190,Open
Raw,4,Pavel Alekseev,1963,Russia,113.2,160,167.5,-172.5,167.5,120,M,Павел Алексеев,B,167.5,Open
Raw,5,Kamran Aliev,1984,Russia,106.4,110,120,130,130,120,M,Камран Алиев,B,130,Open
Raw,1,Olga Gerasimova,1995,Russia,47,65,70,-75,70,47,F,Ольга Герасимова,B,70,Open
Raw,2,Rada Dmitrieva,1999,Russia,45.7,50,55,57.5,57.5,47,F,Рада Дмитриева,B,57.5,Open
Raw,3,Anzhela Nemkovskaya,1995,Russia,46.05,40,45,50,50,47,F,Анжела Немковская,B,50,Open
Raw,4,Mariya Minchenko,1993,Russia,45.15,-20,20,27.5,27.5,47,F,Мария Минченко,B,27.5,Open
Raw,1,Serafima Pigenko,1995,Russia,52,57.5,62.5,72.5,72.5,52,F,Серафима Пигенко,B,72.5,Open
Raw,2,Anastasiya Cherepanova,1997,Russia,51.7,47.5,52.5,55,55,52,F,Анастасия Черепанова,B,55,Open
Raw,3,Tatyana Kuznetsova,1988,Russia,49.2,45,50,52.5,52.5,52,F,Татьяна Кузнецова,B,52.5,Open
Raw,4,Anastasiya Korovina,1999,Russia,47.05,35,40,-50,40,52,F,Анастасия Коровина,B,40,Open
Raw,1,Elena Scherbakova,1985,Russia,56.45,80,85,-95,85,57,F,Елена Щербакова,B,85,Open
Raw,2,Ekaterina Koltunova,1990,Russia,55.05,50,55,57.5,57.5,57,F,Екатерина Колтунова,B,57.5,Open
Raw,3,Yuliya Olenovskaya,1981,Russia,57,30,35,40,40,57,F,Юлия Оленовская,B,40,Open
Raw,1,Alena Shnarevich,1999,Russia,63,50,57.5,-60,57.5,63,F,Алена Шнаревич,B,57.5,Open
Raw,2,Natalya Gabedova,1986,Russia,59.5,35,40,42.5,42.5,63,F,Наталья Габедова,B,42.5,Open
Raw,1,Svetlana Silchenko,1983,Russia,68.9,72.5,77.5,-80,77.5,72,F,Светлана Сильченко,B,77.5,Open
Raw,2,Margarita Tretyakova,1989,Russia,65.3,50,52.5,55,55,72,F,Маргарита Третьякова,B,55,Open
Raw,1,Zhanna Spinova,1995,Russia,83.65,60,70,-75,70,84,F,Жанна Спинова,B,70,Open
Raw,2,Tatyana Martynevskaya,1950,Russia,72.2,42.5,47.5,50,50,84,F,Татьяна Мартыневская,B,50,Open
Raw,1,Mariya Zyryanova,1983,Russia,124.75,110,120,130,130,84+,F,Мария Зырянова,B,130,Open
Raw,2,Yana Spinova,1995,Russia,85.95,65,72.5,75,75,84+,F,Яна Спинова,B,75,Open
Raw,3,Oksana Semenukha,1995,Russia,85.25,65,70,72.5,72.5,84+,F,Оксана Семенуха,B,72.5,Open
