Equipment,Place,Name,BirthYear,Country,BodyweightKg,Best3SquatKg,Best3BenchKg,Best3DeadliftKg,TotalKg,WeightClassKg,Sex,CyrillicName,Event,Division
Single-ply,1,Diana Ryumkina,1996,Russia,46.9,100,55,117.5,272.5,47,F,Диана Рюмкина,SBD,Open
Single-ply,2,Tatyana Kuznetsova,1988,Russia,46.5,105,57.5,105,267.5,47,F,Татьяна Кузнецова,SBD,Open
Single-ply,3,Olga Gulentsova,1998,Russia,45.75,87.5,50,87.5,225,47,F,Ольга Гуленцова,SBD,Open
Single-ply,4,Alla Gutaya,1993,Russia,46.9,80,65,77.5,222.5,47,F,Алла Гутая,SBD,Open
Single-ply,5,Rada Dmitrieva,1999,Russia,42.25,65,30,70,165,47,F,Рада Дмитриева,SBD,Open
Single-ply,DQ,Kseniya Zorkina,1994,Russia,46.9,,,,,47,F,Ксения Зоркина,SBD,Open
Single-ply,DQ,Anzhela Nemkovskaya,1995,Russia,47,,,,,47,F,Анжела Немковская,SBD,Open
Single-ply,1,Ekaterina Ershova,1988,Russia,51.55,135,85,132.5,352.5,52,F,Екатерина Ершова,SBD,Open
Single-ply,2,Alena Zubova,1997,Russia,51.55,127.5,62.5,125,315,52,F,Алена Зубова,SBD,Open
Single-ply,3,Ekaterina Gamershmidt,1992,Russia,50.4,115,60,115,290,52,F,Екатерина Гамершмидт,SBD,Open
Single-ply,4,Alena Nikitina,1995,Russia,50.9,107.5,50,132.5,290,52,F,Алена Никитина,SBD,Open
Single-ply,5,Serafima Pigenko,1995,Russia,50.3,100,57.5,105,262.5,52,F,Серафима Пигенко,SBD,Open
Single-ply,1,Elena Scherbakova,1985,Russia,55.3,180,95,160,435,57,F,Елена Щербакова,SBD,Open
Single-ply,2,Yuliya Ermakova,1989,Russia,56.55,140,80,150,370,57,F,Юлия Ермакова,SBD,Open
Single-ply,3,Ekaterina Semenova,1990,Russia,55.25,150,65,145,360,57,F,Екатерина Семенова,SBD,Open
Single-ply,4,Natalya Shabusova,1995,Russia,56.55,140,85,135,360,57,F,Наталья Шабусова,SBD,Open
Single-ply,5,Natalya Kartavykh,1994,Russia,56.1,127.5,70,142.5,340,57,F,Наталья Картавых,SBD,Open
Single-ply,6,Anastasiya Vasilenko,1993,Russia,55.25,120,80,112.5,312.5,57,F,Анастасия Василенко,SBD,Open
Single-ply,1,Tatyana Vislotskaya,1980,Russia,62.8,182.5,105,180,467.5,63,F,Татьяна Вислоцкая,SBD,Open
Single-ply,2,Aleksandra Khrabraya,1991,Russia,61.3,155,80,170,405,63,F,Александра Храбрая,SBD,Open
Single-ply,3,Mariya Gubina,1992,Russia,61.95,160,72.5,152.5,385,63,F,Мария Губина,SBD,Open
Single-ply,4,Tatyana Zinakova,1999,Russia,59.1,135,80,130,345,63,F,Татьяна Зинакова,SBD,Open
Single-ply,DQ,Irina Lyzhina,1995,Russia,63,,,,,63,F,Ирина Лыжина,SBD,Open
Single-ply,1,Alina Egorova,1990,Russia,64.05,190,100,175,465,72,F,Алина Егорова,SBD,Open
Single-ply,2,Ekaterina Chernobuk,1981,Russia,70.2,150,92.5,160,402.5,72,F,Екатерина Чернобук,SBD,Open
Single-ply,3,Ruzanna Ambartsumyan,1988,Russia,70.7,157.5,102.5,140,400,72,F,Рузанна Амбарцумян,SBD,Open
Single-ply,4,Inna Stoma,1980,Russia,68.2,150,110,130,390,72,F,Инна Стома,SBD,Open
Single-ply,1,Mariya Layzan,1990,Russia,82.65,165,125,170,460,84,F,Мария Лайзан,SBD,Open
Single-ply,2,Valentina Shishova,1993,Russia,80.1,170,90,155,415,84,F,Валентина Шишова,SBD,Open
Single-ply,3,Viktoriya Spivak,1993,Russia,83.6,180,90,145,415,84,F,Виктория Спивак,SBD,Open
Single-ply,4,Zhanna Spinova,1995,Russia,79.4,95,40,120,255,84,F,Жанна Спинова,SBD,Open
Single-ply,5,Yana Spinova,1995,Russia,81.3,85,52.5,105,242.5,84,F,Яна Спинова,SBD,Open
Single-ply,DQ,Nina Badashkova,1991,Russia,84,,,,,84,F,Нина Бадашкова,SBD,Open
Single-ply,DQ,Kristina Fisenko,1994,Russia,83.9,,,,,84,F,Кристина Фисенко,SBD,Open
Single-ply,1,Mariya Zyryanova,1983,Russia,128.9,180,150,180,510,84+,F,Мария Зырянова,SBD,Open
Single-ply,2,Mariya Vasilyeva,1985,Russia,87.55,170,107.5,180,457.5,84+,F,Мария Васильева,SBD,Open
Single-ply,1,Daniil Nikiforov,1998,Russia,58.95,200,120,180,500,59,M,Даниил Никифоров,SBD,Open
Single-ply,2,Evgeniy Mazur,1996,Russia,59,170,100,170,440,59,M,Евгений Мазур,SBD,Open
Single-ply,3,Denis Motorin,1998,Russia,55.25,120,80,115,315,59,M,Денис Моторин,SBD,Open
Single-ply,DQ,Nazar Chekhovich,1998,Russia,58.75,175,,,,59,M,Назар Чехович,SBD,Open
Single-ply,DQ,Maksim Tarabukhin,1996,Russia,59,,,,,59,M,Максим Тарабухин,SBD,Open
Single-ply,1,Andrey Lukishin,1991,Russia,66,220,170,200,590,66,M,Андрей Лукишин,SBD,Open
Single-ply,2,Zhyrgalbek Kerimbaev,1995,Russia,64.5,207.5,130,220,557.5,66,M,Жыргалбек Керимбаев,SBD,Open
Single-ply,DQ,Evgeniy Korovin,1999,Russia,66,,,,,66,M,Евгений Коровин,SBD,Open
Single-ply,1,Vadim Polienko,1993,Russia,72.25,260,205,240,705,74,M,Вадим Полиенко,SBD,Open
Single-ply,2,Roman Saramanov,1986,Russia,73.25,275,150,255,680,74,M,Роман Сараманов,SBD,Open
Single-ply,3,Andrey Kuznetsov,1993,Russia,73.4,225,192.5,255,672.5,74,M,Андрей Кузнецов,SBD,Open
Single-ply,4,Vladimir Slabnin,1972,Russia,74,235,177.5,230,642.5,74,M,Владимир Слабнин,SBD,Open
Single-ply,5,Gaziz Rakhmatulin,1991,Russia,74,250,140,227.5,617.5,74,M,Газиз Рахматулин,SBD,Open
Single-ply,6,Shamo Abbasov,1991,Russia,74,205,192.5,170,567.5,74,M,Шамо Аббасов,SBD,Open
Single-ply,7,Evgeniy Chuvaev,1990,Russia,73.05,210,110,235,555,74,M,Евгений Чуваев,SBD,Open
Single-ply,8,Evgeniy Ivanenko,1994,Russia,73.9,190,155,200,545,74,M,Евгений Иваненко,SBD,Open
Single-ply,9,Pavel Galtsev,1995,Russia,73.15,205,135,202.5,542.5,74,M,Павел Гальцев,SBD,Open
Single-ply,10,Vyacheslav Dudko,1997,Russia,71.5,200,132.5,205,537.5,74,M,Вячеслав Дудко,SBD,Open
Single-ply,11,Andrey Sokovets,1999,Russia,68.2,190,110,190,490,74,M,Андрей Соковец,SBD,Open
Single-ply,12,Demyan Kirpichenko,1998,Russia,71.05,190,120,180,490,74,M,Демьян Кирпиченко,SBD,Open
Single-ply,13,Vitaliy Kucheruk #2,1997,Russia,73.9,185,120,180,485,74,M,Виталий Кучерук,SBD,Open
Single-ply,14,Sergey Chernousov,1995,Russia,67.5,150,120,170,440,74,M,Сергей Черноусов,SBD,Open
Single-ply,DQ,Vladimir Zaretskiy,1989,Russia,72.75,,130,,,74,M,Владимир Зарецкий,SBD,Open
Single-ply,1,Ruslan Adzhiosmanov,1976,Russia,82.45,260,195,250,705,83,M,Руслан Аджиосманов,SBD,Open
Single-ply,2,Dmitriy Chekhovich,1990,Russia,81.35,250,175,260,685,83,M,Дмитрий Чехович,SBD,Open
Single-ply,3,Ilya Chumakov,1997,Russia,80.45,250,152.5,240,642.5,83,M,Илья Чумаков,SBD,Open
Single-ply,4,Pavel Novichkov,1991,Russia,82.5,240,172.5,225,637.5,83,M,Павел Новичков,SBD,Open
Single-ply,5,Igor Dolgikh,1995,Russia,81.6,215,180,240,635,83,M,Игорь Долгих,SBD,Open
Single-ply,6,Sergey Cheblokov,1982,Russia,75.2,240,147.5,235,622.5,83,M,Сергей Чеблоков,SBD,Open
Single-ply,7,Dmitriy Chermenev,1991,Russia,80.35,225,165,230,620,83,M,Дмитрий Черменев,SBD,Open
Single-ply,8,Nikita Maslov,1997,Russia,76.55,260,132.5,220,612.5,83,M,Никита Маслов,SBD,Open
Single-ply,9,Dmitriy Plotnikov,1996,Russia,80,232.5,165,210,607.5,83,M,Дмитрий Плотников,SBD,Open
Single-ply,10,Aleksandr Kuznetsov #32,1991,Russia,80,230,155,215,600,83,M,Александр Кузнецов,SBD,Open
Single-ply,11,Aleksey Arne,1991,Russia,82.85,195,170,222.5,587.5,83,M,Алексей Арне,SBD,Open
Single-ply,12,Dmitriy Levchenko,1992,Russia,81.8,235,135,212.5,582.5,83,M,Дмитрий Левченко,SBD,Open
Single-ply,13,Vecheslav Kovrigin,1985,Russia,82.4,210,130,220,560,83,M,Вечеслав Ковригин,SBD,Open
Single-ply,14,Egor Sadyrin,1995,Russia,77.8,215,150,190,555,83,M,Егор Садырин,SBD,Open
Single-ply,15,Aleksandr Tkach,1996,Russia,81.6,200,145,195,540,83,M,Александр Ткач,SBD,Open
Single-ply,16,Kirill Mikhaltsov,1999,Russia,76.05,210,107.5,210,527.5,83,M,Кирилл Михальцов,SBD,Open
Single-ply,17,Konstantin Smirnov,1996,Russia,75.9,150,130,180,460,83,M,Константин Смирнов,SBD,Open
Single-ply,18,Anatoliy Loktionov,1994,Russia,77.05,160,100,160,420,83,M,Анатолий Локтионов,SBD,Open
Single-ply,DQ,Aleksandr Filatov,1989,Russia,80.05,,157.5,,,83,M,Александр Филатов,SBD,Open
Single-ply,DQ,Maksim Filatov,1994,Russia,79.6,,,,,83,M,Максим Филатов,SBD,Open
Single-ply,1,Pavel Ershov,1989,Russia,92.9,320,215,300,835,93,M,Павел Ершов,SBD,Open
Single-ply,2,Vyacheslav Fisenko,1992,Russia,93,325,222.5,275,822.5,93,M,Вячеслав Фисенко,SBD,Open
Single-ply,3,Dmitriy Ovsyanskiy,1994,Russia,92,320,197.5,282.5,800,93,M,Дмитрий Овсянский,SBD,Open
Single-ply,4,Aleksandr Schenikov,1994,Russia,91.45,285,230,252.5,767.5,93,M,Александр Щеников,SBD,Open
Single-ply,5,Nikita Grebenkov,1990,Russia,91.1,270,182.5,275,727.5,93,M,Никита Гребенков,SBD,Open
Single-ply,6,Evgeniy Fedotko,1986,Russia,88.75,270,170,270,710,93,M,Евгений Федотко,SBD,Open
Single-ply,7,Viktor Kolesnikov,1993,Russia,91.55,290,170,250,710,93,M,Виктор Колесников,SBD,Open
Single-ply,8,Anton Okunev,1995,Russia,88.7,290,145,270,705,93,M,Антон Окунев,SBD,Open
Single-ply,9,Pavel Myshkin,1984,Russia,87.55,250,200,250,700,93,M,Павел Мышкин,SBD,Open
Single-ply,10,Ramazi Aliev,1991,Russia,90.85,260,157.5,262.5,680,93,M,Рамази Алиев,SBD,Open
Single-ply,11,Ivan Mokhovikov,1983,Russia,91,260,157.5,260,677.5,93,M,Иван Моховиков,SBD,Open
Single-ply,12,Anton Osipov,1996,Russia,90.95,235,180,250,665,93,M,Антон Осипов,SBD,Open
Single-ply,13,Evgeniy Baskov,1978,Russia,92.15,220,210,220,650,93,M,Евгений Басков,SBD,Open
Single-ply,14,Maksim Kazak,1986,Russia,92.9,240,155,240,635,93,M,Максим Казак,SBD,Open
Single-ply,15,Armen Zakharyan,1989,Russia,90.55,220,190,220,630,93,M,Армен Захарян,SBD,Open
Single-ply,16,Evgeniy Bunchuk,1984,Russia,85.8,225,162.5,230,617.5,93,M,Евгений Бунчук,SBD,Open
Single-ply,17,Vladimir Dvurechenskiy,1977,Russia,84.6,205,140,200,545,93,M,Владимир Двуреченский,SBD,Open
Single-ply,DQ,Viktor Terskikh,1986,Russia,84.4,250,,,,93,M,Виктор Терских,SBD,Open
Single-ply,DQ,Vyacheslav Shvayko,1992,Russia,84.05,,,,,93,M,Вячеслав Швайко,SBD,Open
Single-ply,DQ,Andrey Kuznetsov,1983,Russia,87.2,,,,,93,M,Андрей Кузнецов,SBD,Open
Single-ply,1,Pavel Golovko,1976,Russia,104.05,320,207.5,355,882.5,105,M,Павел Головко,SBD,Open
Single-ply,2,Konstantin Ivanov,1981,Russia,105,300,220,295,815,105,M,Константин Иванов,SBD,Open
Single-ply,3,Roman Gonenko,1984,Russia,99.85,270,260,240,770,105,M,Роман Гоненко,SBD,Open
Single-ply,4,Stepan Bondarenko,1993,Russia,99.05,280,187.5,290,757.5,105,M,Степан Бондаренко,SBD,Open
Single-ply,5,Anton Kolganov,1996,Russia,98.3,300,180,275,755,105,M,Антон Колганов,SBD,Open
Single-ply,6,Roman Rubtsov,1983,Russia,102.65,295,205,250,750,105,M,Роман Рубцов,SBD,Open
Single-ply,7,Gennadiy Nikitin,1991,Russia,103.9,230,180,250,660,105,M,Геннадий Никитин,SBD,Open
Single-ply,8,Aleksey Ryzhkov,1987,Russia,95.55,250,172.5,230,652.5,105,M,Алексей Рыжков,SBD,Open
Single-ply,9,Grigoriy Chuprov,1985,Russia,103.35,230,180,235,645,105,M,Григорий Чупров,SBD,Open
Single-ply,10,Igor Zhidkov,1992,Russia,95.55,245,145,240,630,105,M,Игорь Жидков,SBD,Open
Single-ply,11,Aleksey Bondarenko,1999,Russia,101.4,210,135,230,575,105,M,Алексей Бондаренко,SBD,Open
Single-ply,DQ,Evgeniy Smorchkov,1985,Russia,99.2,270,,,,105,M,Евгений Сморчков,SBD,Open
Single-ply,DQ,Vladimir Savenkov,1995,Russia,103.15,,160,,,105,M,Владимир Савенков,SBD,Open
Single-ply,1,Aleksandr Stomer,1962,Russia,113.8,340,270,260,870,120,M,Александр Стомер,SBD,Open
Single-ply,2,Ivan Kononov,1987,Russia,109.05,330,235,300,865,120,M,Иван Кононов,SBD,Open
Single-ply,3,Vyacheslav Koryavskiy,1980,Russia,111.7,320,220,300,840,120,M,Вячеслав Корявский,SBD,Open
Single-ply,4,Stanislav Grigoryev,1985,Russia,109.75,310,245,280,835,120,M,Станислав Григорьев,SBD,Open
Single-ply,5,Andrey Kireev,1979,Russia,112.8,300,220,280,800,120,M,Андрей Киреев,SBD,Open
Single-ply,6,Dmitriy Schukin,1979,Russia,115.75,280,230,250,760,120,M,Дмитрий Щукин,SBD,Open
Single-ply,7,Maksim Shandrygin,1995,Russia,117.75,292.5,170,292.5,755,120,M,Максим Шандрыгин,SBD,Open
Single-ply,8,Artem Tretyakov,1985,Russia,108.95,275,200,260,735,120,M,Артем Третьяков,SBD,Open
Single-ply,9,Igor Shepelev,1978,Russia,112.1,270,195,270,735,120,M,Игорь Шепелев,SBD,Open
Single-ply,10,Andrey Sharafutdinov,1991,Russia,117.05,275,190,255,720,120,M,Андрей Шарафутдинов,SBD,Open
Single-ply,11,Sergey Boykov,1974,Russia,107.1,270,180,225,675,120,M,Сергей Бойков,SBD,Open
Single-ply,1,Aleksey Bilinets,1989,Russia,133.65,395,285,320,1000,120+,M,Алексей Билинец,SBD,Open
Single-ply,2,Aleksandr Shaykhadinov,1979,Russia,123.65,340,235,307.5,882.5,120+,M,Александр Шайхадинов,SBD,Open
Single-ply,3,Andrey Bekasov,1991,Russia,150,345,255,282.5,882.5,120+,M,Андрей Бекасов,SBD,Open
Single-ply,4,Arnold Velichko,1990,Russia,125.35,320,250,270,840,120+,M,Арнольд Величко,SBD,Open
Single-ply,5,Petr Platonov,1985,Russia,121.75,280,220,265,765,120+,M,Петр Платонов,SBD,Open
Single-ply,6,Yuriy Khodyrev,1990,Russia,148,285,222.5,250,757.5,120+,M,Юрий Ходырев,SBD,Open
Single-ply,DQ,Anton Fisochenko,1987,Russia,121,,,,,120+,M,Антон Фисоченко,SBD,Open
Raw,1,Anastasiya Shadrina,2000,Russia,41.55,50,35,65,150,47,F,Анастасия Шадрина,SBD,Open
Raw,1,Yuliya Sviderskaya,1985,Russia,51.2,80,40,85,205,52,F,Юлия Свидерская,SBD,Open
Raw,2,Marina Paschin,2000,Russia,50.95,67.5,47.5,80,195,52,F,Марина Пащин,SBD,Open
Raw,1,Anna Golubeva,1984,Russia,54.95,80,50,92.5,222.5,57,F,Анна Голубева,SBD,Open
Raw,2,Alena Shnarevich,1999,Russia,57,40,25,55,120,57,F,Алена Шнаревич,SBD,Open
Raw,1,Alina Egorova,1990,Russia,62.75,140,65,155,360,63,F,Алина Егорова,SBD,Open
Raw,1,Nazar Chekhovich,1998,Russia,58.6,120,80,140,340,59,M,Назар Чехович,SBD,Open
Raw,2,Denis Motorin,1998,Russia,53.45,100,70,100,270,59,M,Денис Моторин,SBD,Open
Raw,1,Roman Boytsov,1987,Russia,61.7,105,77.5,160,342.5,66,M,Роман Бойцов,SBD,Open
Raw,DQ,Evgeniy Mukhomedyanov,1981,Russia,62.15,195,135,,,66,M,Евгений Мухомедьянов,SBD,Open
Raw,1,Vyacheslav Mikhaylov,1993,Russia,73.55,175,102.5,235,512.5,74,M,Вячеслав Михайлов,SBD,Open
Raw,2,Vladimir Zaretskiy,1989,Russia,72.5,190,120,190,500,74,M,Владимир Зарецкий,SBD,Open
Raw,3,Artem Alekseev,1992,Russia,68.4,125,82.5,130,337.5,74,M,Артем Алексеев,SBD,Open
Raw,1,Vitaliy Nikolaev,1982,Russia,82,235,190,300,725,83,M,Виталий Николаев,SBD,Open
Raw,2,Anton Baksheev,1993,Russia,75.2,140,92.5,200,432.5,83,M,Антон Бакшеев,SBD,Open
Raw,3,Kirill Yaschenko,1996,Russia,75.75,125,92.5,135,352.5,83,M,Кирилл Ященко,SBD,Open
Raw,1,Andrey Bulaev,1983,Russia,88.35,220,152.5,250,622.5,93,M,Андрей Булаев,SBD,Open
Raw,2,Yuriy Dzyublo,1993,Russia,89.3,210,135,235,580,93,M,Юрий Дзюбло,SBD,Open
Raw,3,Ivan Kiryunin,1993,Russia,90.45,187.5,140,250,577.5,93,M,Иван Кирюнин,SBD,Open
Raw,4,Aleksey Sladkov,1986,Russia,92.55,160,135,195,490,93,M,Алексей Сладков,SBD,Open
Raw,DQ,Igor Zabelin,1978,Russia,91.4,210,160,,,93,M,Игорь Забелин,SBD,Open
Raw,1,Ilya Mirgorodskiy,1989,Russia,95.25,270,150,315,735,105,M,Илья Миргородский,SBD,Open
Raw,2,Roman Rubtsov,1983,Russia,102,210,167.5,240,617.5,105,M,Роман Рубцов,SBD,Open
Raw,3,Aleksandr Kurochkin,1983,Russia,93.8,230,152.5,232.5,615,105,M,Александр Курочкин,SBD,Open
Raw,DQ,Stepan Galko,1989,Russia,97.15,175,,,,105,M,Степан Галко,SBD,Open
Raw,1,Maksim Chepurin,1979,Russia,118,250,185,250,685,120,M,Максим Чепурин,SBD,Open
Raw,2,Viktor Rubanov,1967,Russia,108.05,140,185,150,475,120,M,Виктор Рубанов,SBD,Open
