Equipment,Tested,Place,Name,Division,BirthYear,Country,BodyweightKg,Bench1Kg,Bench2Kg,Bench3Kg,Best3BenchKg,WeightClassKg,Sex,CyrillicName,Event,TotalKg
Raw,Yes,1,Anastasiya Fedorinova,O,1986,Ukraine,47,40,45,47.5,47.5,48,F,Анастасія Федорінова,B,47.5
Raw,Yes,1,Viktoriya Lipkina,O,1977,Ukraine,50,50,55,60,60,52,F,Виктория Липкина,B,60
Raw,Yes,1,Natalya Glebova,O,1957,Ukraine,73,50,55,,55,75,F,Наталя Глєбова,B,55
Raw,Yes,1,Evgen Avramenko,T2,1993,Ukraine,52,100,-105,-105,100,52,M,Євген Авраменко,B,100
Raw,Yes,1,Sergiy Alekseyev,T2,1993,Ukraine,59.3,80,85,87.5,87.5,60,M,Сергій Алексєєв,B,87.5
Raw,Yes,2,Denis Nikonov #1,T3,1992,Ukraine,57.6,67.5,72.5,-75,72.5,60,M,Денис Ніконов,B,72.5
Raw,Yes,1,Sergiy Bakharev,J,1990,Ukraine,59.8,120,130,,130,60,M,Сергій Бахарєв,B,130
Raw,Yes,2,Kyrylo Kyrgyzov,J,1986,Ukraine,59.7,110,115,-120,115,60,M,Кирило Киргизов,B,115
Raw,Yes,1,Sergiy Bragin,T3,1991,Ukraine,65,145,150,160,160,67.5,M,Сергій Брагін,B,160
Raw,Yes,2,Oleksandr Kholodnyy,T3,1992,Ukraine,67,100,105,-110,105,67.5,M,Олександр Холодний,B,105
Raw,Yes,1,Mykhailo Velychko,O,1985,Ukraine,67,115,-125,125,125,67.5,M,Михайло Величко,B,125
Raw,Yes,2,Oleg Yashko,O,1986,Ukraine,67.3,110,115,120,120,67.5,M,Олег Яшко,B,120
Raw,Yes,1,Denis Avramenko,PFM,1981,Ukraine,67,110,115,117.5,117.5,67.5,M,Денис Авраменко,B,117.5
Raw,Yes,1,Vitaliy Dragun,T3,1992,Ukraine,72,110,115,120,120,75,M,Віталій Драгун,B,120
Raw,Yes,2,Oleg Voynik,T2,1993,Ukraine,70.7,80,87.5,-97.5,87.5,75,M,Олег Войник,B,87.5
Raw,Yes,1,Sergiy Dvigulin,J,1986,Ukraine,72.6,140,145,155,155,75,M,Сергій Двігулин,B,155
Raw,Yes,2,Mykola Naumenko,J,1987,Ukraine,74,100,-105,-105,100,75,M,Микола Науменко,B,100
Raw,Yes,1,Evgen Malafienko,O,1983,Ukraine,74.6,140,150,155,155,75,M,Євген Малафієнко,B,155
Raw,Yes,1,Sergiy Naumenko,T2,1993,Ukraine,79,110,115,120,120,82.5,M,Сергій Науменко,B,120
Raw,Yes,2,Vladyslav Tatulov,T3,1992,Ukraine,78.7,100,107.5,-112.5,107.5,82.5,M,Владислав Татулов,B,107.5
Raw,Yes,3,Teymuraz Kiriya,T2,1994,Ukraine,80,70,75,80,80,82.5,M,Теймураз Кірія,B,80
Raw,Yes,1,Oleksandr Kravchenko,T3,1991,Ukraine,81.1,110,115,120,120,82.5,M,Олександр Кравченко,B,120
Raw,Yes,1,Roman Zaretskiy,O,1983,Ukraine,80,122.5,132.5,135,135,82.5,M,Роман Зарецький,B,135
Raw,Yes,1,Vitaliy Pulin,M1,1970,Ukraine,82,130,140,,140,82.5,M,Віталій Пулін,B,140
Raw,Yes,1,Dmitro Kabakov,M2,1963,Ukraine,81.9,105,110,115,115,82.5,M,Дмитро Кабаков,B,115
Raw,Yes,1,Oleksandr Nekhoroshev,M4,1952,Ukraine,82,100,105,,105,82.5,M,Олександр Нехорошев,B,105
Raw,Yes,1,Oleg Zakharov,M1,1967,Ukraine,86.9,110,115,120,120,90,M,Олег Захаров,B,120
Raw,Yes,1,Viktor Matrosov,T2,1993,Ukraine,93,90,95,100,100,100,M,Віктор Матросов,B,100
Raw,Yes,1,Igor Kulik,O,1976,Ukraine,95.1,140,145,150,150,100,M,Ігор Кулик,B,150
Raw,Yes,2,Yevgen Lavryk,O,1973,Ukraine,99.5,-142.5,142.5,-145,142.5,100,M,Євген Лаврик,B,142.5
Raw,Yes,3,Vitaliy Kharabora,O,1975,Ukraine,93,120,130,140,140,100,M,Віталій Харабора,B,140
Raw,Yes,4,Viktor Lukashyn,O,1975,Ukraine,92,110,115,-120,115,100,M,Віктор Лукашин,B,115
Raw,Yes,1,Sergiy Dudnyk,M2,1962,Ukraine,93.8,127.5,132.5,137.5,137.5,100,M,Сергій Дудник,B,137.5
Raw,Yes,2,Oleksandr Koldashov,M2,1964,Ukraine,97,122.5,-137.5,137.5,137.5,100,M,Олександр Колдашов,B,137.5
Raw,Yes,3,Mykola Naumenko,M2,1961,Ukraine,94,95,100,102.5,102.5,100,M,Микола Науменко,B,102.5
Raw,Yes,1,Sergsiy Chernyy,M3,1956,Ukraine,94.9,110,-117.5,-117.5,110,100,M,Сергій Черний,B,110
Raw,Yes,1,Valeriy Pikhurets,PFM,1964,Ukraine,99,120,130,135,135,100,M,Валерій Піхурець,B,135
Raw,Yes,1,Dmytro Garkushka,O,1983,Ukraine,107,180,190,-195,190,110,M,Дмитро Гаркушка,B,190
Raw,Yes,2,Vitaliy Gostischev,O,1983,Ukraine,105,152.5,162.5,-170,162.5,110,M,Віталій Гостищев,B,162.5
Raw,Yes,3,Oleksandr Dmytrusenko,O,1982,Ukraine,109.8,-150,150,-160,150,110,M,Олександр Дмитрусенко,B,150
Raw,Yes,1,Andriy Glebov #1,M3,1956,Ukraine,109,125,-135,-135,125,110,M,Андрій Глєбов,B,125
Raw,Yes,1,Dmytro Zherebetskyy,PFM,1982,Ukraine,100.1,135,140,145,145,110,M,Дмитро Жеребецький,B,145
Raw,Yes,1,Pavlo Tselyuryk,O,1963,Ukraine,124,180,190,200,200,125,M,Павло Целюрик,B,200
Raw,Yes,2,Oleg Afanasyev #1,O,1977,Ukraine,117,165,172.5,-177.5,172.5,125,M,Олег Афанась'єв,B,172.5
Raw,No,1,Svitlana Babenkova,O,1989,Ukraine,44,40,42.5,45,45,44,F,Світлана Бабенкова,B,45
Raw,No,1,Anastasia Pavlova,O,1985,Ukraine,47,42.5,45,-50,45,48,F,Анастасия Павлова,B,45
Raw,No,1,Marina Stepikina,O,1980,Ukraine,50.9,42.5,45,50,50,52,F,Марина Степикина,B,50
Raw,No,1,Yana Khomich,O,1988,Ukraine,54.5,55,57.5,60,60,56,F,Яна Хомич,B,60
Raw,No,2,Lyudmila Polevik,O,1961,Ukraine,54.9,52.5,55,-57.5,55,56,F,Людмила Полевік,B,55
Raw,No,1,Olga Kamesh,O,1982,Ukraine,58.7,52.5,-57.5,-57.5,52.5,60,F,Ольга Камеш,B,52.5
Raw,No,1,Darya Babkina,O,1989,Ukraine,65,65,70,75,75,67.5,F,Дар'я Бабкіна,B,75
Raw,No,1,Mariya Lukyanenko,O,1997,Ukraine,71.7,50,60,65,65,75,F,Марія Лукь'яненко,B,65
Raw,No,2,Larisa Levchuk,O,1964,Ukraine,65.9,40,42.5,-45,42.5,67.5,F,Лариса Левчук,B,42.5
Raw,No,2,Tetyana Ovsienko,O,1975,Ukraine,74.5,50,-60,-60,50,75,F,Тетяна Овсієнко,B,50
Raw,No,1,Oleg Gorbunov,O,1990,Ukraine,51.3,100,115,-125,115,52,M,Олег Горбунов,B,115
Raw,No,1,Ibraim Muratov,T3,1991,Ukraine,75,120,127.5,132.5,132.5,75,M,Ібраім Муратов,B,132.5
Raw,No,2,Oleksey Dyadyushev,T2,1994,Ukraine,74.2,70,80,82.5,82.5,75,M,Олексій Дядюшев,B,82.5
Raw,No,1,Yuriy Yemets,O,1985,Ukraine,70.9,120,130,135,135,75,M,Юрій Ємець,B,135
Raw,No,1,Roman Sheremet,T3,1992,Ukraine,80.8,127.5,137.5,-140,137.5,82.5,M,Роман Шеремет,B,137.5
Raw,No,1,Evgen Menesenko,J,1989,Ukraine,78.8,155,165,170,170,82.5,M,Євген Менесенко,B,170
Raw,No,2,Roman Klymashko,J,1986,Ukraine,81,145,-155,-155,145,82.5,M,Роман Климашко,B,145
Raw,No,1,Volodymyr Galeta,O,1974,Ukraine,81,145,155,160,160,82.5,M,Володимир Галета,B,160
Raw,No,2,Roman Klymashko,O,1986,Ukraine,81,145,-155,-155,145,82.5,M,Роман Климашко,B,145
Raw,No,3,Sergiy Shumskyy,O,1985,Ukraine,81,115,120,-125,120,82.5,M,Сергій Шумський,B,120
Raw,No,1,Rustam Mamadaliev,M1,1968,Ukraine,80,70,75,80,80,82.5,M,Рустам Мамадалієв,B,80
Raw,No,1,Yuriy Shamray,M5,1945,Ukraine,82.3,100,107.5,-110,107.5,82.5,M,Юрій Шамрай,B,107.5
Raw,No,1,Artem Nagornyy,J,1987,Ukraine,85,150,160,170,170,90,M,Артем Нагорний,B,170
Raw,No,1,Valeriy Lipkin,O,1965,Ukraine,84,160,175,-180,175,90,M,Валерій Липкін,B,175
Raw,No,2,Oleksandr Bochkaryov,O,1977,Ukraine,86,165,170,175,175,90,M,Олександр Бочкарьов,B,175
Raw,No,3,Sergey Vereschak,O,1975,Ukraine,90,160,165,172.5,172.5,90,M,Сергій Верещак,B,172.5
Raw,No,4,Oleg Osipov,O,1986,Russia,87,160,170,-175,170,90,M,Олег Осипов,B,170
Raw,No,5,Sergiy Stupin,O,1982,Ukraine,88,-160,165,170,170,90,M,Сергій Ступін,B,170
Raw,No,6,Vitaliy Vasilyev #2,O,1986,Ukraine,87,160,-170,-170,160,90,M,Віталій Васильєв,B,160
Raw,No,DQ,Maxym Motin,O,1983,Ukraine,89.9,-155,-160,-160,,90,M,Максим Мотін,B,
Raw,No,1,Valeriy Lipkin,M1,1965,Ukraine,84,160,170,-180,170,90,M,Валерій Липкін,B,170
Raw,No,1,Yuriy Kulikov #1,M3,1959,Ukraine,85.2,107.5,-112.5,-112.5,107.5,90,M,Юрій Куліков,B,107.5
Raw,No,1,Vasyl Borisov,M6,1942,Ukraine,89.9,70,77.5,85,85,90,M,Василь Борисов,B,85
Raw,No,1,Sergey Didovyk,O,1978,Ukraine,96.9,200,,,200,100,M,Сергій Дідовик,B,200
Raw,No,2,Anton Platov,O,1979,Ukraine,95,180,195,-202.5,195,100,M,Антон Платов,B,195
Raw,No,3,Sergiy Rizhov,O,1980,Ukraine,98,-180,190,-197.5,190,100,M,Сергій Рижов,B,190
Raw,No,4,Yevgen Burduzha,O,1979,Ukraine,98.5,-125,132.5,-140,132.5,100,M,Євген Бурдужа,B,132.5
Raw,No,1,Bogdan Shyba,M2,1962,Ukraine,99,115,-120,-120,115,100,M,Богдан Шиба,B,115
Raw,No,1,Anton Petrov,J,1986,Ukraine,108,202.5,210,-220,210,110,M,Антон Петров,B,210
Raw,No,1,Yaroslav Dunay,O,1978,Ukraine,107.5,205,215,222.5,222.5,110,M,Ярослав Дунай,B,222.5
Raw,No,2,Artem Shipulin,O,1980,Russia,106,180,-185,-190,180,110,M,Артем Шипулин,B,180
Raw,No,3,Oleg Sokolov,O,1972,Ukraine,107,165,175,180,180,110,M,Олег Соколов,B,180
Raw,No,4,Volodimir Naumchuk,O,1977,Ukraine,104,165,-172.5,-172.5,165,110,M,Володимир Наумчук,B,165
Raw,No,1,Pavlo Mogylnykov,M2,1964,Ukraine,109,120,,,120,110,M,Павло Могильников,B,120
Raw,No,1,Dmytro Zhvavyy,O,1978,Ukraine,114.3,190,200,-205,200,125,M,Дмитро Жвавий,B,200
Raw,No,2,Dmytro Tatevosyan,O,1983,Ukraine,115,-200,200,-205,200,125,M,Дмитро Татевосян,B,200
Multi-ply,Yes,1,Sergiy Zakharchuk,O,1984,,87,160,170,180,180,90,M,Сергій Захарчук,B,180
Multi-ply,No,1,Viktor Piskunov #1,O,1981,Ukraine,64.5,160,170,180,180,67.5,M,Віктор Піскунов,B,180
Multi-ply,No,1,Yevgen Korotych,O,1977,Ukraine,75,140,-147.5,147.5,147.5,75,M,Євген Коротич,B,147.5
Multi-ply,No,1,Oleg Osipov,J,1986,Russia,86.3,180,190,-200,190,90,M,Олег Осипов,B,190
Multi-ply,No,1,Oleksandr Bochkaryov,O,1977,Ukraine,86,225,-235,-237.5,225,90,M,Олександр Бочкарьов,B,225
Multi-ply,No,2,Sergey Vereschak,O,1975,Ukraine,90,-210,215,-227.5,215,90,M,Сергій Верещак,B,215
Multi-ply,No,1,Dmytro Korotych,J,1988,Ukraine,97,200,210,-220,210,100,M,Дмитро Коротич,B,210
Multi-ply,No,1,Sergey Didovyk,O,1978,Ukraine,100,265,-275,,265,100,M,Сергій Дідовик,B,265
Multi-ply,No,2,Anatoliy Panas,O,1983,Ukraine,90.1,-140,-150,150,150,100,M,Анатолій Панас,B,150
Multi-ply,No,1,Yaroslav Dunay,O,1978,Ukraine,107.5,240,250,-255,250,110,M,Ярослав Дунай,B,250
Multi-ply,No,2,Artem Shipulin,O,1980,Russia,108,-220,220,-230,220,110,M,Артем Шипулин,B,220
Multi-ply,No,DQ,Anton Begalko,O,1986,Ukraine,110,-270,-280,-280,,110,M,Антон Бегалко,B,
Multi-ply,No,DQ,Mykhailo Pirkl,O,1978,Ukraine,106,-240,-250,-255,,110,M,Михайло Піркл,B,
Multi-ply,No,1,Sergiy Danilov,O,1983,Ukraine,120,-285,292.5,-300,292.5,125,M,Сергій Данілов,B,292.5
Multi-ply,No,1,Oleg Chernyavskiy #1,M1,1967,Russia,112,250,270,-280,270,125,M,Олег Чернявский,B,270
