Equipment,Place,Name,Division,BirthYear,Country,BodyweightKg,Squat1Kg,Squat2Kg,Squat3Kg,Best3SquatKg,Squat4Kg,WeightClassKg,Sex,CyrillicName,Bench1Kg,Bench2Kg,Bench3Kg,Best3BenchKg,Bench4Kg,Deadlift1Kg,Deadlift2Kg,Deadlift3Kg,Best3DeadliftKg,Deadlift4Kg,Event,TotalKg
Raw,1,Natalya Taran,J,1988,Ukraine,46.8,-60,-65,65,65,-70,47.5,F,Наталя Таран,,,,,,,,,,,S,65
Raw,1,Albina Boyko,O,1982,Ukraine,47.4,-80,80,85,85,,47.5,F,Альбіна Бойко,,,,,,,,,,,S,85
Raw,2,Natalya Taran,O,1988,Ukraine,46.8,-60,-65,65,65,-70,47.5,F,Наталя Таран,,,,,,,,,,,S,65
Raw,1,Olga Negodyuk,O,1968,Ukraine,50.5,90,92.5,-97.5,92.5,,50.5,F,Ольга Негодюк,,,,,,,,,,,S,92.5
Raw,1,Olga Negodyuk,M1,1968,Ukraine,50.5,90,92.5,-97.5,92.5,,50.5,F,Ольга Негодюк,,,,,,,,,,,S,92.5
Raw,1,Kateryna Myshko,O,1985,Ukraine,52.4,75,80,-85,80,,53,F,Катерина Мишко,,,,,,,,,,,S,80
Raw,1,Yuliya Olshuk,J,1989,Ukraine,55.5,77.5,-80,-80,77.5,,55.5,F,Юлия Ольшук,,,,,,,,,,,S,77.5
Raw,1,Yuliya Olshuk,O,1989,Ukraine,55.5,77.5,-80,-80,77.5,,55.5,F,Юлия Ольшук,,,,,,,,,,,S,77.5
Raw,1,Lyudmyla Rossol,O,1975,Ukraine,58.4,85,95,102.5,102.5,,58.5,F,Людмила Россол,,,,,,,,,,,S,102.5
Raw,1,Tetyana Luginina,O,1970,Ukraine,61.9,70,80,-82.5,80,,63,F,Тетяна Лугініна,,,,,,,,,,,S,80
Raw,1,Tetyana Luginina,M1,1970,Ukraine,61.9,70,80,-82.5,80,,63,F,Тетяна Лугініна,,,,,,,,,,,S,80
Raw,1,Vita Syumak,O,1986,Ukraine,68.8,105,-110,-110,105,,70,F,Віта Сюмак,,,,,,,,,,,S,105
Raw,2,Svitlana Sheremenko,O,1959,Ukraine,70,100,102.5,-107.5,102.5,,70,F,Світлана Шеременко,,,,,,,,,,,S,102.5
Raw,3,Oksana Muzyka,O,1969,Ukraine,67,92.5,97.5,-100,97.5,,70,F,Оксана Музика,,,,,,,,,,,S,97.5
Raw,1,Oksana Muzyka,M1,1969,Ukraine,67,92.5,97.5,-100,97.5,,70,F,Оксана Музика,,,,,,,,,,,S,97.5
Raw,1,Svitlana Sheremenko,M3,1959,Ukraine,70,100,102.5,-107.5,102.5,,70,F,Світлана Шеременко,,,,,,,,,,,S,102.5
Raw,1,Yuliya Malanchuk,T1,1995,Ukraine,75.3,95,100,-105,100,,80,F,Юлія Маланчук,,,,,,,,,,,S,100
Raw,1,Oksana Dubovytska,O,1984,Ukraine,75,120,127.5,135,135,,80,F,Оксана Дубовицька,,,,,,,,,,,S,135
Raw,1,Irina Tikhonova,O,1970,Ukraine,70.7,-95,-95,95,95,,80,F,Ірина Тихонова,,,,,,,,,,,S,95
Raw,2,Iryna Fandalyuk,O,1981,Ukraine,77.5,90,100,105,105,,80,F,Ірина Фандалюк,,,,,,,,,,,S,105
Raw,3,Yuliya Malanchuk,O,1995,Ukraine,75.3,95,100,-105,100,,80,F,Юлія Маланчук,,,,,,,,,,,S,100
Raw,1,Irina Tikhonova,M1,1970,Ukraine,70.7,-95,-95,95,95,,80,F,Ірина Тихонова,,,,,,,,,,,S,95
Raw,1,Iryna Pedoryaka,O,1962,Ukraine,94.6,95,102.5,105,105,,90+,F,Ірина Педоряка,,,,,,,,,,,S,105
Raw,1,Iryna Pedoryaka,M2,1962,Ukraine,94.6,95,102.5,105,105,,90+,F,Ірина Педоряка,,,,,,,,,,,S,105
Raw,1,Vladyslav Tretyak,T1,1996,Ukraine,52.9,90,95,100,100,,56,M,Владислав Третяк,,,,,,,,,,,S,100
Raw,1,Vladyslav Tretyak,O,1996,Ukraine,52.9,90,95,100,100,,56,M,Владислав Третяк,,,,,,,,,,,S,100
Raw,1,Sergiy Tkach,T1,1996,Ukraine,58.5,100,110,115,115,,60,M,Сергій Ткач,,,,,,,,,,,S,115
Raw,2,Yevgen Yasnovskyy,T1,1996,Ukraine,59.1,92.5,-97.5,97.5,97.5,,60,M,Євген Ясновський,,,,,,,,,,,S,97.5
Raw,1,Maksim Tynkovan,J,1990,Ukraine,60,-135,-135,135,135,,60,M,Максим Тінкован,,,,,,,,,,,S,135
Raw,2,Anton Zlobin,J,1987,Ukraine,60,115,125,130,130,,60,M,Антон Злобін,,,,,,,,,,,S,130
Raw,DQ,Oleksandr Bednarskyy,J,1990,Ukraine,58.3,-115,-115,-115,,,60,M,Олександр Беднарський,,,,,,,,,,,S,
Raw,1,Maksim Tynkovan,O,1990,Ukraine,60,-135,-135,135,135,,60,M,Максим Тінкован,,,,,,,,,,,S,135
Raw,2,Anton Zlobin,O,1987,Ukraine,60,115,125,130,130,,60,M,Антон Злобін,,,,,,,,,,,S,130
Raw,3,Sergiy Tkach,O,1996,Ukraine,58.5,100,110,115,115,,60,M,Сергій Ткач,,,,,,,,,,,S,115
Raw,4,Yevgen Yasnovskyy,O,1996,Ukraine,59.1,92.5,-97.5,97.5,97.5,,60,M,Євген Ясновський,,,,,,,,,,,S,97.5
Raw,DQ,Oleksandr Bednarskyy,O,1990,Ukraine,58.3,-115,-115,-115,,,60,M,Олександр Беднарський,,,,,,,,,,,S,
Raw,1,Vitaliy Muzyka,T1,1995,Ukraine,65.6,135,142.5,-147.5,142.5,,67.5,M,Віталій Музика,,,,,,,,,,,S,142.5
Raw,2,Borys Mydlyk,T1,1995,Ukraine,67.2,-90,100,-105,100,,67.5,M,Борис Мидлик,,,,,,,,,,,S,100
Raw,1,Viktor Denysenko,T2,1993,Ukraine,66.7,90,110,122.5,122.5,,67.5,M,Віктор Денісенко,,,,,,,,,,,S,122.5
Raw,2,Mikhaylo Ulanovskiy,T2,1994,Ukraine,65.9,-115,115,-120,115,,67.5,M,Михайло Улановський,,,,,,,,,,,S,115
Raw,1,Dmytro Fedorenko,T3,1992,Ukraine,65.1,-90,100.5,-107.5,100.5,,67.5,M,Дмитро Федоренко,,,,,,,,,,,S,100.5
Raw,2,Pavlo Kyrychenko,T3,1993,Ukraine,64.9,90,-92.5,92.5,92.5,,67.5,M,Павло Кириченко,,,,,,,,,,,S,92.5
Raw,1,Andriy Maslyak,J,1990,Ukraine,67.5,145,160,-170,160,,67.5,M,Андрій Масляк,,,,,,,,,,,S,160
Raw,2,Roman Nazarchuk,J,1990,Ukraine,67.5,135,145,-157.5,145,,67.5,M,Роман Назарчук,,,,,,,,,,,S,145
Raw,1,Andriy Maslyak,O,1990,Ukraine,67.5,145,160,-170,160,,67.5,M,Андрій Масляк,,,,,,,,,,,S,160
Raw,2,Vadym Grabar,O,1984,Ukraine,65.1,-150,155,-160,155,,67.5,M,Вадим Грабар,,,,,,,,,,,S,155
Raw,3,Roman Nazarchuk,O,1990,Ukraine,67.5,135,145,-157.5,145,,67.5,M,Роман Назарчук,,,,,,,,,,,S,145
Raw,4,Vitaliy Muzyka,O,1995,Ukraine,65.6,135,142.5,-147.5,142.5,,67.5,M,Віталій Музика,,,,,,,,,,,S,142.5
Raw,5,Viktor Denysenko,O,1993,Ukraine,66.7,90,110,122.5,122.5,,67.5,M,Віктор Денісенко,,,,,,,,,,,S,122.5
Raw,6,Mikhaylo Ulanovskiy,O,1994,Ukraine,65.9,-115,115,-120,115,,67.5,M,Михайло Улановський,,,,,,,,,,,S,115
Raw,7,Dmytro Fedorenko,O,1992,Ukraine,65.1,-90,100.5,-107.5,100.5,,67.5,M,Дмитро Федоренко,,,,,,,,,,,S,100.5
Raw,8,Borys Mydlyk,O,1995,Ukraine,67.2,-90,100,-105,100,,67.5,M,Борис Мидлик,,,,,,,,,,,S,100
Raw,9,Pavlo Kyrychenko,O,1993,Ukraine,64.9,90,-92.5,92.5,92.5,,67.5,M,Павло Кириченко,,,,,,,,,,,S,92.5
Raw,DQ,Yuriy Ilenko,O,1987,Ukraine,65.3,-145,-145,-145,,,67.5,M,Юрій Ільєнко,,,,,,,,,,,S,
Raw,1,Andriy Gurichev,T3,1991,Ukraine,74.9,180,190,-195,190,,75,M,Андрій Гурічев,,,,,,,,,,,S,190
Raw,1,Yevgen Khobta,J,1987,Ukraine,74,150,-155,-155,150,,75,M,Євген Хобта,,,,,,,,,,,S,150
Raw,1,Andriy Gurichev,O,1991,Ukraine,74.9,180,190,-195,190,,75,M,Андрій Гурічев,,,,,,,,,,,S,190
Raw,2,Bogdan Vorobey,O,1983,Ukraine,74,170,-175,-175,170,,75,M,Богдан Воробей,,,,,,,,,,,S,170
Raw,3,Valentin Savchenko,O,1954,Ukraine,74.5,-155,160,-162.5,160,,75,M,Валентин Савченко,,,,,,,,,,,S,160
Raw,4,Andriy Besedin,O,1984,Ukraine,74.5,155,-162.5,-162.5,155,,75,M,Андрій Беседін,,,,,,,,,,,S,155
Raw,5,Yevgen Khobta,O,1987,Ukraine,74,150,-155,-155,150,,75,M,Євген Хобта,,,,,,,,,,,S,150
Raw,6,Arkadiy Myshko Ariy,O,1945,Ukraine,74.4,130,140,-150,140,,75,M,Арій Мишко,,,,,,,,,,,S,140
Raw,1,Valentin Savchenko,M4,1954,Ukraine,74.5,-155,160,-162.5,160,,75,M,Валентин Савченко,,,,,,,,,,,S,160
Raw,1,Arkadiy Myshko Ariy,M6,1945,Ukraine,74.4,130,140,-150,140,,75,M,Арій Мишко,,,,,,,,,,,S,140
Raw,1,Georgiy Avzalov,T2,1993,Ukraine,81.7,155,165,172.5,172.5,,82.5,M,Георгій Авзалов,,,,,,,,,,,S,172.5
Raw,2,Oleksandr Melnyk,T2,1994,Ukraine,78.6,155,160,170,170,,82.5,M,Олександр Мельник,,,,,,,,,,,S,170
Raw,1,Sergiy Skorodumov,T3,1991,Ukraine,82,195,205,-207.5,205,,82.5,M,Сергій Скородумов,,,,,,,,,,,S,205
Raw,1,Leonid Andrievskyy,J,1989,Ukraine,79.8,180,-190,192.5,192.5,,82.5,M,Леонід Андрієвський,,,,,,,,,,,S,192.5
Raw,1,Sergiy Skorodumov,O,1991,Ukraine,82,195,205,-207.5,205,,82.5,M,Сергій Скородумов,,,,,,,,,,,S,205
Raw,2,Oleksandr Narkhov,O,1985,Ukraine,82.5,190,200,-205,200,,82.5,M,Олександр Нархов,,,,,,,,,,,S,200
Raw,3,Leonid Andrievskyy,O,1989,Ukraine,79.8,180,-190,192.5,192.5,,82.5,M,Леонід Андрієвський,,,,,,,,,,,S,192.5
Raw,4,Dmitro Bogachonok,O,1970,Ukraine,80.2,190,-210,-210,190,,82.5,M,Дмитро Богачонок,,,,,,,,,,,S,190
Raw,5,Georgiy Avzalov,O,1993,Ukraine,81.7,155,165,172.5,172.5,,82.5,M,Георгій Авзалов,,,,,,,,,,,S,172.5
Raw,6,Oleksandr Melnyk,O,1994,Ukraine,78.6,155,160,170,170,,82.5,M,Олександр Мельник,,,,,,,,,,,S,170
Raw,7,Oleg Shabanets,O,1949,Ukraine,81.7,125,130,135,135,,82.5,M,Олег Шабанець,,,,,,,,,,,S,135
Raw,8,Volodymyr Vasylenko,O,1943,Ukraine,78,110,120,,120,,82.5,M,Володимир Василенко,,,,,,,,,,,S,120
Raw,1,Dmitro Bogachonok,M1,1970,Ukraine,80.2,190,-210,-210,190,,82.5,M,Дмитро Богачонок,,,,,,,,,,,S,190
Raw,1,Oleg Shabanets,M5,1949,Ukraine,81.7,125,130,135,135,,82.5,M,Олег Шабанець,,,,,,,,,,,S,135
Raw,1,Volodymyr Vasylenko,M6,1943,Ukraine,78,110,120,,120,,82.5,M,Володимир Василенко,,,,,,,,,,,S,120
Raw,1,Maxym Yasenyuk,T2,1994,Ukraine,88.3,145,155,160,160,,90,M,Максим Ясенюк,,,,,,,,,,,S,160
Raw,2,Maksim Samchuk,T2,1994,Ukraine,88.2,140,152.5,-155,152.5,,90,M,Максим Самчук,,,,,,,,,,,S,152.5
Raw,1,Andriy Karas'kin,T3,1992,Ukraine,86.6,185,195,200,200,202.5,90,M,Андрій Караськін,,,,,,,,,,,S,200
Raw,2,Yegor Vasylyev,T3,1993,Ukraine,87.6,160,-170,180,180,,90,M,Єгор Васильєв,,,,,,,,,,,S,180
Raw,1,Andriy Mostovenko,J,1989,Ukraine,88.8,225,230,235,235,242.5,90,M,Андрій Мостовенко,,,,,,,,,,,S,235
Raw,2,Artem Popsuyenko,J,1990,Ukraine,84.4,190,192.5,-195,192.5,,90,M,Артем Попсуєнко,,,,,,,,,,,S,192.5
Raw,1,Rinat Zaripov,O,1970,Ukraine,90,225,232.5,240,240,243,90,M,Рінат Заріпов,,,,,,,,,,,S,240
Raw,2,Andriy Mostovenko,O,1989,Ukraine,88.8,225,230,235,235,242.5,90,M,Андрій Мостовенко,,,,,,,,,,,S,235
Raw,3,Andriy Karas'kin,O,1992,Ukraine,86.6,185,195,200,200,,90,M,Андрій Караськін,,,,,,,,,,,S,200
Raw,4,Artem Popsuyenko,O,1990,Ukraine,84.4,190,192.5,-195,192.5,,90,M,Артем Попсуєнко,,,,,,,,,,,S,192.5
Raw,5,Yegor Vasylyev,O,1993,Ukraine,87.6,160,-170,180,180,,90,M,Єгор Васильєв,,,,,,,,,,,S,180
Raw,6,Kostyantin Elchenko,O,1978,Ukraine,88.7,165,175,180,180,,90,M,Костянтин Єльченко,,,,,,,,,,,S,180
Raw,7,Valeriy Lytovchenko,O,1948,Ukraine,89.4,152.5,157.5,162.5,162.5,,90,M,Валерій Литовченко,,,,,,,,,,,S,162.5
Raw,9,Maxym Yasenyuk,O,1994,Ukraine,88.3,145,155,160,160,,90,M,Максим Ясенюк,,,,,,,,,,,S,160
Raw,10,Vitaliy Berko #1,O,1985,Ukraine,89.2,-160,-160,160,160,,90,M,Віталій Берко,,,,,,,,,,,S,160
Raw,11,Maksim Samchuk,O,1994,Ukraine,88.2,140,152.5,-155,152.5,,90,M,Максим Самчук,,,,,,,,,,,S,152.5
Raw,1,Rinat Zaripov,M1,1970,Ukraine,90,225,232.5,240,240,243,90,M,Рінат Заріпов,,,,,,,,,,,S,240
Raw,1,Valeriy Lytovchenko,M5,1948,Ukraine,89.4,152.5,157.5,162.5,162.5,,90,M,Валерій Литовченко,,,,,,,,,,,S,162.5
Raw,1,Bogdan Shyshkevych,T3,1992,Ukraine,96.3,160,170,-180,170,,100,M,Богдан Шишкевич,,,,,,,,,,,S,170
Raw,1,Artem Kuznetsov,J,1987,Ukraine,97.7,210,220,230,230,,100,M,Артем Кузнецов,,,,,,,,,,,S,230
Raw,2,Vitaliy Rishnyak,J,1989,Ukraine,94,-190,192.5,197.5,197.5,,100,M,Віталій Ришняк,,,,,,,,,,,S,197.5
Raw,1,Artem Kuznetsov,O,1987,Ukraine,97.7,210,220,230,230,,100,M,Артем Кузнецов,,,,,,,,,,,S,230
Raw,2,Sergiy Kolesnik,O,1963,Ukraine,100,185,195,205,205,,100,M,Сергій Колесник,,,,,,,,,,,S,205
Raw,3,Oleksandr Lyubchyk,O,1977,Ukraine,99.9,-190,190,202.5,202.5,,100,M,Олександр Любчик,,,,,,,,,,,S,202.5
Raw,4,Sergiy Besel,O,1984,Ukraine,100,-195,200,-207.5,200,,100,M,Сергій Бессель,,,,,,,,,,,S,200
Raw,5,Vitaliy Rishnyak,O,1989,Ukraine,94,-190,192.5,197.5,197.5,,100,M,Віталій Ришняк,,,,,,,,,,,S,197.5
Raw,6,Oleksandr Molodov,O,1972,Ukraine,94.3,177.5,192.5,-195,192.5,,100,M,Олександр Молодов,,,,,,,,,,,S,192.5
Raw,7,Valeriy Babko,O,1941,Ukraine,93.5,170,-180,180,180,,100,M,Валерій Бабко,,,,,,,,,,,S,180
Raw,8,Bogdan Shyshkevych,O,1992,Ukraine,96.3,160,170,-180,170,,100,M,Богдан Шишкевич,,,,,,,,,,,S,170
Raw,DQ,Borys Malov,O,1962,Ukraine,91.1,-190,-190,,,,100,M,Борис Малов,,,,,,,,,,,S,
Raw,1,Sergiy Kolesnik,M2,1963,Ukraine,100,185,195,205,205,,100,M,Сергій Колесник,,,,,,,,,,,S,205
Raw,DQ,Borys Malov,M2,1962,Ukraine,91.1,-190,-190,,,,100,M,Борис Малов,,,,,,,,,,,S,
Raw,1,Valeriy Babko,M7,1941,Ukraine,93.5,170,-180,180,180,,100,M,Валерій Бабко,,,,,,,,,,,S,180
Raw,1,Vasyl' Sheremet,O,1962,Ukraine,110,-220,220,-225,220,,110,M,Василь Шеремет,,,,,,,,,,,S,220
Raw,1,Vasyl' Sheremet,M2,1962,Ukraine,110,-220,220,-225,220,,110,M,Василь Шеремет,,,,,,,,,,,S,220
Raw,DQ,Dmytro Melnyk,J,1991,Ukraine,114.1,-120,-120,,,,125,M,Дмитро Мельник,,,,,,,,,,,S,
Raw,1,Sergiy Galita,O,1979,Ukraine,112.6,205,215,222.5,222.5,,125,M,Сергій Галіта,,,,,,,,,,,S,222.5
Raw,2,Vasyl' Golivets',O,1960,Ukraine,124.7,200,210,222.5,222.5,,125,M,Василь Голівець,,,,,,,,,,,S,222.5
Raw,3,Vadym Yakushin,O,1982,Ukraine,116.5,150,160,170,170,,125,M,Вадим Якушин,,,,,,,,,,,S,170
Raw,DQ,Dmytro Melnyk,O,1991,Ukraine,114.1,-120,-120,,,,125,M,Дмитро Мельник,,,,,,,,,,,S,
Raw,1,Vasyl' Golivets',M3,1960,Ukraine,124.7,200,210,222.5,222.5,,125,M,Василь Голівець,,,,,,,,,,,S,222.5
Raw,1,Albina Boyko,O,1982,Ukraine,47.4,,,,,,47.5,F,Альбіна Бойко,45,-47.5,-47.5,45,,,,,,,B,45
Raw,1,Olga Negodyuk,O,1968,Ukraine,50.5,,,,,,50.5,F,Ольга Негодюк,50,52.5,-55,52.5,,,,,,,B,52.5
Raw,1,Olga Negodyuk,M1,1968,Ukraine,50.5,,,,,,50.5,F,Ольга Негодюк,50,52.5,-55,52.5,,,,,,,B,52.5
Raw,1,Anna Trotsyuk,O,1985,Ukraine,52.2,,,,,,53,F,Анна Троцюк,-50,-50,50,50,,,,,,,B,50
Raw,1,Tetyana Prostakova,O,1978,Ukraine,55.4,,,,,,55.5,F,Тетяна Простакова,35,37.5,-42.5,37.5,,,,,,,B,37.5
Raw,1,Lyudmyla Rossol,O,1975,Ukraine,58.4,,,,,,58.5,F,Людмила Россол,60,67.5,72.5,72.5,,,,,,,B,72.5
Raw,2,Maryna Soltanova,O,1985,Ukraine,57.2,,,,,,58.5,F,Марина Солтанова,50,55,-57.5,55,,,,,,,B,55
Raw,1,Vita Syumak,O,1986,Ukraine,68.8,,,,,,70,F,Віта Сюмак,62.5,65,-67.5,65,,,,,,,B,65
Raw,2,Oksana Muzyka,O,1969,Ukraine,67,,,,,,70,F,Оксана Музика,62.5,-65,-65,62.5,,,,,,,B,62.5
Raw,3,Svitlana Sheremenko,O,1959,Ukraine,70,,,,,,70,F,Світлана Шеременко,60,62.5,-67.5,62.5,,,,,,,B,62.5
Raw,4,Olga Khoroshko,O,1984,Ukraine,64,,,,,,70,F,Ольга Хорошко,-55,55,-60,55,,,,,,,B,55
Raw,1,Oksana Muzyka,M1,1969,Ukraine,67,,,,,,70,F,Оксана Музика,62.5,-65,-65,62.5,,,,,,,B,62.5
Raw,2,Svitlana Sheremenko,M3,1959,Ukraine,70,,,,,,70,F,Світлана Шеременко,60,62.5,-67.5,62.5,,,,,,,B,62.5
Raw,1,Yuliya Malanchuk,T1,1995,Ukraine,75.3,,,,,,80,F,Юлія Маланчук,52.5,55,-57.5,55,,,,,,,B,55
Raw,1,Oksana Dubovytska,O,1984,Ukraine,75,,,,,,80,F,Оксана Дубовицька,80,85,-90,85,,,,,,,B,85
Raw,2,Valentyna Dvorak,O,1975,Ukraine,71.8,,,,,,80,F,Валентина Дворак,-60,-65,70,70,,,,,,,B,70
Raw,3,Irina Tikhonova,O,1970,Ukraine,70.7,,,,,,80,F,Ірина Тихонова,55,-57.5,57.5,57.5,,,,,,,B,57.5
Raw,4,Yuliya Malanchuk,O,1995,Ukraine,75.3,,,,,,80,F,Юлія Маланчук,52.5,55,-57.5,55,,,,,,,B,55
Raw,1,Irina Tikhonova,M1,1970,Ukraine,70.7,,,,,,80,F,Ірина Тихонова,55,-57.5,57.5,57.5,,,,,,,B,57.5
Raw,1,Iryna Pedoryaka,O,1962,Ukraine,94.6,,,,,,90+,F,Ірина Педоряка,52.5,-57.5,-57.5,52.5,,,,,,,B,52.5
Raw,1,Iryna Pedoryaka,M2,1962,Ukraine,94.6,,,,,,90+,F,Ірина Педоряка,52.5,-57.5,-57.5,52.5,,,,,,,B,52.5
Raw,1,Vladislav Bondarenko,Y,1999,Ukraine,29.8,,,,,,52,M,Владислав Бондаренко,25,-30,30,30,,,,,,,B,30
Raw,1,Vladyslav Tretyak,T1,1996,Ukraine,52.9,,,,,,56,M,Владислав Третяк,57.5,-62.5,-62.5,57.5,,,,,,,B,57.5
Raw,1,Yevgen Yasnovskyy,T1,1996,Ukraine,59.1,,,,,,60,M,Євген Ясновський,62.5,67.5,-70,67.5,,,,,,,B,67.5
Raw,2,Sergiy Tkach,T1,1996,Ukraine,58.5,,,,,,60,M,Сергій Ткач,60,65,-70,65,,,,,,,B,65
Raw,1,Ashot Eganyan,J,1990,Ukraine,59.9,,,,,,60,M,Ашот Єганян,125,135.5,-140,135.5,,,,,,,B,135.5
Raw,2,Oleksandr Bednarskyy,J,1990,Ukraine,58.3,,,,,,60,M,Олександр Беднарський,105,107.5,,107.5,,,,,,,B,107.5
Raw,3,Maksim Tynkovan,J,1990,Ukraine,60,,,,,,60,M,Максим Тінкован,87.5,-90,-90,87.5,,,,,,,B,87.5
Raw,1,Ashot Eganyan,O,1990,Ukraine,59.9,,,,,,60,M,Ашот Єганян,125,135.5,-140,135.5,,,,,,,B,135.5
Raw,2,Oleksandr Bednarskyy,O,1990,Ukraine,58.3,,,,,,60,M,Олександр Беднарський,105,107.5,,107.5,,,,,,,B,107.5
Raw,3,Maksim Tynkovan,O,1990,Ukraine,60,,,,,,60,M,Максим Тінкован,87.5,-90,-90,87.5,,,,,,,B,87.5
Raw,4,Yevgen Yasnovskyy,O,1996,Ukraine,59.1,,,,,,60,M,Євген Ясновський,62.5,67.5,-70,67.5,,,,,,,B,67.5
Raw,5,Sergiy Tkach,O,1996,Ukraine,58.5,,,,,,60,M,Сергій Ткач,60,65,-70,65,,,,,,,B,65
Raw,1,Vitaliy Muzyka,T1,1995,Ukraine,65.6,,,,,,67.5,M,Віталій Музика,87.5,90,95,95,,,,,,,B,95
Raw,2,Borys Mydlyk,T1,1995,Ukraine,67.2,,,,,,67.5,M,Борис Мидлик,80,85,-90,85,,,,,,,B,85
Raw,2,Viktor Denysenko,T2,1993,Ukraine,66.7,,,,,,67.5,M,Віктор Денісенко,90,95,97.5,97.5,,,,,,,B,97.5
Raw,1,Andriy Serebrenikov,T3,1991,Ukraine,65.5,,,,,,67.5,M,Андрій Серебреніков,90,100,105,105,,,,,,,B,105
Raw,2,Dmytro Fedorenko,T3,1992,Ukraine,65.1,,,,,,67.5,M,Дмитро Федоренко,80,87.5,-92.5,87.5,,,,,,,B,87.5
Raw,4,Pavlo Kyrychenko,T3,1993,Ukraine,64.9,,,,,,67.5,M,Павло Кириченко,80,85,-90,85,,,,,,,B,85
Raw,1,Sergiy Kushneryov,J,1989,Ukraine,66.8,,,,,,67.5,M,Сергій Кушнерьов,120,125,130,130,,,,,,,B,130
Raw,2,Vadym Gubenko,J,1990,Ukraine,66.9,,,,,,67.5,M,Вадим Губенко,-115,-120,120,120,,,,,,,B,120
Raw,3,Andriy Ugrak,J,1989,Ukraine,66.4,,,,,,67.5,M,Андрій Уграк,115,-125,-125,115,,,,,,,B,115
Raw,4,Roman Nazarchuk,J,1990,Ukraine,67.5,,,,,,67.5,M,Роман Назарчук,85,92.5,100,100,,,,,,,B,100
Raw,5,Evgen Rilov,J,1989,Ukraine,65.4,,,,,,67.5,M,Євген Рилов,90,-95,95,95,,,,,,,B,95
Raw,6,Andriy Voskoboynikov,J,1990,Ukraine,67.5,,,,,,67.5,M,Андрій Воскобойніков,90,-95,95,95,,,,,,,B,95
Raw,DQ,Igor Irshak,J,1987,Ukraine,62.1,,,,,,67.5,M,Ігор Іршак,-120,-120,-120,,,,,,,,B,
Raw,1,Petro Tyshchenko,O,1984,Ukraine,66.6,,,,,,67.5,M,Петро Тищенко,142.5,150,152.5,152.5,,,,,,,B,152.5
Raw,2,Leonid Yuyukin,O,1981,Ukraine,65.9,,,,,,67.5,M,Леонід Ююкін,120,125,130,130,,,,,,,B,130
Raw,3,Pavlo Zazhitskiy,O,1992,Ukraine,61.8,,,,,,67.5,M,Павло Зажицький,75,85,-90,85,,,,,,,B,85
Raw,3,Sergiy Kushneryov,O,1989,Ukraine,66.8,,,,,,67.5,M,Сергій Кушнерьов,120,125,130,130,,,,,,,B,130
Raw,4,Sergiy Yagodin,O,1983,Ukraine,67.5,,,,,,67.5,M,Сергій Ягодін,115,-125,125,125,,,,,,,B,125
Raw,5,Yuriy Ilenko,O,1987,Ukraine,65.3,,,,,,67.5,M,Юрій Ільєнко,110,115,120,120,,,,,,,B,120
Raw,6,Dmytro Domanin,O,1982,Ukraine,65.7,,,,,,67.5,M,Дмитро Доманін,120,-130,-130,120,,,,,,,B,120
Raw,7,Vadym Gubenko,O,1990,Ukraine,66.9,,,,,,67.5,M,Вадим Губенко,-115,-120,120,120,,,,,,,B,120
Raw,8,Pavlo Gnatenko,O,1986,Ukraine,65.8,,,,,,67.5,M,Павло Гнатенко,100,110,115,115,,,,,,,B,115
Raw,9,Andriy Ugrak,O,1989,Ukraine,66.4,,,,,,67.5,M,Андрій Уграк,115,-125,-125,115,,,,,,,B,115
Raw,10,Andriy Serebrenikov,O,1991,Ukraine,65.5,,,,,,67.5,M,Андрій Серебреніков,90,100,105,105,,,,,,,B,105
Raw,11,Roman Nazarchuk,O,1990,Ukraine,67.5,,,,,,67.5,M,Роман Назарчук,85,92.5,100,100,,,,,,,B,100
Raw,12,Viktor Denysenko,O,1993,Ukraine,66.7,,,,,,67.5,M,Віктор Денісенко,90,95,97.5,97.5,,,,,,,B,97.5
Raw,13,Evgen Rilov,O,1989,Ukraine,65.4,,,,,,67.5,M,Євген Рилов,90,-95,95,95,,,,,,,B,95
Raw,14,Vitaliy Muzyka,O,1995,Ukraine,65.6,,,,,,67.5,M,Віталій Музика,87.5,90,95,95,,,,,,,B,95
Raw,15,Andriy Voskoboynikov,O,1990,Ukraine,67.5,,,,,,67.5,M,Андрій Воскобойніков,90,-95,95,95,,,,,,,B,95
Raw,16,Dmytro Fedorenko,O,1992,Ukraine,65.1,,,,,,67.5,M,Дмитро Федоренко,80,87.5,-92.5,87.5,,,,,,,B,87.5
Raw,17,Pavlo Zazhitskiy,O,1992,Ukraine,61.8,,,,,,67.5,M,Павло Зажицький,75,85,-90,85,,,,,,,B,85
Raw,19,Borys Mydlyk,O,1995,Ukraine,67.2,,,,,,67.5,M,Борис Мидлик,80,85,-90,85,,,,,,,B,85
Raw,1,Dmytro Galuschak,T1,1996,Ukraine,69.7,,,,,,75,M,Дмитро Галущак,95,102.5,-105,102.5,,,,,,,B,102.5
Raw,1,Sergiy Derevyaga,T3,1992,Ukraine,73.1,,,,,,75,M,Сергій Дерев'яга,130,135,-140,135,,,,,,,B,135
Raw,2,Mikael Oganesyan,T3,1991,Ukraine,70.9,,,,,,75,M,Мікаель Оганесян,-105,105,-115,105,,,,,,,B,105
Raw,3,Sergiy Khodatskyy,T3,1991,Ukraine,70.8,,,,,,75,M,Сергій Ходацький,90,95,97.5,97.5,,,,,,,B,97.5
Raw,1,Sergiy Pashkin,J,1990,Ukraine,73.6,,,,,,75,M,Сергій Пашкін,130,135,140,140,,,,,,,B,140
Raw,2,Vladyslav Stankovych,J,1989,Ukraine,74.2,,,,,,75,M,Владислав Станкович,-125,125,135,135,,,,,,,B,135
Raw,3,Yaroslav Slyn'ko,J,1989,Ukraine,73.1,,,,,,75,M,Ярослав Слинько,125,130,-135,130,,,,,,,B,130
Raw,4,Yevgen Khobta,J,1987,Ukraine,74,,,,,,75,M,Євген Хобта,125,-135,-135,125,,,,,,,B,125
Raw,5,Anton Koziy,J,1990,Ukraine,67.9,,,,,,75,M,Антон Козій,100,-105,105,105,,,,,,,B,105
Raw,1,Sergiy Zhmudenko,O,1971,Ukraine,73.5,,,,,,75,M,Сергій Жмуденко,140,145,-150,145,,,,,,,B,145
Raw,2,Sergiy Pashkin,O,1990,Ukraine,73.6,,,,,,75,M,Сергій Пашкін,130,135,140,140,,,,,,,B,140
Raw,3,Sergiy Derevyaga,O,1992,Ukraine,73.1,,,,,,75,M,Сергій Дерев'яга,130,135,-140,135,,,,,,,B,135
Raw,4,Vladyslav Stankovych,O,1989,Ukraine,74.2,,,,,,75,M,Владислав Станкович,-125,125,135,135,,,,,,,B,135
Raw,5,Yaroslav Slyn'ko,O,1989,Ukraine,73.1,,,,,,75,M,Ярослав Слинько,125,130,-135,130,,,,,,,B,130
Raw,6,Yevgen Kolchanskyy,O,1978,Ukraine,73.9,,,,,,75,M,Євген Колчанський,125,-135,-135,125,,,,,,,B,125
Raw,7,Yevgen Khobta,O,1987,Ukraine,74,,,,,,75,M,Євген Хобта,125,-135,-135,125,,,,,,,B,125
Raw,8,Bogdan Vorobey,O,1983,Ukraine,74,,,,,,75,M,Богдан Воробей,115,-120,120,120,,,,,,,B,120
Raw,9,Andriy Besedin,O,1984,Ukraine,74.5,,,,,,75,M,Андрій Беседін,112.5,120,-122.5,120,,,,,,,B,120
Raw,10,Oleksandr Foygel,O,1958,Ukraine,72.1,,,,,,75,M,Олександр Фойгель,105,107.5,-110,107.5,,,,,,,B,107.5
Raw,11,Viktor Yatsishin #1,O,1957,Ukraine,73.8,,,,,,75,M,Віктор Яцишин,100,-105,107.5,107.5,,,,,,,B,107.5
Raw,12,Anton Koziy,O,1990,Ukraine,67.9,,,,,,75,M,Антон Козій,100,-105,105,105,,,,,,,B,105
Raw,13,Mikael Oganesyan,O,1991,Ukraine,70.9,,,,,,75,M,Мікаель Оганесян,-105,105,-115,105,,,,,,,B,105
Raw,14,Dmytro Galuschak,O,1996,Ukraine,69.7,,,,,,75,M,Дмитро Галущак,95,102.5,-105,102.5,,,,,,,B,102.5
Raw,15,Sergiy Khodatskyy,O,1991,Ukraine,70.8,,,,,,75,M,Сергій Ходацький,90,95,97.5,97.5,,,,,,,B,97.5
Raw,16,Valentin Savchenko,O,1954,Ukraine,74.5,,,,,,75,M,Валентин Савченко,90,95,97.5,97.5,,,,,,,B,97.5
Raw,17,Volodimir Makovskiy,O,1950,Ukraine,74.4,,,,,,75,M,Володимир Маковський,82.5,87.5,90,90,,,,,,,B,90
Raw,18,Sergiy Negoda,O,1960,Ukraine,74.6,,,,,,75,M,Сергій Негода,90,-100,-105,90,,,,,,,B,90
Raw,1,Oleksandr Foygel,M3,1958,Ukraine,72.1,,,,,,75,M,Олександр Фойгель,105,107.5,-110,107.5,,,,,,,B,107.5
Raw,2,Viktor Yatsishin #1,M3,1957,Ukraine,73.8,,,,,,75,M,Віктор Яцишин,100,-105,107.5,107.5,,,,,,,B,107.5
Raw,3,Sergiy Negoda,M3,1960,Ukraine,74.6,,,,,,75,M,Сергій Негода,90,-100,-105,90,,,,,,,B,90
Raw,1,Valentin Savchenko,M4,1954,Ukraine,74.5,,,,,,75,M,Валентин Савченко,90,95,97.5,97.5,,,,,,,B,97.5
Raw,1,Volodimir Makovskiy,M5,1950,Ukraine,74.4,,,,,,75,M,Володимир Маковський,82.5,87.5,90,90,,,,,,,B,90
Raw,1,Georgiy Avzalov,T2,1993,Ukraine,81.7,,,,,,82.5,M,Георгій Авзалов,110,120,125,125,,,,,,,B,125
Raw,2,Oleksandr Melnyk,T2,1994,Ukraine,78.6,,,,,,82.5,M,Олександр Мельник,90,95,-97.5,95,,,,,,,B,95
Raw,1,Sergiy Skorodumov,T3,1991,Ukraine,82.3,,,,,,82.5,M,Сергій Скородумов,140,147.5,150,150,,,,,,,B,150
Raw,2,Roman Zhironkin,T3,1991,Ukraine,81,,,,,,82.5,M,Роман Жиронкін,140,145,-150,145,,,,,,,B,145
Raw,1,Denys Vorona,J,1988,Ukraine,81.5,,,,,,82.5,M,Денис Ворона,150,160,-170,160,,,,,,,B,160
Raw,2,Egor Pirogov #1,J,1987,Ukraine,82,,,,,,82.5,M,Єгор Пирогов,160,-165,-165,160,,,,,,,B,160
Raw,3,Mykhaylo Zubko,J,1987,Ukraine,79.6,,,,,,82.5,M,Михайло Зубко,140,145,152.5,152.5,,,,,,,B,152.5
Raw,4,Oleksandr Kovnatskyy,J,1987,Ukraine,78.8,,,,,,82.5,M,Олександр Ковнацький,125,135,145,145,,,,,,,B,145
Raw,5,Sergiy Boyko,J,1987,Ukraine,80.8,,,,,,82.5,M,Сергій Бойко,135,145,-152.5,145,,,,,,,B,145
Raw,6,Mukhailo Kuzmenko,J,1989,Ukraine,80.1,,,,,,82.5,M,Михайло Кузьменко,140,-145,-145,140,,,,,,,B,140
Raw,7,Arthur Slepushkin,J,1990,Ukraine,79.4,,,,,,82.5,M,Артур Слєпушкін,132.5,-145,-145,132.5,,,,,,,B,132.5
Raw,DQ,Oleksandr Sydorin,J,1990,Ukraine,77.9,,,,,,82.5,M,Олександр Сидорін,-125,-125,-125,,,,,,,,B,
Raw,1,Denys Vorona,O,1988,Ukraine,81.5,,,,,,82.5,M,Денис Ворона,150,160,-170,160,,,,,,,B,160
Raw,2,Egor Pirogov #1,O,1987,Ukraine,82,,,,,,82.5,M,Єгор Пирогов,160,-165,-165,160,,,,,,,B,160
Raw,3,Yuriy Kondratyev,O,1981,Ukraine,81.5,,,,,,82.5,M,Юрій Кондрат'єв,155,157.5,-160,157.5,,,,,,,B,157.5
Raw,4,Mykhaylo Zubko,O,1987,Ukraine,79.6,,,,,,82.5,M,Михайло Зубко,140,145,152.5,152.5,,,,,,,B,152.5
Raw,5,Volodymyr Shumakov,O,1959,Ukraine,81.3,,,,,,82.5,M,Володимир Шумаков,145,150,-160,150,,,,,,,B,150
Raw,6,Yuriy Osadchenko,O,1961,Ukraine,81.9,,,,,,82.5,M,Юрій Осадченко,-150,150,-155,150,,,,,,,B,150
Raw,7,Sergiy Skorodumov,O,1991,Ukraine,82.3,,,,,,82.5,M,Сергій Скородумов,140,147.5,150,150,,,,,,,B,150
Raw,8,Oleksandr Kovnatskyy,O,1987,Ukraine,78.8,,,,,,82.5,M,Олександр Ковнацький,125,135,145,145,,,,,,,B,145
Raw,9,Sergiy Boyko,O,1987,Ukraine,80.8,,,,,,82.5,M,Сергій Бойко,135,145,-152.5,145,,,,,,,B,145
Raw,10,Roman Zhironkin,O,1991,Ukraine,81,,,,,,82.5,M,Роман Жиронкін,140,145,-150,145,,,,,,,B,145
Raw,11,Aleksandr Plincha,O,1986,Ukraine,77.4,,,,,,82.5,M,Александр Плінча,135,140,-142.5,140,,,,,,,B,140
Raw,12,Mukhailo Kuzmenko,O,1989,Ukraine,80.1,,,,,,82.5,M,Михайло Кузьменко,140,-145,-145,140,,,,,,,B,140
Raw,13,Mikhaylo Kondratyev,O,1953,Ukraine,81.7,,,,,,82.5,M,Михайло Кондратєв,132.5,137.5,141.5,141.5,,,,,,,B,141.5
Raw,14,Oleksandr Narkhov,O,1985,Ukraine,82.5,,,,,,82.5,M,Олександр Нархов,125,135,137.5,137.5,,,,,,,B,137.5
Raw,15,Pavlo Kravchenko,O,1982,Ukraine,82.3,,,,,,82.5,M,Павло Кравченко,130,135,-140,135,,,,,,,B,135
Raw,16,Arthur Slepushkin,O,1990,Ukraine,79.4,,,,,,82.5,M,Артур Слєпушкін,132.5,-145,-145,132.5,,,,,,,B,132.5
Raw,17,Georgiy Avzalov,O,1993,Ukraine,81.7,,,,,,82.5,M,Георгій Авзалов,110,120,125,125,,,,,,,B,125
Raw,18,Oleg Shabanets,O,1949,Ukraine,81.7,,,,,,82.5,M,Олег Шабанець,105,112.5,-120,112.5,,,,,,,B,112.5
Raw,19,Dmitro Bogachonok,O,1970,Ukraine,80.2,,,,,,82.5,M,Дмитро Богачонок,105,110,-115,110,,,,,,,B,110
Raw,20,Oleksandr Melnyk,O,1994,Ukraine,78.6,,,,,,82.5,M,Олександр Мельник,90,95,-97.5,95,,,,,,,B,95
Raw,21,Yaroslav Melnik,O,1981,Ukraine,79.4,,,,,,82.5,M,Ярослав Мельник,90,95,-105,95,,,,,,,B,95
Raw,DQ,Oleksandr Sydorin,O,1990,Ukraine,77.9,,,,,,82.5,M,Олександр Сидорін,-125,-125,-125,,,,,,,,B,
Raw,1,Dmitro Bogachonok,M1,1970,Ukraine,80.2,,,,,,82.5,M,Дмитро Богачонок,105,110,-115,110,,,,,,,B,110
Raw,1,Yuriy Osadchenko,M2,1961,Ukraine,81.9,,,,,,82.5,M,Юрій Осадченко,-150,150,-155,150,,,,,,,B,150
Raw,1,Volodymyr Shumakov,M3,1959,Ukraine,81.3,,,,,,82.5,M,Володимир Шумаков,145,150,-160,150,,,,,,,B,150
Raw,1,Mikhaylo Kondratyev,M4,1953,Ukraine,81.7,,,,,,82.5,M,Михайло Кондратєв,132.5,137.5,141.5,141.5,,,,,,,B,141.5
Raw,1,Oleg Shabanets,M5,1949,Ukraine,81.7,,,,,,82.5,M,Олег Шабанець,105,112.5,-120,112.5,,,,,,,B,112.5
Raw,1,Volodymyr Shumakov,PFM,1959,Ukraine,81.3,,,,,,82.5,M,Володимир Шумаков,145,150,-160,150,,,,,,,B,150
Raw,1,Yaroslav Melnik,PFM,1981,Ukraine,79.4,,,,,,82.5,M,Ярослав Мельник,90,95,-105,95,,,,,,,B,95
Raw,1,Egor Vasilev #1,T2,1993,Ukraine,87.6,,,,,,90,M,Єгор Васильєв,130,-137.5,-137.5,130,,,,,,,B,130
Raw,2,Vladyslav Posnyk,T2,1994,Ukraine,83.8,,,,,,90,M,Владислав Посник,90,100,105,105,,,,,,,B,105
Raw,DQ,Maxym Yasenyuk,T2,1994,Ukraine,88.3,,,,,,90,M,Максим Ясенюк,-92.5,-92.5,-92.5,,,,,,,,B,
Raw,1,Andriy Karas'kin,T3,1992,Ukraine,86.6,,,,,,90,M,Андрій Караськін,120,130,135,135,,,,,,,B,135
Raw,2,Yukhym Voloshyn,T3,1992,Ukraine,87.8,,,,,,90,M,Юхим Волошин,122.5,132.5,-137.5,132.5,,,,,,,B,132.5
Raw,3,Kostyantin Ushetskiy,T3,1991,Ukraine,89.2,,,,,,90,M,Костянтин Ушецький,120,127.5,-132.5,127.5,,,,,,,B,127.5
Raw,1,Andriy Mostovenko,J,1989,Ukraine,88.8,,,,,,90,M,Андрій Мостовенко,140,145,150,150,,,,,,,B,150
Raw,2,Artem Popsuyenko,J,1990,Ukraine,84.4,,,,,,90,M,Артем Попсуєнко,120,127.5,132.5,132.5,,,,,,,B,132.5
Raw,1,Rostyslav Bondarenko,O,1972,Ukraine,89.1,,,,,,90,M,Ростислав Бондаренко,170,180,-185,180,,,,,,,B,180
Raw,2,Andriy Mostovenko,O,1989,Ukraine,88.8,,,,,,90,M,Андрій Мостовенко,140,145,150,150,,,,,,,B,150
Raw,3,Andriy Kravets,O,1983,Ukraine,88,,,,,,90,M,Андрій Кравець,137.5,-142.5,142.5,142.5,,,,,,,B,142.5
Raw,4,Gennadiy Vitryakov,O,1964,Ukraine,89.8,,,,,,90,M,Геннадій Вітряков,140,142.5,-145,142.5,,,,,,,B,142.5
Raw,5,Dmytro Solokov,O,1987,,87,,,,,,90,M,Дмитро Солоков,-140,140,-150,140,,,,,,,B,140
Raw,6,Oleksandr Yaremchuk,O,1973,,89.4,,,,,,90,M,Олександр Яремчук,-140,-140,140,140,,,,,,,B,140
Raw,7,Oleg Korostelov,O,1976,Ukraine,86.6,,,,,,90,M,Олег Коростельов,137.5,-145,-145,137.5,,,,,,,B,137.5
Raw,8,Andriy Karas'kin,O,1992,Ukraine,86.6,,,,,,90,M,Андрій Караськін,120,130,135,135,,,,,,,B,135
Raw,9,Vasyl' Vaschenko,O,1959,Ukraine,89.1,,,,,,90,M,Василь Ващенко,127.5,132.5,135,135,,,,,,,B,135
Raw,10,Artem Popsuyenko,O,1990,Ukraine,84.4,,,,,,90,M,Артем Попсуєнко,120,127.5,132.5,132.5,,,,,,,B,132.5
Raw,11,Yukhym Voloshyn,O,1992,Ukraine,87.8,,,,,,90,M,Юхим Волошин,122.5,132.5,-137.5,132.5,,,,,,,B,132.5
Raw,12,Yaroslav Falbiychuk,O,1968,Ukraine,87.2,,,,,,90,M,Ярослав Фальбійчук,120,130,-140,130,,,,,,,B,130
Raw,13,Egor Vasilev #1,O,1993,Ukraine,87.6,,,,,,90,M,Єгор Васильєв,130,-137.5,-137.5,130,,,,,,,B,130
Raw,14,Vitaliy Berko #1,O,1985,Ukraine,89.2,,,,,,90,M,Віталій Берко,125,130,-137.5,130,,,,,,,B,130
Raw,15,Kostyantin Ushetskiy,O,1991,Ukraine,89.2,,,,,,90,M,Костянтин Ушецький,120,127.5,-132.5,127.5,,,,,,,B,127.5
Raw,16,Volodymyr Korshunov,O,1942,,88.6,,,,,,90,M,Володимир Коршунов,125,-130,,125,,,,,,,B,125
Raw,17,Leonid Kot,O,1950,Ukraine,89.5,,,,,,90,M,Леонід Кот,107.5,112.5,117.5,117.5,,,,,,,B,117.5
Raw,18,Kostyantin Elchenko,O,1978,Ukraine,88.7,,,,,,90,M,Костянтин Єльченко,100,107.5,112.5,112.5,,,,,,,B,112.5
Raw,19,Dmytro Klochanko,O,1957,Ukraine,90,,,,,,90,M,Дмитро Клочанко,105,110,112.5,112.5,,,,,,,B,112.5
Raw,20,Vladyslav Posnyk,O,1994,Ukraine,83.8,,,,,,90,M,Владислав Посник,90,100,105,105,,,,,,,B,105
Raw,21,Mikola Marusov,O,1949,Ukraine,89.9,,,,,,90,M,Микола Марусов,85,-90,90,90,,,,,,,B,90
Raw,DQ,Maxym Yasenyuk,O,1994,Ukraine,88.3,,,,,,90,M,Максим Ясенюк,-92.5,-92.5,-92.5,,,,,,,,B,
Raw,1,Yaroslav Falbiychuk,M1,1968,Ukraine,87.2,,,,,,90,M,Ярослав Фальбійчук,120,130,-140,130,,,,,,,B,130
Raw,1,Gennadiy Vitryakov,M2,1964,Ukraine,89.8,,,,,,90,M,Геннадій Вітряков,140,142.5,-145,142.5,,,,,,,B,142.5
Raw,1,Vasyl' Vaschenko,M3,1959,Ukraine,89.1,,,,,,90,M,Василь Ващенко,127.5,132.5,135,135,,,,,,,B,135
Raw,2,Dmytro Klochanko,M3,1957,Ukraine,90,,,,,,90,M,Дмитро Клочанко,105,110,112.5,112.5,,,,,,,B,112.5
Raw,1,Leonid Kot,M5,1950,Ukraine,89.5,,,,,,90,M,Леонід Кот,107.5,112.5,117.5,117.5,,,,,,,B,117.5
Raw,2,Mikola Marusov,M5,1949,Ukraine,89.9,,,,,,90,M,Микола Марусов,85,-90,90,90,,,,,,,B,90
Raw,1,Volodymyr Korshunov,M6,1942,,88.6,,,,,,90,M,Володимир Коршунов,125,-130,,125,,,,,,,B,125
Raw,1,Dmytro Klochanko,PFM,1957,Ukraine,90,,,,,,90,M,Дмитро Клочанко,105,110,112.5,112.5,,,,,,,B,112.5
Raw,1,Bogdan Shyshkevych,T3,1992,,96.3,,,,,,100,M,Богдан Шишкевич,150,157.5,-160,157.5,,,,,,,B,157.5
Raw,1,Viktor Kuznetsov #4,J,1988,Ukraine,93.9,,,,,,100,M,Віктор Кузнєцов,180,187.5,190,190,,,,,,,B,190
Raw,2,Albert Enokyan,J,1988,Ukraine,100,,,,,,100,M,Альберт Єнокян,160,170,180,180,,,,,,,B,180
Raw,3,Vitaliy Rishnyak,J,1989,Ukraine,94,,,,,,100,M,Віталій Ришняк,165,170,175,175,,,,,,,B,175
Raw,4,Dmytro Kolos,J,1988,Ukraine,92.7,,,,,,100,M,Дмитро Колос,150,-157.5,157.5,157.5,,,,,,,B,157.5
Raw,5,Roman Davydenko,J,1988,Ukraine,96.4,,,,,,100,M,Роман Давиденко,-135,135,142.5,142.5,,,,,,,B,142.5
Raw,6,Oleksandr Makeenko,J,1988,Ukraine,91.4,,,,,,100,M,Олександр Макеєнко,125,-130,-130,125,,,,,,,B,125
Raw,1,Viktor Kuznetsov #4,O,1988,Ukraine,93.9,,,,,,100,M,Віктор Кузнєцов,180,187.5,190,190,,,,,,,B,190
Raw,2,Albert Enokyan,O,1988,Ukraine,100,,,,,,100,M,Альберт Єнокян,160,170,180,180,,,,,,,B,180
Raw,3,Vitaliy Rishnyak,O,1989,Ukraine,94,,,,,,100,M,Віталій Ришняк,165,170,175,175,,,,,,,B,175
Raw,4,Volodymyr Kosobrodov,O,1978,Ukraine,94.5,,,,,,100,M,Володимир Кособродов,160,167.5,175,175,,,,,,,B,175
Raw,5,Sergiy Chmarak,O,1982,Ukraine,94.5,,,,,,100,M,Сергій Чмарак,157.5,162.5,-165,162.5,,,,,,,B,162.5
Raw,6,Volodymyr Grygorenko,O,1986,Ukraine,98.4,,,,,,100,M,Володимир Григоренко,150,157.5,162.5,162.5,,,,,,,B,162.5
Raw,7,Denis Oleynik,O,1985,Ukraine,95.1,,,,,,100,M,Денис Олейник,160,-165,,160,,,,,,,B,160
Raw,8,Denis Pogorelov,O,1981,Ukraine,95.5,,,,,,100,M,Денис Погорелов,152.5,160,-162.5,160,,,,,,,B,160
Raw,9,Oleksandr Kulikov,O,1957,Ukraine,95.9,,,,,,100,M,Олександр Куліков,150,157.5,160,160,,,,,,,B,160
Raw,10,Dmytro Kolos,O,1988,Ukraine,92.7,,,,,,100,M,Дмитро Колос,150,-157.5,157.5,157.5,,,,,,,B,157.5
Raw,11,Bogdan Shyshkevych,O,1992,,96.3,,,,,,100,M,Богдан Шишкевич,150,157.5,-160,157.5,,,,,,,B,157.5
Raw,12,Sergiy Pilyaev,O,1969,Ukraine,96.5,,,,,,100,M,Сергій Піляєв,150,157.5,-165,157.5,,,,,,,B,157.5
Raw,13,Oleksandr Tolkachov,O,1970,Ukraine,99.6,,,,,,100,M,Олександр Толкачов,150,-157.5,157.5,157.5,,,,,,,B,157.5
Raw,14,Oleksandr Lyubchyk,O,1977,,99.9,,,,,,100,M,Олександр Любчик,150,-157.5,157.5,157.5,,,,,,,B,157.5
Raw,15,Sergiy Besel,O,1984,Ukraine,100,,,,,,100,M,Сергій Бессель,155,-165,-165,155,,,,,,,B,155
Raw,16,Ivan Epanov,O,1963,,92,,,,,,100,M,Іван Єпанов,135,140,150,150,,,,,,,B,150
Raw,17,Roman Davydenko,O,1988,Ukraine,96.4,,,,,,100,M,Роман Давиденко,-135,135,142.5,142.5,,,,,,,B,142.5
Raw,18,Oleksandr Makeenko,O,1988,Ukraine,91.4,,,,,,100,M,Олександр Макеєнко,125,-130,-130,125,,,,,,,B,125
Raw,19,Valeriy Babko,O,1941,Ukraine,93.5,,,,,,100,M,Валерій Бабко,95,-100,100,100,,,,,,,B,100
Raw,20,Yaroslav Timoshenko,O,1984,Ukraine,93.6,,,,,,100,M,Ярослав Тимошенко,100,-110,-110,100,,,,,,,B,100
Raw,1,Sergiy Pilyaev,M1,1969,Ukraine,96.5,,,,,,100,M,Сергій Піляєв,150,157.5,-165,157.5,,,,,,,B,157.5
Raw,2,Oleksandr Tolkachov,M1,1970,Ukraine,99.6,,,,,,100,M,Олександр Толкачов,150,-157.5,157.5,157.5,,,,,,,B,157.5
Raw,1,Ivan Epanov,M2,1963,,92,,,,,,100,M,Іван Єпанов,135,140,150,150,,,,,,,B,150
Raw,1,Oleksandr Kulikov,M3,1957,Ukraine,95.9,,,,,,100,M,Олександр Куліков,150,157.5,160,160,,,,,,,B,160
Raw,1,Valeriy Babko,M7,1941,Ukraine,93.5,,,,,,100,M,Валерій Бабко,95,-100,100,100,,,,,,,B,100
Raw,1,Leonid Klischevskiy,J,1988,,103.7,,,,,,110,M,Леонід Кліщевський,150,160,165,165,,,,,,,B,165
Raw,1,Anatoliy Shyshkevich,O,1970,,108,,,,,,110,M,Анатолій Шишкевич,210,-215,-215,210,,,,,,,B,210
Raw,2,Surupasha Bambatgireev,O,1966,Ukraine,109.1,,,,,,110,M,Сурупаша Бамбатгіреєв,175,180,-185,180,,,,,,,B,180
Raw,3,Pavlo Trygub,O,1973,Ukraine,108.2,,,,,,110,M,Павло Тригуб,167.5,172.5,177.5,177.5,,,,,,,B,177.5
Raw,4,Denys Skugorov,O,1978,Ukraine,106.9,,,,,,110,M,Денис Скугоров,162.5,167.5,172.5,172.5,,,,,,,B,172.5
Raw,5,Oleksiy Greben'kov,O,1984,Ukraine,104,,,,,,110,M,Олексій Гребеньков,160,170,-175,170,,,,,,,B,170
Raw,6,Leonid Klischevskiy,O,1988,,103.7,,,,,,110,M,Леонід Кліщевський,150,160,165,165,,,,,,,B,165
Raw,7,Valeriy Karmazin,O,1964,Ukraine,110,,,,,,110,M,Валерій Кармазін,155,165,-170,165,,,,,,,B,165
Raw,8,Oleg Kaplun,O,1981,Ukraine,105.3,,,,,,110,M,Олег Каплун,155,160,162.5,162.5,,,,,,,B,162.5
Raw,9,Vasyl' Sheremet,O,1962,Ukraine,110,,,,,,110,M,Василь Шеремет,155,-160,162.5,162.5,,,,,,,B,162.5
Raw,10,Valeriy Telyuk,O,1969,Ukraine,109,,,,,,110,M,Валерій Телюк,140,152.5,157.5,157.5,,,,,,,B,157.5
Raw,11,Stanislav Shkurak,O,1974,Ukraine,106,,,,,,110,M,Станіслав Шкурак,-147.5,147.5,152.5,152.5,,,,,,,B,152.5
Raw,12,Viktor Khan'ko,O,1972,Ukraine,108.1,,,,,,110,M,Віктор Ханько,147.5,150,-155,150,,,,,,,B,150
Raw,13,Volodymyr Tkachenko,O,1959,Ukraine,107,,,,,,110,M,Володимир Ткаченко,125,132.5,-137.5,132.5,,,,,,,B,132.5
Raw,14,Valentin Drobinko,O,1952,Ukraine,104.1,,,,,,110,M,Валентин Дробинко,117.5,-122.5,122.5,122.5,,,,,,,B,122.5
Raw,15,Evgen Kirienko,O,1979,Ukraine,107.4,,,,,,110,M,Євген Кірієнко,110,115,120,120,,,,,,,B,120
Raw,DQ,Maxym Gorbunov,O,1982,Ukraine,108.2,,,,,,110,M,Максим Горбунов,-157.5,-157.5,-157.5,,,,,,,,B,
Raw,1,Anatoliy Shyshkevich,M1,1970,,108,,,,,,110,M,Анатолій Шишкевич,210,-215,-215,210,,,,,,,B,210
Raw,2,Surupasha Bambatgireev,M1,1966,Ukraine,109.1,,,,,,110,M,Сурупаша Бамбатгіреєв,175,180,-185,180,,,,,,,B,180
Raw,3,Valeriy Telyuk,M1,1969,Ukraine,109,,,,,,110,M,Валерій Телюк,140,152.5,157.5,157.5,,,,,,,B,157.5
Raw,1,Valeriy Karmazin,M2,1964,Ukraine,110,,,,,,110,M,Валерій Кармазін,155,165,-170,165,,,,,,,B,165
Raw,2,Vasyl' Sheremet,M2,1962,Ukraine,110,,,,,,110,M,Василь Шеремет,155,-160,162.5,162.5,,,,,,,B,162.5
Raw,1,Volodymyr Tkachenko,M3,1959,Ukraine,107,,,,,,110,M,Володимир Ткаченко,125,132.5,-137.5,132.5,,,,,,,B,132.5
Raw,1,Valentin Drobinko,M4,1952,Ukraine,104.1,,,,,,110,M,Валентин Дробинко,117.5,-122.5,122.5,122.5,,,,,,,B,122.5
Raw,2,Viktor Leusenko,J,1988,,120.9,,,,,,125,M,Віктор Леусенко,170,180,190,190,,,,,,,B,190
Raw,2,Dmytro Melnyk,J,1991,Ukraine,114.1,,,,,,125,M,Дмитро Мельник,117.5,-127.5,135,135,,,,,,,B,135
Raw,1,Igor Leschenko,O,1971,Ukraine,110.1,,,,,,125,M,Ігор Лещенко,200,210,215,215,-220.5,,,,,,B,215
Raw,2,Viktor Leusenko,O,1988,,120.9,,,,,,125,M,Віктор Леусенко,170,180,190,190,,,,,,,B,190
Raw,3,Vasyl' Golivets',O,1960,,124.7,,,,,,125,M,Василь Голівець,155,165,172.5,172.5,,,,,,,B,172.5
Raw,4,Oleksandr Oleksandrov,O,1971,Ukraine,110.3,,,,,,125,M,Олександр Олександров,165,170,-175,170,,,,,,,B,170
Raw,5,Sergiy Galita,O,1979,Ukraine,112.6,,,,,,125,M,Сергій Галіта,155,-162.5,,155,,,,,,,B,155
Raw,6,Igor Oleksandrov,O,1960,Ukraine,122.2,,,,,,125,M,Ігор Олександров,-150,150,-165,150,,,,,,,B,150
Raw,7,Dmytro Melnyk,O,1991,Ukraine,114.1,,,,,,125,M,Дмитро Мельник,117.5,-127.5,135,135,,,,,,,B,135
Raw,8,Vadym Yakushin,O,1982,Ukraine,116.5,,,,,,125,M,Вадим Якушин,112.5,117.5,120,120,,,,,,,B,120
Raw,9,Ivan Napryaglo,O,1955,,117.8,,,,,,125,M,Іван Напрягло,100,107.5,,107.5,,,,,,,B,107.5
Raw,1,Vasyl' Golivets',M3,1960,,124.7,,,,,,125,M,Василь Голівець,155,165,172.5,172.5,,,,,,,B,172.5
Raw,2,Igor Oleksandrov,M3,1960,Ukraine,122.2,,,,,,125,M,Ігор Олександров,-150,150,-165,150,,,,,,,B,150
Raw,1,Ivan Napryaglo,M4,1955,,117.8,,,,,,125,M,Іван Напрягло,100,107.5,,107.5,,,,,,,B,107.5
Raw,1,Igor Leschenko,PFM,1971,Ukraine,110.1,,,,,,125,M,Ігор Лещенко,200,210,215,215,-220.5,,,,,,B,215
Raw,1,Gocha Kamadadze,J,1989,,128.1,,,,,,145,M,Гоча Камададзе,215,220,225,225,-230,,,,,,B,225
Raw,1,Gocha Kamadadze,O,1989,,128.1,,,,,,145,M,Гоча Камададзе,215,220,225,225,-230,,,,,,B,225
Raw,2,Andriy Vorontsov,O,1980,Ukraine,135.9,,,,,,145,M,Андрій Воронцов,180,185,190,190,,,,,,,B,190
Raw,3,Oleksandr Maksimchuk,O,1981,Ukraine,125.9,,,,,,145,M,Олександр Максимчук,137.5,142.5,147.5,147.5,,,,,,,B,147.5
Raw,1,Albina Boyko,O,1982,Ukraine,47.4,,,,,,47.5,F,Альбіна Бойко,,,,,,100,110,112.5,112.5,,D,112.5
Raw,1,Olga Negodyuk,O,1968,Ukraine,50.5,,,,,,50.5,F,Ольга Негодюк,,,,,,120,125,-130,125,,D,125
Raw,1,Olga Negodyuk,M1,1968,Ukraine,50.5,,,,,,50.5,F,Ольга Негодюк,,,,,,120,125,-130,125,,D,125
Raw,1,Maryna Soltanova,O,1985,Ukraine,58.5,,,,,,58.5,F,Марина Солтанова,,,,,,100,110,120,120,,D,120
Raw,1,Tetyana Luginina,O,1970,Ukraine,61.9,,,,,,63,F,Тетяна Лугініна,,,,,,90,-102.5,-102.5,90,,D,90
Raw,1,Tetyana Luginina,M1,1970,Ukraine,61.9,,,,,,63,F,Тетяна Лугініна,,,,,,90,-102.5,-102.5,90,,D,90
Raw,1,Vita Syumak,O,1986,Ukraine,68.8,,,,,,70,F,Віта Сюмак,,,,,,125,132.5,137.5,137.5,,D,137.5
Raw,2,Svitlana Sheremenko,O,1959,Ukraine,70,,,,,,70,F,Світлана Шеременко,,,,,,130,135,-140,135,,D,135
Raw,3,Oksana Muzyka,O,1969,Ukraine,67,,,,,,70,F,Оксана Музика,,,,,,97.5,-105,105,105,,D,105
Raw,1,Oksana Muzyka,M1,1969,Ukraine,67,,,,,,70,F,Оксана Музика,,,,,,97.5,-105,105,105,,D,105
Raw,1,Svitlana Sheremenko,M3,1959,Ukraine,70,,,,,,70,F,Світлана Шеременко,,,,,,130,135,-140,135,,D,135
Raw,1,Yuliya Malanchuk,T1,1995,Ukraine,75.3,,,,,,80,F,Юлія Маланчук,,,,,,100,112.5,122.5,122.5,,D,122.5
Raw,1,Oksana Dubovytska,O,1984,Ukraine,75,,,,,,80,F,Оксана Дубовицька,,,,,,150,162.5,167.5,167.5,,D,167.5
Raw,2,Yuliya Malanchuk,O,1995,Ukraine,75.3,,,,,,80,F,Юлія Маланчук,,,,,,100,112.5,122.5,122.5,,D,122.5
Raw,3,Irina Tikhonova,O,1970,Ukraine,70.7,,,,,,80,F,Ірина Тихонова,,,,,,100,-112.5,-112.5,100,,D,100
Raw,1,Irina Tikhonova,M1,1970,Ukraine,70.7,,,,,,80,F,Ірина Тихонова,,,,,,100,-112.5,-112.5,100,,D,100
Raw,1,Iryna Pedoryaka,O,1962,Ukraine,94.6,,,,,,90+,F,Ірина Педоряка,,,,,,110,120,130,130,,D,130
Raw,1,Iryna Pedoryaka,M2,1962,Ukraine,94.6,,,,,,90+,F,Ірина Педоряка,,,,,,110,120,130,130,,D,130
Raw,1,Vladyslav Tretyak,T1,1996,Ukraine,52.9,,,,,,56,M,Владислав Третяк,,,,,,120,125,130,130,,D,130
Raw,1,Sergiy Chernov,O,1986,Ukraine,55.8,,,,,,56,M,Сергій Чернов,,,,,,180,190,-195,190,,D,190
Raw,2,Vladyslav Tretyak,O,1996,Ukraine,52.9,,,,,,56,M,Владислав Третяк,,,,,,120,125,130,130,,D,130
Raw,1,Sergiy Pokalyuk,T1,1996,Ukraine,57,,,,,,60,M,Сергій Покалюк,,,,,,135,145,152.5,152.5,,D,152.5
Raw,2,Sergiy Tkach,T1,1996,Ukraine,58.5,,,,,,60,M,Сергій Ткач,,,,,,105,115,125,125,,D,125
Raw,3,Yevgen Yasnovskyy,T1,1996,Ukraine,59.1,,,,,,60,M,Євген Ясновський,,,,,,95,102.5,107.5,107.5,,D,107.5
Raw,1,Mikhaylo Lopatin,T3,1991,Ukraine,59.2,,,,,,60,M,Михайло Лопатін,,,,,,130,140,-150,140,,D,140
Raw,1,Anton Zlobin,J,1987,Ukraine,60,,,,,,60,M,Антон Злобін,,,,,,165,180,190,190,-195,D,190
Raw,2,Oleksandr Bednarskyy,J,1990,Ukraine,58.3,,,,,,60,M,Олександр Беднарський,,,,,,130,145,152.5,152.5,,D,152.5
Raw,3,Maksim Tynkovan,J,1990,Ukraine,60,,,,,,60,M,Максим Тінкован,,,,,,152.5,-165,-165,152.5,,D,152.5
Raw,1,Anton Zlobin,O,1987,Ukraine,60,,,,,,60,M,Антон Злобін,,,,,,165,180,190,190,-195,D,190
Raw,2,Sergiy Pokalyuk,O,1996,Ukraine,57,,,,,,60,M,Сергій Покалюк,,,,,,135,145,152.5,152.5,,D,152.5
Raw,3,Oleksandr Bednarskyy,O,1990,Ukraine,58.3,,,,,,60,M,Олександр Беднарський,,,,,,130,145,152.5,152.5,,D,152.5
Raw,4,Maksim Tynkovan,O,1990,Ukraine,60,,,,,,60,M,Максим Тінкован,,,,,,152.5,-165,-165,152.5,,D,152.5
Raw,5,Mikhaylo Lopatin,O,1991,Ukraine,59.2,,,,,,60,M,Михайло Лопатін,,,,,,130,140,-150,140,,D,140
Raw,6,Sergiy Tkach,O,1996,Ukraine,58.5,,,,,,60,M,Сергій Ткач,,,,,,105,115,125,125,,D,125
Raw,7,Yevgen Yasnovskyy,O,1996,Ukraine,59.1,,,,,,60,M,Євген Ясновський,,,,,,95,102.5,107.5,107.5,,D,107.5
Raw,1,Vitaliy Muzyka,T1,1995,Ukraine,65.6,,,,,,67.5,M,Віталій Музика,,,,,,182.5,-197.5,197.5,197.5,-202.5,D,197.5
Raw,2,Borys Mydlyk,T1,1995,Ukraine,67.2,,,,,,67.5,M,Борис Мидлик,,,,,,130,140,150,150,,D,150
Raw,1,Viktor Denysenko,T2,1993,Ukraine,66.7,,,,,,67.5,M,Віктор Денісенко,,,,,,150,-160,-170,150,,D,150
Raw,2,Mikhaylo Ulanovskiy,T2,1994,Ukraine,65.9,,,,,,67.5,M,Михайло Улановський,,,,,,130,135,-145,135,,D,135
Raw,1,Andriy Serebrenikov,T3,1991,Ukraine,65.5,,,,,,67.5,M,Андрій Серебреніков,,,,,,150,160,170,170,,D,170
Raw,2,Pavlo Kyrychenko,T3,1993,Ukraine,64.9,,,,,,67.5,M,Павло Кириченко,,,,,,150,155,162.5,162.5,,D,162.5
Raw,3,Dmytro Fedorenko,T3,1992,Ukraine,65.1,,,,,,67.5,M,Дмитро Федоренко,,,,,,140,150,-160,150,,D,150
Raw,1,Volodymyr Yakunin,J,1988,Ukraine,65.1,,,,,,67.5,M,Володимир Якунін,,,,,,185,197.5,205,205,-207.5,D,205
Raw,2,Roman Nazarchuk,J,1990,Ukraine,67.5,,,,,,67.5,M,Роман Назарчук,,,,,,-182.5,182.5,192.5,192.5,-207.5,D,192.5
Raw,3,Vladislav Milovanov,J,1989,Ukraine,66,,,,,,67.5,M,Владислав Мілованов,,,,,,170,182.5,-190,182.5,,D,182.5
Raw,4,Andriy Maslyak,J,1990,Ukraine,67.5,,,,,,67.5,M,Андрій Масляк,,,,,,165,175,-182.5,175,,D,175
Raw,5,Kostyantin Shilov,J,1988,Ukraine,62.1,,,,,,67.5,M,Костянтин Шилов,,,,,,170,-182.5,-182.5,170,,D,170
Raw,6,Evgen Rilov,J,1989,Ukraine,65.4,,,,,,67.5,M,Євген Рилов,,,,,,160,170,-182.5,170,,D,170
Raw,7,Anton Koziy,J,1990,Ukraine,67.1,,,,,,67.5,M,Антон Козій,,,,,,165,170,-182.5,170,,D,170
Raw,8,Andriy Voskoboynikov,J,1990,Ukraine,67.5,,,,,,67.5,M,Андрій Воскобойніков,,,,,,150,160,-170,160,,D,160
Raw,9,Ruslan Subotin,J,1989,Ukraine,61.9,,,,,,67.5,M,Руслан Суботин,,,,,,150,-160,-160,150,,D,150
Raw,1,Pavlo Gnatenko,O,1986,Ukraine,65.8,,,,,,67.5,M,Павло Гнатенко,,,,,,200,207.5,212.5,212.5,,D,212.5
Raw,2,Volodymyr Yakunin,O,1988,Ukraine,65.1,,,,,,67.5,M,Володимир Якунін,,,,,,185,197.5,205,205,-207.5,D,205
Raw,3,Vitaliy Muzyka,O,1995,Ukraine,65.6,,,,,,67.5,M,Віталій Музика,,,,,,182.5,-197.5,197.5,197.5,-202.5,D,197.5
Raw,4,Roman Nazarchuk,O,1990,Ukraine,67.5,,,,,,67.5,M,Роман Назарчук,,,,,,-182.5,182.5,192.5,192.5,-207.5,D,192.5
Raw,5,Vadym Grabar,O,1984,Ukraine,65.1,,,,,,67.5,M,Вадим Грабар,,,,,,165,175,182.5,182.5,,D,182.5
Raw,6,Vladislav Milovanov,O,1989,Ukraine,66,,,,,,67.5,M,Владислав Мілованов,,,,,,170,182.5,-190,182.5,,D,182.5
Raw,7,Andriy Maslyak,O,1990,Ukraine,67.5,,,,,,67.5,M,Андрій Масляк,,,,,,165,175,-182.5,175,,D,175
Raw,8,Kostyantin Shilov,O,1988,Ukraine,62.1,,,,,,67.5,M,Костянтин Шилов,,,,,,170,-182.5,-182.5,170,,D,170
Raw,9,Evgen Rilov,O,1989,Ukraine,65.4,,,,,,67.5,M,Євген Рилов,,,,,,160,170,-182.5,170,,D,170
Raw,10,Andriy Serebrenikov,O,1991,Ukraine,65.5,,,,,,67.5,M,Андрій Серебреніков,,,,,,150,160,170,170,,D,170
Raw,11,Anton Koziy,O,1990,Ukraine,67.1,,,,,,67.5,M,Антон Козій,,,,,,165,170,-182.5,170,,D,170
Raw,12,Pavlo Kyrychenko,O,1993,Ukraine,64.9,,,,,,67.5,M,Павло Кириченко,,,,,,150,155,162.5,162.5,,D,162.5
Raw,13,Andriy Voskoboynikov,O,1990,Ukraine,67.5,,,,,,67.5,M,Андрій Воскобойніков,,,,,,150,160,-170,160,,D,160
Raw,14,Ruslan Subotin,O,1989,Ukraine,61.9,,,,,,67.5,M,Руслан Суботин,,,,,,150,-160,-160,150,,D,150
Raw,15,Dmytro Fedorenko,O,1992,Ukraine,65.1,,,,,,67.5,M,Дмитро Федоренко,,,,,,140,150,-160,150,,D,150
Raw,16,Yuriy Ilenko,O,1987,Ukraine,65.3,,,,,,67.5,M,Юрій Ільєнко,,,,,,140,145,150,150,,D,150
Raw,17,Viktor Denysenko,O,1993,Ukraine,66.7,,,,,,67.5,M,Віктор Денісенко,,,,,,150,-160,-170,150,,D,150
Raw,18,Borys Mydlyk,O,1995,Ukraine,67.2,,,,,,67.5,M,Борис Мидлик,,,,,,130,140,150,150,,D,150
Raw,19,Mikhaylo Ulanovskiy,O,1994,Ukraine,65.9,,,,,,67.5,M,Михайло Улановський,,,,,,130,135,-145,135,,D,135
Raw,1,Roman Shishkevich,T1,1995,Ukraine,74.6,,,,,,75,M,Роман Шишкевич,,,,,,150,162.5,-165,162.5,,D,162.5
Raw,1,Kirilo Zdir,T2,1993,Ukraine,73.7,,,,,,75,M,Кирило Здир,,,,,,140,150,160,160,,D,160
Raw,1,Mikael Oganesyan,T3,1991,Ukraine,70.9,,,,,,75,M,Мікаель Оганесян,,,,,,200,230,-235,230,,D,230
Raw,2,Andriy Gurichev,T3,1991,Ukraine,74.9,,,,,,75,M,Андрій Гурічев,,,,,,200,217.5,-222.5,217.5,,D,217.5
Raw,3,Kostyantin Logvinenko,T3,1991,Ukraine,72,,,,,,75,M,Костянтин Логвіненко,,,,,,160,170,185,185,,D,185
Raw,1,Vitaliy Kobets,J,1989,Ukraine,70.2,,,,,,75,M,Віталій Кобець,,,,,,195,205,210,210,,D,210
Raw,2,Oleksandr Saliy,J,1988,Ukraine,74,,,,,,75,M,Олександр Салій,,,,,,185,192.5,200,200,,D,200
Raw,3,Oleksandr Lisenko,J,1988,Ukraine,73.9,,,,,,75,M,Олександр Лисенко,,,,,,175,185,195,195,,D,195
Raw,4,Yevgen Khobta,J,1987,Ukraine,74,,,,,,75,M,Євген Хобта,,,,,,160,175,-185,175,,D,175
Raw,5,Sergiy Ivanov,J,1988,Ukraine,69.5,,,,,,75,M,Сергій Іванов,,,,,,-160,170,-185,170,,D,170
Raw,1,Anton Alekseev #1,O,1986,Ukraine,73.3,,,,,,75,M,Антон Алєксєєв,,,,,,210,220,235,235,,D,235
Raw,2,Mikael Oganesyan,O,1991,Ukraine,70.9,,,,,,75,M,Мікаель Оганесян,,,,,,200,230,-235,230,,D,230
Raw,3,Andriy Gurichev,O,1991,Ukraine,74.9,,,,,,75,M,Андрій Гурічев,,,,,,200,217.5,-222.5,217.5,,D,217.5
Raw,4,Vitaliy Kobets,O,1989,Ukraine,70.2,,,,,,75,M,Віталій Кобець,,,,,,195,205,210,210,,D,210
Raw,5,Valentin Savchenko,O,1954,Ukraine,74.5,,,,,,75,M,Валентин Савченко,,,,,,-210,210,-215,210,,D,210
Raw,6,Bogdan Vorobey,O,1983,Ukraine,74,,,,,,75,M,Богдан Воробей,,,,,,195,200,-215,200,,D,200
Raw,7,Oleksandr Saliy,O,1988,Ukraine,74,,,,,,75,M,Олександр Салій,,,,,,185,192.5,200,200,,D,200
Raw,8,Oleksandr Lisenko,O,1988,Ukraine,73.9,,,,,,75,M,Олександр Лисенко,,,,,,175,185,195,195,,D,195
Raw,9,Volodymyr Kovalenko,O,1985,Ukraine,71.6,,,,,,75,M,Володимир Коваленко,,,,,,180,190,-200,190,,D,190
Raw,10,Andriy Besedin,O,1984,Ukraine,74.5,,,,,,75,M,Андрій Беседін,,,,,,170,182.5,187.5,187.5,,D,187.5
Raw,11,Kostyantin Logvinenko,O,1991,Ukraine,72,,,,,,75,M,Костянтин Логвіненко,,,,,,160,170,185,185,,D,185
Raw,12,Ivan Protsenko #3,O,1987,Ukraine,72.6,,,,,,75,M,Іван Проценко,,,,,,165,185,-200,185,,D,185
Raw,13,Denis Antonenko,O,1985,Ukraine,73.6,,,,,,75,M,Денис Антоненко,,,,,,165,185,-200,185,,D,185
Raw,14,Yevgen Khobta,O,1987,Ukraine,74,,,,,,75,M,Євген Хобта,,,,,,160,175,-185,175,,D,175
Raw,15,Sergiy Ivanov,O,1988,Ukraine,69.5,,,,,,75,M,Сергій Іванов,,,,,,-160,170,-185,170,,D,170
Raw,16,Roman Shishkevich,O,1995,Ukraine,74.6,,,,,,75,M,Роман Шишкевич,,,,,,150,162.5,-165,162.5,,D,162.5
Raw,17,Kirilo Zdir,O,1993,Ukraine,73.7,,,,,,75,M,Кирило Здир,,,,,,140,150,160,160,,D,160
Raw,18,Viktor Yatsishin #1,O,1957,Ukraine,73.8,,,,,,75,M,Віктор Яцишин,,,,,,140,150,160,160,,D,160
Raw,19,Arkadiy Myshko Ariy,O,1945,Ukraine,74.4,,,,,,75,M,Арій Мишко,,,,,,135,145,,145,,D,145
Raw,DQ,Sergiy Zhmudenko,O,1971,Ukraine,73.5,,,,,,75,M,Сергій Жмуденко,,,,,,-190,-190,,,,D,
Raw,1,Viktor Yatsishin #1,M3,1957,Ukraine,73.8,,,,,,75,M,Віктор Яцишин,,,,,,140,150,160,160,,D,160
Raw,1,Valentin Savchenko,M4,1954,Ukraine,74.5,,,,,,75,M,Валентин Савченко,,,,,,-210,210,-215,210,,D,210
Raw,1,Arkadiy Myshko Ariy,M6,1945,Ukraine,74.4,,,,,,75,M,Арій Мишко,,,,,,135,145,,145,,D,145
Raw,1,Oleksandr Melnyk,T2,1994,Ukraine,78.6,,,,,,82.5,M,Олександр Мельник,,,,,,175,185,195,195,,D,195
Raw,2,Georgiy Avzalov,T2,1993,Ukraine,81.7,,,,,,82.5,M,Георгій Авзалов,,,,,,170,-177.5,177.5,177.5,,D,177.5
Raw,1,Sergiy Skorodumov,T3,1991,Ukraine,82,,,,,,82.5,M,Сергій Скородумов,,,,,,240.5,-250,250,250,,D,250
Raw,2,Artur Golubev,T3,1992,Ukraine,78.4,,,,,,82.5,M,Артур Голубєв,,,,,,150,160,-170,160,,D,160
Raw,1,Leonid Andrievskyy,J,1989,Ukraine,79.8,,,,,,82.5,M,Леонід Андрієвський,,,,,,232.5,242.5,250,250,255,D,250
Raw,2,Yevgen Yelyseyev,J,1987,Ukraine,80.8,,,,,,82.5,M,Євген Єлисєєв,,,,,,200,217.5,-220,217.5,,D,217.5
Raw,3,Maxym Ivaschenko,J,1987,Ukraine,78.6,,,,,,82.5,M,Максим Іващенко,,,,,,210,-220,,210,,D,210
Raw,4,Sergiy Duplonozhenko,J,1987,Ukraine,81.3,,,,,,82.5,M,Сергій Дуплоноженко,,,,,,175,190,200,200,,D,200
Raw,1,Leonid Andrievskyy,O,1989,Ukraine,79.8,,,,,,82.5,M,Леонід Андрієвський,,,,,,232.5,242.5,250,250,255,D,250
Raw,2,Sergiy Skorodumov,O,1991,Ukraine,82,,,,,,82.5,M,Сергій Скородумов,,,,,,240.5,-250,250,250,,D,250
Raw,3,Oleksandr Narkhov,O,1985,Ukraine,82.5,,,,,,82.5,M,Олександр Нархов,,,,,,225,232.5,245,245,,D,245
Raw,4,Dmitro Bogachonok,O,1970,Ukraine,80.2,,,,,,82.5,M,Дмитро Богачонок,,,,,,205,220,,220,,D,220
Raw,5,Andriy Fomin,O,1985,Ukraine,79.9,,,,,,82.5,M,Андрій Фомін,,,,,,200,217.5,-220,217.5,,D,217.5
Raw,6,Vadim Kostaschuk,O,1989,Ukraine,80.8,,,,,,82.5,M,Вадим Костащук,,,,,,200,217.5,-232.5,217.5,,D,217.5
Raw,7,Maxym Ivaschenko,O,1987,Ukraine,78.6,,,,,,82.5,M,Максим Іващенко,,,,,,210,-220,,210,,D,210
Raw,8,Sergiy Varfalyuk,O,1985,Ukraine,82.1,,,,,,82.5,M,Сергій Варфалюк,,,,,,210,-222.5,-222.5,210,,D,210
Raw,9,Sergiy Duplonozhenko,O,1987,Ukraine,81.3,,,,,,82.5,M,Сергій Дуплоноженко,,,,,,175,190,200,200,,D,200
Raw,10,Oleksandr Melnyk,O,1994,,78.6,,,,,,82.5,M,Олександр Мельник,,,,,,175,185,195,195,,D,195
Raw,11,Georgiy Avzalov,O,1993,Ukraine,81.7,,,,,,82.5,M,Георгій Авзалов,,,,,,170,-177.5,177.5,177.5,,D,177.5
Raw,12,Artur Golubev,O,1992,Ukraine,78.4,,,,,,82.5,M,Артур Голубєв,,,,,,150,160,-170,160,,D,160
Raw,13,Volodymyr Vasylenko,O,1943,Ukraine,78,,,,,,82.5,M,Володимир Василенко,,,,,,140,150,,150,,D,150
Raw,14,Oleg Shabanets,O,1949,,81.7,,,,,,82.5,M,Олег Шабанець,,,,,,150,-165,-165,150,,D,150
Raw,1,Dmitro Bogachonok,M1,1970,Ukraine,80.2,,,,,,82.5,M,Дмитро Богачонок,,,,,,205,220,,220,,D,220
Raw,1,Oleg Shabanets,M5,1949,,81.7,,,,,,82.5,M,Олег Шабанець,,,,,,150,-165,-165,150,,D,150
Raw,1,Volodymyr Vasylenko,M6,1943,Ukraine,78,,,,,,82.5,M,Володимир Василенко,,,,,,140,150,,150,,D,150
Raw,1,Maxym Yasenyuk,T2,1994,Ukraine,88.3,,,,,,90,M,Максим Ясенюк,,,,,,152.5,157.5,162.5,162.5,,D,162.5
Raw,2,Vladyslav Posnyk,T2,1994,Ukraine,83.8,,,,,,90,M,Владислав Посник,,,,,,150,160,-170,160,,D,160
Raw,3,Maksim Samchuk,T2,1994,Ukraine,88.2,,,,,,90,M,Максим Самчук,,,,,,152.5,157.5,,157.5,,D,157.5
Raw,1,Andriy Karas'kin,T3,1992,Ukraine,86.6,,,,,,90,M,Андрій Караськін,,,,,,225,237.5,247.5,247.5,,D,247.5
Raw,2,Kostyantin Ushetskiy,T3,1991,Ukraine,89.2,,,,,,90,M,Костянтин Ушецький,,,,,,200,227.5,,227.5,,D,227.5
Raw,3,Egor Vasilev #1,T3,1993,Ukraine,87.6,,,,,,90,M,Єгор Васильєв,,,,,,140,150,165,165,,D,165
Raw,1,Viktor Posudevskyy,J,1989,Ukraine,88.4,,,,,,90,M,Віктор Посудевський,,,,,,220,230,-240,230,,D,230
Raw,2,Artem Popsuyenko,J,1990,Ukraine,84.4,,,,,,90,M,Артем Попсуєнко,,,,,,215,222.5,-230,222.5,,D,222.5
Raw,1,Rinat Zaripov,O,1970,Ukraine,90,,,,,,90,M,Рінат Заріпов,,,,,,255,267.5,275,275,,D,275
Raw,2,Gennadiy Zotov,O,1985,Ukraine,89,,,,,,90,M,Геннадій Зотов,,,,,,252.5,265,-272.5,265,,D,265
Raw,3,Andriy Karas'kin,O,1992,Ukraine,86.6,,,,,,90,M,Андрій Караськін,,,,,,225,237.5,247.5,247.5,,D,247.5
Raw,4,Viktor Posudevskyy,O,1989,Ukraine,88.4,,,,,,90,M,Віктор Посудевський,,,,,,220,230,-240,230,,D,230
Raw,5,Kostyantin Ushetskiy,O,1991,Ukraine,89.2,,,,,,90,M,Костянтин Ушецький,,,,,,200,227.5,,227.5,,D,227.5
Raw,6,Artem Popsuyenko,O,1990,Ukraine,84.4,,,,,,90,M,Артем Попсуєнко,,,,,,215,222.5,-230,222.5,,D,222.5
Raw,7,Vitaliy Berko #1,O,1985,Ukraine,89.2,,,,,,90,M,Віталій Берко,,,,,,210,217.5,-220,217.5,,D,217.5
Raw,8,Volodymyr Nagalyuk,O,1951,Ukraine,89.8,,,,,,90,M,Володимир Нагалюк,,,,,,200,-205.5,205.5,205.5,,D,205.5
Raw,9,Kostyantin Elchenko,O,1978,Ukraine,88.7,,,,,,90,M,Костянтин Єльченко,,,,,,170,185,200,200,,D,200
Raw,10,Valeriy Lytovchenko,O,1948,Ukraine,89.4,,,,,,90,M,Валерій Литовченко,,,,,,180,190,-200,190,,D,190
Raw,11,Valeriy Kyrychenko,O,1981,Ukraine,87.6,,,,,,90,M,Валерій Кириченко,,,,,,170,175,185,185,,D,185
Raw,12,Leonid Kot,O,1950,Ukraine,89.5,,,,,,90,M,Леонід Кот,,,,,,150,160,170,170,,D,170
Raw,13,Egor Vasilev #1,O,1993,Ukraine,87.6,,,,,,90,M,Єгор Васильєв,,,,,,140,150,165,165,,D,165
Raw,14,Maxym Yasenyuk,O,1994,Ukraine,88.3,,,,,,90,M,Максим Ясенюк,,,,,,152.5,157.5,162.5,162.5,,D,162.5
Raw,15,Vladyslav Posnyk,O,1994,Ukraine,83.8,,,,,,90,M,Владислав Посник,,,,,,150,160,-170,160,,D,160
Raw,16,Maksim Samchuk,O,1994,Ukraine,88.2,,,,,,90,M,Максим Самчук,,,,,,152.5,157.5,,157.5,,D,157.5
Raw,1,Rinat Zaripov,M1,1970,Ukraine,90,,,,,,90,M,Рінат Заріпов,,,,,,255,267.5,275,275,,D,275
Raw,1,Volodymyr Nagalyuk,M4,1951,Ukraine,89.8,,,,,,90,M,Володимир Нагалюк,,,,,,200,-205.5,205.5,205.5,,D,205.5
Raw,1,Valeriy Lytovchenko,M5,1948,Ukraine,89.4,,,,,,90,M,Валерій Литовченко,,,,,,180,190,-200,190,,D,190
Raw,2,Leonid Kot,M5,1950,Ukraine,89.5,,,,,,90,M,Леонід Кот,,,,,,150,160,170,170,,D,170
Raw,1,Gennadiy Zotov,PFM,1985,Ukraine,89,,,,,,90,M,Геннадій Зотов,,,,,,252.5,265,-272.5,265,,D,265
Raw,1,Vitaliy Yerapart,T3,1991,Ukraine,98.7,,,,,,100,M,Віталій Єрапарт,,,,,,222.5,240,250,250,,D,250
Raw,2,Bogdan Shyshkevych,T3,1992,,96.3,,,,,,100,M,Богдан Шишкевич,,,,,,220,230,,230,,D,230
Raw,1,Anatoliy Khrabrov,J,1990,Ukraine,96.3,,,,,,100,M,Анатолій Храбров,,,,,,260,272.5,-282.5,272.5,,D,272.5
Raw,2,Andriy Goncharuk,J,1988,Ukraine,99.8,,,,,,100,M,Андрій Гончарук,,,,,,-270,270,-282.5,270,,D,270
Raw,3,Vitaliy Rishnyak,J,1989,Ukraine,94,,,,,,100,M,Віталій Ришняк,,,,,,230,240,250,250,,D,250
Raw,4,Leonid Klischevskiy,J,1988,,103.7,,,,,,110,M,Леонід Кліщевський,,,,,,220,230,240,240,,D,240
Raw,5,Artem Kuznetsov,J,1987,,97.7,,,,,,100,M,Артем Кузнецов,,,,,,220,-230,,220,,D,220
Raw,1,Anatoliy Khrabrov,O,1990,Ukraine,96.3,,,,,,100,M,Анатолій Храбров,,,,,,260,272.5,-282.5,272.5,,D,272.5
Raw,2,Andriy Goncharuk,O,1988,Ukraine,99.8,,,,,,100,M,Андрій Гончарук,,,,,,-270,270,-282.5,270,,D,270
Raw,3,Sergiy Besel,O,1984,Ukraine,100,,,,,,100,M,Сергій Бессель,,,,,,235,245,255,255,,D,255
Raw,4,Andriy Simeyko,O,1978,Ukraine,92.6,,,,,,100,M,Андрій Сімейко,,,,,,222.5,240,250,250,,D,250
Raw,5,Vitaliy Vovk,O,1975,Ukraine,93,,,,,,100,M,Віталій Вовк,,,,,,250,-260,,250,,D,250
Raw,6,Vitaliy Rishnyak,O,1989,Ukraine,94,,,,,,100,M,Віталій Ришняк,,,,,,230,240,250,250,,D,250
Raw,7,Vitaliy Yerapart,O,1991,Ukraine,98.7,,,,,,100,M,Віталій Єрапарт,,,,,,222.5,240,250,250,,D,250
Raw,8,Oleksandr Molodov,O,1972,Ukraine,94.3,,,,,,100,M,Олександр Молодов,,,,,,225,242.5,-245,242.5,,D,242.5
Raw,9,Leonid Klischevskiy,O,1988,,103.7,,,,,,110,M,Леонід Кліщевський,,,,,,220,230,240,240,,D,240
Raw,10,Bogdan Shyshkevych,O,1992,,96.3,,,,,,100,M,Богдан Шишкевич,,,,,,220,230,,230,,D,230
Raw,11,Oleksandr Lyubchyk,O,1977,,99.9,,,,,,100,M,Олександр Любчик,,,,,,220,225,,225,,D,225
Raw,12,Artem Kuznetsov,O,1987,,97.7,,,,,,100,M,Артем Кузнецов,,,,,,220,-230,,220,,D,220
Raw,13,Dmytro Negoda,O,1985,Ukraine,98.1,,,,,,100,M,Дмитро Негода,,,,,,200,220,-240,220,,D,220
Raw,14,Oleksandr Tolkachov,O,1970,Ukraine,99.6,,,,,,100,M,Олександр Толкачов,,,,,,200,210,220,220,,D,220
Raw,15,Sergiy Kolesnik,O,1963,Ukraine,100,,,,,,100,M,Сергій Колесник,,,,,,200,210,,210,,D,210
Raw,16,Oleksiy Lazinyuk,O,1983,Ukraine,94.5,,,,,,100,M,Олексій Лазінюк,,,,,,175,190,197.5,197.5,,D,197.5
Raw,17,Valeriy Babko,O,1941,Ukraine,93.5,,,,,,100,M,Валерій Бабко,,,,,,170,180,,180,,D,180
Raw,DQ,Borys Malov,O,1962,,91.1,,,,,,100,M,Борис Малов,,,,,,-220,,,,,D,
Raw,1,Oleksandr Tolkachov,M1,1970,Ukraine,99.6,,,,,,100,M,Олександр Толкачов,,,,,,200,210,220,220,,D,220
Raw,1,Sergiy Kolesnik,M2,1963,Ukraine,100,,,,,,100,M,Сергій Колесник,,,,,,200,210,,210,,D,210
Raw,DQ,Borys Malov,M2,1962,,91.1,,,,,,100,M,Борис Малов,,,,,,-220,,,,,D,
Raw,1,Valeriy Babko,M7,1941,Ukraine,93.5,,,,,,100,M,Валерій Бабко,,,,,,170,180,,180,,D,180
Raw,1,Vitaliy Vovk,PFM,1975,Ukraine,93,,,,,,100,M,Віталій Вовк,,,,,,250,-260,,250,,D,250
Raw,1,Yuriy Lunov,O,1971,Ukraine,103.7,,,,,,110,M,Юрій Луньов,,,,,,250,260,,260,,D,260
Raw,2,Vasyl' Sheremet,O,1962,Ukraine,110,,,,,,110,M,Василь Шеремет,,,,,,225,235,250,250,,D,250
Raw,1,Vasyl' Sheremet,M2,1962,Ukraine,110,,,,,,110,M,Василь Шеремет,,,,,,225,235,250,250,,D,250
Raw,1,Yuriy Lunov,PFM,1971,Ukraine,103.7,,,,,,110,M,Юрій Луньов,,,,,,250,260,,260,,D,260
Raw,1,Denis Poleschuk,J,1987,Ukraine,120,,,,,,125,M,Денис Полєщук,,,,,,255,-280,-280,255,,D,255
Raw,2,Dmytro Melnyk,J,1991,Ukraine,114.1,,,,,,125,M,Дмитро Мельник,,,,,,170,187.5,200,200,,D,200
Raw,1,Yuriy Spinov,O,1962,Ukraine,121.2,,,,,,125,M,Юрій Спінов,,,,,,285,310,317.5,317.5,,D,317.5
Raw,2,Andriy Smolnikov,O,1978,,113,,,,,,125,M,Андрій Смольников,,,,,,260,270,-275,270,,D,270
Raw,3,Denis Poleschuk,O,1987,Ukraine,120,,,,,,125,M,Денис Полєщук,,,,,,255,-280,-280,255,,D,255
Raw,4,Sergiy Galita,O,1979,Ukraine,112.6,,,,,,125,M,Сергій Галіта,,,,,,230,240,245,245,,D,245
Raw,5,Vasyl' Golivets',O,1960,,124.7,,,,,,125,M,Василь Голівець,,,,,,220,230,242.5,242.5,,D,242.5
Raw,6,Dmytro Melnyk,O,1991,Ukraine,114.1,,,,,,125,M,Дмитро Мельник,,,,,,170,187.5,200,200,,D,200
Raw,1,Yuriy Spinov,M2,1962,Ukraine,121.2,,,,,,125,M,Юрій Спінов,,,,,,285,310,317.5,317.5,,D,317.5
Raw,1,Vasyl' Golivets',M3,1960,,124.7,,,,,,125,M,Василь Голівець,,,,,,220,230,242.5,242.5,,D,242.5
