Equipment,Place,Name,Division,BirthYear,Country,BodyweightKg,Bench1Kg,Bench2Kg,Bench3Kg,Best3BenchKg,WeightClassKg,Sex,CyrillicName,Deadlift1Kg,Deadlift2Kg,Deadlift3Kg,Best3DeadliftKg,Event,TotalKg
Raw,1,Anastasiya Kolesha,Teen,2000,Ukraine,54.5,45,-50,-50,45,56,F,Анастасія Колеша,,,,,B,45
Raw,1,Svitlana Vorobyova,Open,1987,Ukraine,54.4,47.5,52.5,57.5,57.5,56,F,Світлана Воробйова,,,,,B,57.5
Raw,1,Inna Shinkaruk,Teen,2002,Ukraine,58.3,52.5,57.5,-60,57.5,60,F,Інна Шинкарук,,,,,B,57.5
Raw,1,Irina Klots,Open,1977,Ukraine,73.2,60,-65,-65,60,75,F,Ірина Кльоц,,,,,B,60
Raw,1,Andriy Slobodyanik,Teen,1999,Ukraine,66.1,120,-122.5,-122.5,120,67.5,M,Андрій Слободяник,,,,,B,120
Raw,2,Vladislav Gats,Teen,1999,Ukraine,67,100,-105,-105,100,67.5,M,Владислав Гаць,,,,,B,100
Raw,2,Sergiy Kovalchuk,Open,1989,Ukraine,64.8,100,105,110,110,67.5,M,Сергій Ковальчук,,,,,B,110
Raw,1,Andriy Slobodyanik,Open,1999,Ukraine,66.1,120,-122.5,-122.5,120,67.5,M,Андрій Слободяник,,,,,B,120
Raw,1,Vasyl' Suschyk,Juniors 20-23,1994,Ukraine,73.5,130,135,140,140,75,M,Василь Сущик,,,,,B,140
Raw,2,Vitaliy Zaets,Juniors 20-23,1992,Ukraine,71.9,-130,130,-132.5,130,75,M,Віталій Заєць,,,,,B,130
Raw,3,Oleksandr Boyalskiy,Juniors 20-23,1996,Ukraine,70.4,-120,120,-130,120,75,M,Олександр Бояльський,,,,,B,120
Raw,1,Mikola Garbuzyuk,Open,1991,Ukraine,71,135,145,-150,145,75,M,Микола Гарбузюк,,,,,B,145
Raw,1,Andriy Dzhukhil,Teen,1996,Ukraine,81.4,152.5,-162.5,-162.5,152.5,82.5,M,Андрій Джухиль,,,,,B,152.5
Raw,2,Mikola Rudiy,Teen,2000,Ukraine,78,65,67.5,72.5,72.5,82.5,M,Микола Рудий,,,,,B,72.5
Raw,1,Igor Panchuk,Juniors 20-23,1994,Ukraine,80.2,120,-127.5,127.5,127.5,82.5,M,Ігор Панчук,,,,,B,127.5
Raw,DQ,Anatoliy Pristupchuk,Juniors 20-23,1993,Ukraine,77.5,-117.5,-122.5,-122.5,,82.5,M,Анатолій Приступчук,,,,,B,
Raw,1,Mikhaylo Vervega,Open,1988,Ukraine,77.9,125,-130,-130,125,82.5,M,Михайло Вервега,,,,,B,125
Raw,1,Denis Bunchuk,Open,1989,Ukraine,89,200,210,-215,210,90,M,Денис Бунчук,,,,,B,210
Raw,2,Sergiy Ogorodnik,Open,1992,Ukraine,85.3,150,162.5,-165,162.5,90,M,Сергій Огороднік,,,,,B,162.5
Raw,3,Viktor Borin,Open,1989,Ukraine,86.6,145,150,152.5,152.5,90,M,Віктор Боринь,,,,,B,152.5
Raw,4,Oleksandr Pogodin,Open,1992,Ukraine,89.6,140,150,-160,150,90,M,Олександр Погодін,,,,,B,150
Raw,1,Valeriy Timachov,Juniors 20-23,1995,Ukraine,99.1,-145,150,160,160,100,M,Валерій Тімачов,,,,,B,160
Raw,1,Igor Danilov #1,Open,1985,Ukraine,93.7,-185,-190,190,190,100,M,Ігор Данилов,,,,,B,190
Raw,1,Oleksandr Lozko,Open,1987,Ukraine,98.4,-130,130,140,140,100,M,Олександр Лозко,,,,,B,140
Raw,1,Viktor Gats,Masters,1973,Ukraine,95.8,135,-137.5,-137.5,135,100,M,Віктор Гаць,,,,,B,135
Raw,DQ,Viktor Gosha,Teen,2001,Ukraine,113.3,-110,-120,-120,,100+,M,Віктор Гоша,,,,,B,
Raw,1,Denis Alekseenko,Juniors 20-23,1993,Ukraine,120.1,132.5,140,-145,140,100+,M,Денис Алексеєнко,,,,,B,140
Raw,1,Andriy Tkachuk,Open,1989,Ukraine,118.2,-200,200,-205,200,100+,M,Андрій Ткачук,,,,,B,200
Raw,2,Mikhaylo Schegolev,Open,1986,Ukraine,125.7,175,180,-192.5,180,100+,M,Михайло Щеголєв,,,,,B,180
Raw,1,Svitlana Vorobyova,Open,1987,Ukraine,54.4,,,,,56,F,Світлана Воробйова,100,115,125,125,D,125
Raw,1,Irina Klots,Open,1977,Ukraine,73.2,,,,,75,F,Ірина Кльоц,120,125,-127.5,125,D,125
Raw,2,Olena Kovalchuk,Open,1991,Ukraine,58,,,,,60,F,Олена Ковальчук,95,100,110,110,D,110
Raw,1,Maksim Fedorets,Youth,2008,Ukraine,35.1,,,,,52,M,Максим Федорець,30,40,45,45,D,45
Raw,1,Mykhaylo Khlupyanets,Juniors 20-23,1995,Ukraine,48.4,,,,,52,M,Михайло Хлуп'янець,105,112.5,120,120,D,120
Raw,1,Stanislav Tsivina,Teen,2000,Ukraine,61,,,,,67.5,M,Станіслав Цівина,120,130,135,135,D,135
Raw,1,Sergiy Kalchuk,Open,1989,Ukraine,64.8,,,,,67.5,M,Сергій Кальчук,150,160,170,170,D,170
Raw,2,Stanislav Tsivina,Open,2000,Ukraine,61,,,,,67.5,M,Станіслав Цівина,120,130,135,135,D,135
Raw,1,Ihor Hamarnik,Open,1988,Ukraine,70.4,,,,,75,M,Ігор Гамарник,190,210,-220,210,D,210
Raw,1,Vasil Neger,Teen,1997,Ukraine,75.4,,,,,82.5,M,Василь Негер,140,160,167.5,167.5,D,167.5
Raw,2,Oleksandr Visotskiy,Teen,1997,Ukraine,75.6,,,,,82.5,M,Олександр Висоцький,150,-167.5,-167.5,150,D,150
Raw,3,Mikola Rudiy,Teen,2000,Ukraine,78,,,,,82.5,M,Микола Рудий,110,115,120,120,D,120
Raw,1,Andriy Kuzmuk,Teen,1997,Ukraine,84.4,,,,,90,M,Андрій Кузьмук,210,-225,-225,210,D,210
Raw,1,Vitaliy Gerasimchuk,Juniors 20-23,1994,Ukraine,90,,,,,90,M,Віталій Герасимчук,230,240,250,250,D,250
Raw,1,Sergiy Ogorodnik,Open,1992,Ukraine,85.3,,,,,90,M,Сергій Огороднік,240,255,-262.5,255,D,255
Raw,2,Viktor Borinets,Open,1989,Ukraine,86.6,,,,,90,M,Віктор Боринец,180,200,215,215,D,215
Raw,3,Oleksandr Pogodin,Open,1992,Ukraine,89.6,,,,,90,M,Олександр Погодін,200,210,215,215,D,215
Raw,1,Mikhaylo Savenko,Juniors 20-23,1996,Ukraine,101.1,,,,,100+,M,Михайло Савенко,270,280,-290,280,D,280
Raw,2,Denis Alekseenko,Juniors 20-23,1993,Ukraine,120.1,,,,,100+,M,Денис Алексеєнко,200,210,217.5,217.5,D,217.5
Raw,1,Jorge-Seidu Tologa,Open,1989,Ukraine,122.7,,,,,100+,M,Жорж-Сейду Толога,280,305,320,320,D,320
Raw,2,Mikhaylo Savenko,Open,1996,Ukraine,101.1,,,,,100+,M,Михайло Савенко,270,280,-290,280,D,280
