Equipment,Tested,Place,Name,Division,BirthYear,Country,BodyweightKg,Squat1Kg,Squat2Kg,Squat3Kg,Best3SquatKg,Bench1Kg,Bench2Kg,Bench3Kg,Best3BenchKg,Deadlift1Kg,Deadlift2Kg,Deadlift3Kg,Best3DeadliftKg,TotalKg,WeightClassKg,Sex,CyrillicName,Event
Raw,Yes,1,Alona Vladi,O,1985,Russia,58.3,75,80,-90,80,50,55,60,60,95,105,107.5,107.5,247.5,60,F,Алона Влади,SBD
Raw,Yes,1,Galina Solovyanova,M1,1975,Russia,73.1,95,100,105,105,62.5,67.5,-72.5,67.5,100,110,-120,110,282.5,75,F,Галина Соловьянова,SBD
Raw,Yes,1,Daniil Voronin,T,2003,Russia,67.4,85,90,100,100,55,62.5,-65,62.5,90,100,105,105,267.5,75,M,Даниил Воронин,SBD
Raw,Yes,1,Aleksey Krasov,O,1983,Russia,66.65,125,132,137.5,137.5,115,122.5,-127.5,122.5,150,165,170,170,430,75,M,Алексей Красов,SBD
Raw,Yes,1,Margarita Pleschenkova,O,1992,Russia,72.45,80,85,90,90,40,50,-60,50,112.5,120,125,125,265,75,M,Маргарита Плещенкова,SBD
Raw,Yes,1,Sergey Timoshenko,T,2003,Russia,78.8,90,-95,100,100,60,-65,-67.5,60,90,105,115,115,275,85,M,Сергей Тимошенко,SBD
Raw,Yes,1,Vladimir Karavaev,M2,1961,Russia,79.65,50,150,180,180,50,100,-110,100,55,,,55,335,85,M,Владимир Караваев,SBD
Raw,Yes,1,Tatyana Altunina,O,1992,Russia,96.5,85,95,100,100,40,47.5,-50,47.5,115,130,140,140,287.5,105,F,Татьяна Алтунина,SBD
Raw,No,1,Ruslan Gasanov,O,1987,Russia,102.55,210,225,232.5,232.5,150,160,-165,160,240,260,-270,260,652.5,105,M,Руслан Гасанов,SBD
Wraps,Yes,1,Ekaterina Glukhova,O,1993,Russia,54.8,80,-95,-95,80,30,-35,37.5,37.5,85,-95,95,95,212.5,55,F,Екатерина Глухова,SBD
Wraps,Yes,1,Ruslan Gurbatov,O,1993,Russia,73.05,130,-140,140,140,100,107.5,,107.5,130,145,150,150,397.5,75,M,Руслан Гурбатов,SBD
Wraps,Yes,1,Denis Balotvin,O,1993,Russia,94.75,-180,-185,185,185,140,145,150,150,230,245,250,250,585,95,M,Денис Балотвин,SBD
Wraps,No,1,Yuriy Solovyev,O,1992,Russia,98.9,180,-200,210,210,140,150,157.5,157.5,190,200,217.5,217.5,585,105,M,Юрий Соловьев,SBD
Wraps,No,DQ,Aleksey Kazantsev,M1,1975,Russia,168.7,-250,-250,,,,,,,,,,,,135+,M,Алексей Казанцев,SBD
Raw,Yes,1,Aleksandr Shevchenko #7,O,1989,Russia,90.85,160,170,180,180,,,,,150,160,180,180,360,95,M,Александр Шевченко,SD
Raw,Yes,1,Anton Yurasov,O,1986,Russia,104.65,-200,200,220,220,,,,,220,230,240,240,460,105,M,Антон Юрасов,SD
Raw,Yes,1,Andrey Volokho,M1,1975,Russia,99.8,160,-170,,160,,,,,200,,,200,360,105,M,Андрей Волохо,SD
Raw,Yes,1,Sergey Zheleznyy,O,1987,Russia,86.45,,,,,120,-130,,120,160,180,-200,180,300,95,M,Сергей Железный,BD
Raw,Yes,1,Oleg Sizonov,M1,1971,Russia,89.1,,,,,80,-90,90,90,115,130,-140,130,220,95,M,Олег Сизонов,BD
Raw,Yes,1,Galina Nesterova,T,1999,Russia,49.45,,,,,,,,,-45,-45,45,45,45,51,F,Галина Нестерова,D
Raw,Yes,1,Liliya Loseva,T,2000,Russia,58.95,,,,,,,,,80,100,112.5,112.5,112.5,60,F,Лилия Лосева,D
Raw,Yes,2,Margarita Kucherova,T,2003,Russia,60,,,,,,,,,55,65,75,75,75,60,F,Маргарита Кучерова,D
Raw,Yes,1,Lyubov Aleksandrova,O,1987,Russia,58.95,,,,,,,,,115,125,135,135,135,60,F,Любовь Александрова,D
Raw,Yes,2,Inga Primiskaya,O,1984,Russia,59.05,,,,,,,,,85,90,-100,90,90,60,F,Инга Примиская,D
Raw,Yes,3,Darya Kalinina,O,1992,Russia,57.05,,,,,,,,,75,80,85,85,85,60,F,Дарья Калинина,D
Raw,Yes,1,Elizaveta Konontseva,O,1995,Russia,66,,,,,,,,,102.5,110,112.5,112.5,112.5,70,F,Елизавета Кононцева,D
Raw,Yes,1,Pavel Kazakov,T,2001,Russia,72,,,,,,,,,122.5,130,145,145,145,75,M,Павел Казаков,D
Raw,Yes,1,Mikhail Chernenko,J,1995,Russia,72.3,,,,,,,,,130,140,-150,140,140,75,M,Михаил Черненко,D
Raw,Yes,1,Mirazor Saidov,J,1998,Russia,83.25,,,,,,,,,200,220,230,230,230,85,M,Миразор Саидов,D
Raw,Yes,1,Mirazor Saidov,O,1998,Russia,83.25,,,,,,,,,200,220,230,230,230,85,M,Миразор Саидов,D
Raw,Yes,2,Timofey Kerpushor,O,2002,Russia,82.9,,,,,,,,,-195,215,-225,215,215,85,M,Тимофей Кэрпушор,D
Raw,Yes,1,Tatyana Altunina,O,1992,Russia,96.5,,,,,,,,,115,130,140,140,140,90+,F,Татьяна Алтунина,D
Raw,Yes,1,Aleksandr Kazakov,O,1982,Russia,91.1,,,,,,,,,215,230,-245,230,230,95,M,Александр Казаков,D
Raw,Yes,2,Egor Dvilyanskiy,O,1993,Russia,89.1,,,,,,,,,210,220,-230,220,220,95,M,Егор Двилянский,D
Raw,Yes,1,Vladimir Lukyanchikov,M2,1959,Russia,91.7,,,,,,,,,160,170,180,180,180,95,M,Владимир Лукьянчиков,D
Raw,Yes,1,Denis Svintitskiy,O,1994,Russia,104.8,,,,,,,,,260,275,285,285,285,105,M,Денис Свинтицкий,D
Raw,Yes,2,Denis Mazepa,O,1981,Russia,96.1,,,,,,,,,200,210,220,220,220,105,M,Денис Мазепа,D
Raw,Yes,1,Evgeniy Mikhalev,O,1988,Russia,116.55,,,,,,,,,-220,220,225.5,225.5,225.5,120,M,Евгений Михалев,D
Raw,No,1,Aleksey Kazantsev,M1,1975,Russia,168.7,,,,,,,,,200,230,255,255,255,120+,M,Алексей Казанцев,D
Raw,Yes,1,Darya Marmazinskaya,O,1994,Russia,42.55,,,,,42.5,45,-47.5,45,,,,,45,45,F,Дарья Мармазинская,B
Raw,Yes,DQ,Margarita Kucherova,T,2003,Russia,60,,,,,-42.5,-42.5,-42.5,,,,,,,60,F,Маргарита Кучерова,B
Raw,Yes,1,Inga Primiskaya,O,1984,Russia,59.05,,,,,47.5,-50,-50,47.5,,,,,47.5,60,F,Инга Примиская,B
Raw,Yes,1,Vladimir Platonov,O,1984,Russia,62.3,,,,,95,100,110,110,,,,,110,65,M,Владимир Платонов,B
Raw,Yes,1,Evgeniy Golovatenko,O,1994,Russia,68.55,,,,,115,-122.5,-125,115,,,,,115,75,M,Евгений Головатенко,B
Raw,Yes,2,Mikhail Chernenko,O,1995,Russia,72.3,,,,,100,102.5,105,105,,,,,105,75,M,Михаил Черненко,B
Raw,Yes,1,Andrey Kalinin,O,1984,Russia,80.6,,,,,162.5,167.5,-170,167.5,,,,,167.5,85,M,Андрей Калинин,B
Raw,Yes,2,Aleksandr Tsvilev,O,1987,Russia,82.6,,,,,140,145,-150,145,,,,,145,85,M,Александр Цвилев,B
Raw,Yes,3,Yuriy Anpilogov,O,1991,Russia,78.85,,,,,130,132.5,135,135,,,,,135,85,M,Юрий Анпилогов,B
Raw,Yes,4,Artem Pozhelenkov,O,1994,Russia,82.45,,,,,120,125,130,130,,,,,130,85,M,Артем Пожеленков,B
Raw,Yes,1,Dmitriy Sherman,M2,1964,Russia,78.75,,,,,120,130,135,135,,,,,135,85,M,Дмитрий Шерман,B
Raw,Yes,1,Ivan Ivashkin,T,2002,Russia,85.8,,,,,55,-65,65,65,,,,,65,95,M,Иван Ивашкин,B
Raw,Yes,1,Viktor Alesenko,O,1987,Russia,86.45,,,,,150,155,160,160,,,,,160,95,M,Виктор Алесенко,B
Raw,Yes,2,Artem Erashov,O,1992,Russia,86.55,,,,,150,-155,155,155,,,,,155,95,M,Артем Ерашов,B
Raw,Yes,3,Sergey Ermoshin,O,1986,Russia,92.85,,,,,145,152.5,157.5,157.5,,,,,157.5,95,M,Сергей Ермошин,B
Raw,Yes,4,Andrey Khalaev,O,1982,Russia,94.3,,,,,130,135,142.5,142.5,,,,,142.5,95,M,Андрей Халаев,B
Raw,Yes,5,Vladimir Zhernakov,O,1993,Russia,94.05,,,,,135,-140,145,145,,,,,145,95,M,Владимир Жернаков,B
Raw,Yes,1,Sergeey Maleev,O,1977,Russia,104.2,,,,,180,190,195,195,,,,,195,105,M,Сергеей Малеев,B
Raw,Yes,2,Artem Poluzhanov,O,1993,Russia,95.7,,,,,180,-185,185,185,,,,,185,105,M,Артем Полужанов,B
Raw,Yes,3,Artem Varnikov,O,1993,Russia,104.8,,,,,-175,180,-185,180,,,,,180,105,M,Артем Варников,B
Raw,Yes,4,Aleksey Mamchenko,O,1984,Russia,99.45,,,,,-145,150,160,160,,,,,160,105,M,Алексей Мамченко,B
Raw,Yes,5,Rafail Albaev,O,1980,Russia,100.45,,,,,150,-160,-165,150,,,,,150,105,M,Рафаиль Албаев,B
Raw,Yes,1,Yuriy Markelov,O,1982,Russia,105.8,,,,,150,160,165,165,,,,,165,120,M,Юрий Маркелов,B
Raw,Yes,1,Sergey Molchanov,M1,1973,Russia,108,,,,,155,165,175,175,,,,,175,120,M,Сергей Молчанов,B
Raw,Yes,1,Aleksandr Vasiltsov,O,1983,Russia,127.45,,,,,155,165,170,170,,,,,170,135,M,Александр Васильцов,B
Raw,No,1,Konstantin Frolikov,O,1990,Russia,82.45,,,,,145,150,155,155,,,,,155,85,M,Константин Фроликов,B
Raw,No,1,Ivan Zayakin,O,1983,Russia,86.7,,,,,-170,175,180,180,,,,,180,95,M,Иван Заякин,B
Raw,No,2,Sergey Belokhonov,O,1991,Russia,89.4,,,,,-155,155,165,165,,,,,165,95,M,Сергей Белохонов,B
Raw,No,3,Aleksandr Shevchenko #7,O,1989,Russia,90.85,,,,,125,130,140,140,,,,,140,95,M,Александр Шевченко,B
Raw,No,1,Aleksey Chmutov,O,1992,Russia,59.3,,,,,90,95,100,100,,,,,100,60,M,Алексей Чмутов,B
Raw,No,1,Dmitriy Apanasevich,O,1987,Russia,77.4,,,,,165,170,175,175,,,,,175,85,M,Дмитрий Апанасевич,B
