Equipment,Tested,Place,Name,Division,BirthYear,Country,BodyweightKg,Bench1Kg,Bench2Kg,Bench3Kg,Best3BenchKg,Bench4Kg,WeightClassKg,Sex,CyrillicName,Event,TotalKg,Deadlift1Kg,Deadlift2Kg,Deadlift3Kg,Best3DeadliftKg,Deadlift4Kg
Raw,Yes,1,Yuliya Sergeeva,O,1973,Russia,46,40,-45,-45,40,,48,F,Юлия Сергеева,B,40,,,,,
Raw,Yes,1,Elena Natorkina,M1,1973,Russia,47.3,47.5,-50,50,50,,48,F,Елена Наторкина,B,50,,,,,
Raw,Yes,1,Anastasiya Dzyuba,T1,2003,Russia,50.9,65,67.5,-72.5,67.5,,52,F,Анастасия Дзюба,B,67.5,,,,,
Raw,Yes,DQ,Yuliya Lokhmotkina,O,1987,Russia,51,-60,-62.5,-62.5,,,52,F,Юлия Лохмоткина,B,,,,,,
Raw,Yes,1,Margarita Mishlova,J,1994,Russia,55.15,70,-77.5,-77.5,70,,56,F,Маргарита Мишлова,B,70,,,,,
Raw,Yes,2,Yuliya Kirillova,J,1993,Belarus,54.1,57.5,62.5,-65,62.5,,56,F,,B,62.5,,,,,
Raw,Yes,1,Ekaterina Cherdakova,O,1983,Russia,55.15,65,-67.5,-67.5,65,,56,F,Екатерина Чердакова,B,65,,,,,
Raw,Yes,1,Tatyana Krotova,O,1986,Russia,59.5,80,82.5,-85,82.5,,60,F,Татьяна Кротова,B,82.5,,,,,
Raw,Yes,2,Elena Luchenetskaya,O,1978,Russia,57.25,65,67.5,-70,67.5,,60,F,Елена Лученецкая,B,67.5,,,,,
Raw,Yes,3,Svetlana Kladovschikova,O,1982,Russia,59.45,65,-70,-70,65,,60,F,Светлана Кладовщикова,B,65,,,,,
Raw,Yes,4,Lidiya Zakharova,O,1988,Russia,58.05,55,60,-65,60,,60,F,Лидия Захарова,B,60,,,,,
Raw,Yes,1,Viktoriya Epikhina,O,1991,Russia,65.8,65,72.5,-77.5,72.5,,67.5,F,Виктория Епихина,B,72.5,,,,,
Raw,Yes,DQ,Anastasiya Baydur,J,1992,Russia,74.05,-75,-75,,,,75,F,Анастасия Байдур,B,,,,,,
Raw,Yes,1,Irina Ogir,O,1985,Russia,74.9,85,-87.5,-87.5,85,,75,F,Ирина Огирь,B,85,,,,,
Raw,Yes,2,Anastasiya Baydur,O,1992,Russia,74.05,75,-80,80,80,,75,F,Анастасия Байдур,B,80,,,,,
Raw,Yes,1,Mariya Safronova,O,1989,Russia,81.9,60,65,-67.5,65,,82.5,F,Мария Сафронова,B,65,,,,,
Raw,Yes,1,Vladislav Sitdikov,J,1994,Russia,50.8,70,-77.5,-77.5,70,,52,M,Владислав Ситдиков,B,70,,,,,
Raw,Yes,1,Ivan Shorokhov,T2,1998,Russia,56,92.5,-95,-95,92.5,,56,M,Иван Шорохов,B,92.5,,,,,
Raw,Yes,1,Tigran Martirosov,O,1990,Russia,55.7,100,110,115,115,,56,M,Тигран Мартиросов,B,115,,,,,
Raw,Yes,1,Sergey Buryakov,O,1977,Russia,58.3,85,-90,92.5,92.5,,60,M,Сергей Буряков,B,92.5,,,,,
Raw,Yes,DQ,Aleksandr Zolotarev,T3,1997,Russia,65.7,-92.5,-92.5,-92.5,,,67.5,M,Александр Золотарев,B,,,,,,
Raw,Yes,1,Andrey Tsyganash,J,1996,Russia,66.65,105,115,120,120,,67.5,M,Андрей Цыганаш,B,120,,,,,
Raw,Yes,1,Ivan Gachenkov,T2,1998,Russia,71.1,-100,102.5,105,105,,75,M,Иван Гаченков,B,105,,,,,
Raw,Yes,1,Evgeniy Simbirskiy,O,1988,Russia,73.6,-180,180,-185,180,,75,M,Евгений Симбирский,B,180,,,,,
Raw,Yes,2,Ilya Varshavskiy,O,1991,Russia,74.4,165,170,172.5,172.5,,75,M,Илья Варшавский,B,172.5,,,,,
Raw,Yes,3,Konstantin Alekseychuk,O,1988,Russia,74.65,135,137.5,-140,137.5,,75,M,Константин Алексейчук,B,137.5,,,,,
Raw,Yes,4,Stanislav Pustovit,O,1986,Russia,73.95,130,-135,-135,130,,75,M,Станислав Пустовит,B,130,,,,,
Raw,Yes,5,Andrey Revyashko,O,1982,Russia,74.5,120,-125,-125,120,,75,M,Андрей Ревяшко,B,120,,,,,
Raw,Yes,1,Oleg Novikov,M2,1956,Russia,73.7,137.5,142.5,-145,142.5,,75,M,Олег Новиков,B,142.5,,,,,
Raw,Yes,1,Dmitriy Savelyev,PFM,1990,Russia,71.75,130,135,137.5,137.5,,75,M,Дмитрий Савельев,B,137.5,,,,,
Raw,Yes,2,Sergey Khromov,PFM,1991,Russia,71.85,130,135,137.5,137.5,,75,M,Сергей Хромов,B,137.5,,,,,
Raw,Yes,3,Sergey Schedrin,PFM,1985,Russia,72.45,125,130,-135,130,,75,M,Сергей Щедрин,B,130,,,,,
Raw,Yes,1,Dmitriy Kokhanovskiy,T2,1999,Russia,76.1,-100,100,-105,100,,82.5,M,Дмитрий Кохановский,B,100,,,,,
Raw,Yes,1,Maksim Minenkov,J,1996,Russia,77,135,140,-145,140,,82.5,M,Максим Миненков,B,140,,,,,
Raw,Yes,2,Oleg Kulakov,J,1994,Russia,78.55,140,-145,-147.5,140,,82.5,M,Олег Кулаков,B,140,,,,,
Raw,Yes,1,Ilya Pankratov,O,1986,Russia,79.65,195,202.5,210,210,,82.5,M,Илья Панкратов,B,210,,,,,
Raw,Yes,2,Fedor Zhirkov,O,1984,Russia,81.3,150,155,-157.5,155,,82.5,M,Федор Жирков,B,155,,,,,
Raw,Yes,3,Maksim Baydin,O,1986,Russia,79.3,152.5,-157.5,-160,152.5,,82.5,M,Максим Байдин,B,152.5,,,,,
Raw,Yes,4,Evgeniy Plaksin,O,1987,Russia,81.85,145,-150,-150,145,,82.5,M,Евгений Плаксин,B,145,,,,,
Raw,Yes,5,Dmitriy Kalatskiy,O,1980,Russia,79.2,135,-145,-145,135,,82.5,M,Дмитрий Калацкий,B,135,,,,,
Raw,Yes,6,Aleksey Fokin,O,1982,Russia,78.85,115,-122.5,-122.5,115,,82.5,M,Алексей Фокин,B,115,,,,,
Raw,Yes,1,Viktor Ovsyanyy,M2,1958,Russia,80.2,137.5,140,142.5,142.5,,82.5,M,Виктор Овсяный,B,142.5,,,,,
Raw,Yes,2,Oleg Pantin,M2,1961,Russia,80.75,135,-145,-145,135,,82.5,M,Олег Пантин,B,135,,,,,
Raw,Yes,1,Sergey Sivak,PFM,1979,Russia,78.35,-150,-150,150,150,,82.5,M,Сергей Сивак,B,150,,,,,
Raw,Yes,2,Aleksandr Boldinov,PFM,1992,Russia,79.5,140,150,-155,150,,82.5,M,Александр Болдинов,B,150,,,,,
Raw,Yes,3,Kirill Sadovnikov,PFM,1990,Russia,81.05,135,145,-150,145,,82.5,M,Кирилл Садовников,B,145,,,,,
Raw,Yes,1,Daniil Nasyrov,T2,1999,Russia,86.25,100,-115,-115,100,,90,M,Даниил Насыров,B,100,,,,,
Raw,Yes,1,Aleksey Zhuravlev,J,1993,,88.8,-145,150,-155,150,,90,M,Алексей Журавлев,B,150,,,,,
Raw,Yes,2,Konstantin Safronov,J,1993,Russia,86.95,140,-145,145,145,,90,M,Константин Сафронов,B,145,,,,,
Raw,Yes,3,Daniil Kryukov,J,1995,Russia,86.9,132.5,-142.5,-142.5,132.5,,90,M,Даниил Крюков,B,132.5,,,,,
Raw,Yes,1,Aleksandr Volgin,O,1987,Russia,88.3,182.5,185,-190,185,,90,M,Александр Волгин,B,185,,,,,
Raw,Yes,2,Aleksandr Shiyan,O,1981,Russia,88.2,160,165,170,170,,90,M,Александр Шиян,B,170,,,,,
Raw,Yes,3,Nikolay Bogdanov,O,1988,Russia,88.35,155,160,165,165,,90,M,Николай Богданов,B,165,,,,,
Raw,Yes,4,Dmitriy Korniltsev,O,1985,Russia,85.85,127.5,135,-140,135,,90,M,Дмитрий Корнильцев,B,135,,,,,
Raw,Yes,DQ,Teymuraz Vashakmadze,O,1982,Russia,89.3,-115,-120,-120,,,90,M,Теймураз Вашакмадзе,B,,,,,,
Raw,Yes,1,Sergey Korolev,M1,1972,Russia,88.6,135,-145,-145,135,,90,M,Сергей Королев,B,135,,,,,
Raw,Yes,2,Gennadiy Kamyshnikov,M1,1969,Russia,87.7,110,-120,-120,110,,90,M,Геннадий Камышников,B,110,,,,,
Raw,Yes,1,Andrey Salov,M2,1959,Russia,88.5,147.5,155,157.5,157.5,,90,M,Андрей Салов,B,157.5,,,,,
Raw,Yes,1,Pavel Belykh,PFM,1981,Russia,88.6,165,172.5,-177.5,172.5,,90,M,Павел Белых,B,172.5,,,,,
Raw,Yes,2,German Gridchin,PFM,1988,Russia,86.1,147.5,155,160,160,,90,M,Герман Гридчин,B,160,,,,,
Raw,Yes,3,Mikhail Zaborschikov,PFM,1986,Russia,85.5,145,155,-160,155,,90,M,Михаил Заборщиков,B,155,,,,,
Raw,Yes,1,David Matevosyan,T3,1996,Russia,96.3,200,-208.5,-208.5,200,,100,M,Давид Матевосян,B,200,,,,,
Raw,Yes,1,Anton Gevorkyan,J,1992,Russia,99,160,165,-170,165,,100,M,Антон Геворкян,B,165,,,,,
Raw,Yes,1,Ibragim Hamhoev,O,1985,Russia,98.8,200,215,220,220,,100,M,Ибрагим Хамхоев,B,220,,,,,
Raw,Yes,2,Maksim Dashkov,O,1989,Russia,98,180,192.5,-195,192.5,,100,M,Максим Дашков,B,192.5,,,,,
Raw,Yes,3,Alexandr Pagin,O,1978,Russia,95.8,180,185,190,190,,100,M,Александр Пагин,B,190,,,,,
Raw,Yes,4,Roman Vorobyev,O,1977,Russia,97,137.5,-142.5,142.5,142.5,,100,M,Роман Воробьев,B,142.5,,,,,
Raw,Yes,1,Oleg Korchagin,M1,1973,Russia,98.45,190,195,200,200,,100,M,Олег Корчагин,B,200,,,,,
Raw,Yes,2,Igor Svischev,M1,1973,Russia,99.1,192.5,200,-205,200,,100,M,Игорь Свищев,B,200,,,,,
Raw,Yes,1,Denis Matyushin,PFM,1984,Russia,99.75,170,180,-182.5,180,,100,M,Денис Матюшин,B,180,,,,,
Raw,Yes,1,Erik Mynka,T3,1996,Russia,104.85,165,170,-172.5,170,,110,M,Эрик Мынка,B,170,,,,,
Raw,Yes,1,Dmitriy Zheleznov,J,1993,Russia,108.65,-185,190,-197.5,190,,110,M,Дмитрий Железнов,B,190,,,,,
Raw,Yes,2,Stanislav Kurlyandtsev,J,1993,Russia,102.3,140,147.5,-150,147.5,,110,M,Станислав Курляндцев,B,147.5,,,,,
Raw,Yes,1,Evgeniy Chizhik,O,1990,Russia,106.2,185,200,-210,200,,110,M,Евгений Чижик,B,200,,,,,
Raw,Yes,2,Aleksandr Shlyakhitskiy,O,1980,Russia,103.2,155,-165,170,170,,110,M,Александр Шляхитский,B,170,,,,,
Raw,Yes,1,Evgeniy Veles,M1,1968,Russia,108.05,175,185,-195,185,,110,M,Евгений Велес,B,185,,,,,
Raw,Yes,2,Kirill Kharabadze,M1,1972,Russia,106.75,165,-170,170,170,,110,M,Кирилл Харабадзе,B,170,,,,,
Raw,Yes,3,Mikhail Shevyakov,M1,1974,Russia,103.55,160,-167.5,-167.5,160,,110,M,Михаил Шевяков,B,160,,,,,
Raw,Yes,1,Igor Kurotchenko,M2,1962,Russia,107.4,140,147.5,152.5,152.5,,110,M,Игорь Куротченко,B,152.5,,,,,
Raw,Yes,1,Sergey Vedenidov,PFM,1979,Russia,108.25,150,-160,-160,150,,110,M,Сергей Веденидов,B,150,,,,,
Raw,Yes,1,Ivan Serzhantov,J,1996,Russia,122.45,200,210,215,215,,125,M,Иван Сержантов,B,215,,,,,
Raw,Yes,1,Ivan Regulyarnyy,O,1984,Russia,116,197.5,205,-210,205,,125,M,Иван Регулярный,B,205,,,,,
Raw,Yes,2,Sergey Bobchikhin,O,1975,Russia,117.7,-205,205,-212.5,205,,125,M,Сергей Бобчихин,B,205,,,,,
Raw,Yes,3,Nikolay Fadeev,O,1977,Russia,120.35,185,190,-192.5,190,,125,M,Николай Фадеев,B,190,,,,,
Raw,Yes,4,Pavel Trishonkov,O,1988,Russia,120.5,155,170,177.5,177.5,,125,M,Павел Тришонков,B,177.5,,,,,
Raw,Yes,1,Sergey Bobchikhin,M1,1975,Russia,117.7,-205,205,-212.5,205,,125,M,Сергей Бобчихин,B,205,,,,,
Raw,Yes,2,Vyacheslav Batyrov,M1,1975,Russia,122.7,165,175,177.5,177.5,,125,M,Вячеслав Батыров,B,177.5,,,,,
Raw,Yes,1,Evgeniy Zuykov,J,1994,Russia,125.5,190,-195,-195,190,,140,M,Евгений Зуйков,B,190,,,,,
Raw,Yes,1,Andrey Khramtsov,O,1984,Russia,129.95,210,-225,225,225,,140,M,Андрей Храмцов,B,225,,,,,
Raw,Yes,2,Konstantin Bogdanov,O,1976,Russia,136.1,185,192.5,197.5,197.5,,140,M,Константин Богданов,B,197.5,,,,,
Raw,Yes,3,Aleksey Galygin,O,1977,Russia,135.8,177.5,182.5,-192.5,182.5,,140,M,Алексей Галыгин,B,182.5,,,,,
Raw,Yes,1,Konstantin Bogdanov,M1,1976,Russia,136.1,185,192.5,197.5,197.5,,140,M,Константин Богданов,B,197.5,,,,,
Raw,Yes,2,Aleksey Shoniya,M1,1970,Russia,135.7,165,175,-185,175,,140,M,Алексей Шония,B,175,,,,,
Raw,Yes,1,Igor Khutorov,M2,1963,Russia,133.9,202.5,207.5,-210,207.5,,140,M,Игорь Хуторов,B,207.5,,,,,
Raw,Yes,1,Roman Mishurenkov,O,1982,Russia,143.6,200,210,215,215,,140+,M,Роман Мишуренков,B,215,,,,,
Raw,No,1,Natalya Klementyeva,O,1980,Russia,50.55,55,60,-62.5,60,,52,F,Наталья Клементьева,B,60,,,,,
Raw,No,1,Darya Akimova,O,1991,Russia,58.8,45,-50,-50,45,,60,F,Дарья Акимова,B,45,,,,,
Raw,No,2,Natalya Dineeva,O,1982,Russia,57.9,35,37.5,-40,37.5,,60,F,Наталья Динеева,B,37.5,,,,,
Raw,No,1,Raisa Sharueva,O,1983,Russia,63.8,75,80,-82.5,80,,67.5,F,Раиса Шаруева,B,80,,,,,
Raw,No,1,Anastasiya Blinova,O,1999,Russia,74.25,82.5,90,-92.5,90,,75,F,Анастасия Блинова,B,90,,,,,
Raw,No,1,Arseniy Seregin,T1,2002,Russia,66.05,70,75,80,80,,67.5,M,Арсений Серегин,B,80,,,,,
Raw,No,1,Ilya Shikhov,T3,1996,Russia,67.35,-90,95,-100,95,,67.5,M,Илья Шихов,B,95,,,,,
Raw,No,1,Nikolay Prokaev,O,1987,Russia,65.85,90,100,107.5,107.5,,67.5,M,Николай Прокаев,B,107.5,,,,,
Raw,No,1,Maksim Kanapiev,O,1987,Russia,73.2,150,-155,-157.5,150,,75,M,Максим Канапиев,B,150,,,,,
Raw,No,2,Nikolay Masnukha,O,1982,Russia,72.3,145,-155,-155,145,,75,M,Николай Маснуха,B,145,,,,,
Raw,No,1,Maksim Rodin,PFM,1988,Russia,74.35,160,170,-172.5,170,,75,M,Максим Родин,B,170,,,,,
Raw,No,1,Andrey Scherbanev,T3,1996,Russia,81.1,90,97.5,102.5,102.5,,82.5,M,Андрей Щербанев,B,102.5,,,,,
Raw,No,1,Daniil Arzhakov,J,1995,Russia,81.75,175,-180,-180,175,,82.5,M,Даниил Аржаков,B,175,,,,,
Raw,No,1,Maksim Pytkin,O,1992,Russia,81.15,175,-182.5,-182.5,175,,82.5,M,Максим Пыткин,B,175,,,,,
Raw,No,2,Mikhail Alekhin,O,1987,Russia,80.35,165,172.5,-177.5,172.5,,82.5,M,Михаил Алехин,B,172.5,,,,,
Raw,No,3,Konstantin Zhigulin,O,1987,Russia,81,-160,160,-167.5,160,,82.5,M,Константин Жигулин,B,160,,,,,
Raw,No,4,Nikolay Petrakovich,O,1979,Russia,77.9,120,125,130,130,,82.5,M,Николай Петракович,B,130,,,,,
Raw,No,1,Mikhail Korochkin,M1,1967,Russia,81.15,150,160,167.5,167.5,,82.5,M,Михаил Корочкин,B,167.5,,,,,
Raw,No,1,Yuriy Babarykin,M2,1958,Russia,81.6,110,115,-120,115,,82.5,M,Юрий Бабарыкин,B,115,,,,,
Raw,No,1,Stanislav Nagibin,T3,1996,Russia,88.1,167.5,180,-182.5,180,,90,M,Станислав Нагибин,B,180,,,,,
Raw,No,2,Vitaliy Korobkov,T3,1997,Russia,84.15,155,160,-165,160,,90,M,Виталий Коробков,B,160,,,,,
Raw,No,1,Anton Spilnyuk,J,1992,Russia,86.05,-155,165,172.5,172.5,,90,M,Антон Спильнюк,B,172.5,,,,,
Raw,No,2,Denis Sinelnikov,J,1994,Russia,87.6,157.5,-165,165,165,,90,M,Денис Синельников,B,165,,,,,
Raw,No,3,Ruben Kazaryan,J,1995,Russia,86.95,-160,160,-167.5,160,,90,M,Рубен Казарян,B,160,,,,,
Raw,No,4,Rinat Khusainov,J,1993,Russia,87.65,145,152.5,-162.5,152.5,,90,M,Ринат Хусаинов,B,152.5,,,,,
Raw,No,1,Stanislav Kochkin,O,1991,Russia,90,-192.5,-192.5,192.5,192.5,,90,M,Станислав Кочкин,B,192.5,,,,,
Raw,No,2,Dmitriy Petrov,O,1986,Russia,89.95,182.5,187.5,-192.5,187.5,,90,M,Дмитрий Петров,B,187.5,,,,,
Raw,No,3,Nikolay Afanasov,O,1989,Russia,88.5,155,-162.5,162.5,162.5,,90,M,Николай Афанасов,B,162.5,,,,,
Raw,No,4,Roman Churkin,O,1978,Russia,88.55,150,-155,-155,150,,90,M,Роман Чуркин,B,150,,,,,
Raw,No,1,Aleksey Derbunov,O,1986,Russia,87.1,147.5,-155,-155,147.5,,90,M,Алексей Дербунов,B,147.5,,,,,
Raw,No,1,Eduard Martirosov,J,1995,Russia,96.15,180,187.5,-192.5,187.5,,100,M,Эдуард Мартиросов,B,187.5,,,,,
Raw,No,2,Bogdan Karpyuk,J,1992,Russia,92.6,-160,160,172.5,172.5,,100,M,Богдан Карпюк,B,172.5,,,,,
Raw,No,3,Dmitriy Chernov,J,1995,Russia,92.3,170,-175,-175,170,,100,M,Дмитрий Чернов,B,170,,,,,
Raw,No,1,Yuriy Belkov,O,1987,Russia,98,-235,235,245,245,,100,M,Юрий Бельков,B,245,,,,,
Raw,No,2,Roman Semenov,O,1979,Russia,98.5,200,205,210,210,,100,M,Роман Семенов,B,210,,,,,
Raw,No,3,Aleksey Melnikov,O,1987,Russia,95.55,195,200,-205,200,,100,M,Алексей Мельников,B,200,,,,,
Raw,No,4,Viktor Moskvin,O,1984,Russia,96.6,162.5,-165,165,165,,100,M,Виктор Москвин,B,165,,,,,
Raw,No,1,Vladislav Duminika,M1,1972,Russia,97.3,195,200,-202.5,200,,100,M,Владислав Думиника,B,200,,,,,
Raw,No,2,Andrey Grigoryev,M1,1975,Russia,99.05,195,-202.5,-202.5,195,,100,M,Андрей Григорьев,B,195,,,,,
Raw,No,3,Konstantin Topychkanov,M1,1972,Russia,99.45,175,-185,190,190,,100,M,Константин Топычканов,B,190,,,,,
Raw,No,1,Dmitriy Semenov,M2,1965,Russia,92.6,150,-160,-160,150,,100,M,Дмитрий Семенов,B,150,,,,,
Raw,No,1,Georgiy Gatitskiy,PFM,1982,Russia,97.3,180,190,-192.5,190,,100,M,Георгий Гатицкий,B,190,,,,,
Raw,No,1,Sergey Martsinkan,J,1996,Russia,107.95,190,-200,-200,190,,110,M,Сергей Марцинкан,B,190,,,,,
Raw,No,1,Denis Solokhin,O,1981,Russia,109.4,200,210,215,215,,110,M,Денис Солохин,B,215,,,,,
Raw,No,2,Viktor Eliseev,O,1987,Russia,104.2,200,210,212.5,212.5,,110,M,Виктор Елисеев,B,212.5,,,,,
Raw,No,3,Dmitriy Yablonovskiy,O,1987,Russia,104.3,202.5,210,-215,210,,110,M,Дмитрий Яблоновский,B,210,,,,,
Raw,No,4,Sergey Kolganov,O,1978,Russia,106.2,160,170,175,175,,110,M,Сергей Колганов,B,175,,,,,
Raw,No,5,Ivan Safonov,O,1986,Russia,108.15,-170,170,-175,170,,110,M,Иван Сафонов,B,170,,,,,
Raw,No,DQ,Dmitriy Mukhin,O,1983,Russia,108.15,-210,-210,,,,110,M,Дмитрий Мухин,B,,,,,,
Raw,No,1,Aleksey Kovrigin,M1,1975,Russia,101.5,190,-195,-195,190,,110,M,Алексей Ковригин,B,190,,,,,
Raw,No,2,Valeriy Chernov #1,M1,1969,Russia,105.8,160,-167.5,167.5,167.5,,110,M,Валерий Чернов,B,167.5,,,,,
Raw,No,1,Artem Golovin,PFM,1977,Russia,102.5,180,190,195,195,,110,M,Артем Головин,B,195,,,,,
Raw,No,2,Aleksey Danilin,PFM,1982,Russia,103.85,170,180,-190,180,,110,M,Алексей Данилин,B,180,,,,,
Raw,No,3,Kirill Ostapenko,PFM,1977,Russia,104,170,180,-190,180,,110,M,Кирилл Остапенко,B,180,,,,,
Raw,No,4,Dmitriy Sukhov,PFM,1975,Russia,101.75,165,170,-177.5,170,,110,M,Дмитрий Сухов,B,170,,,,,
Raw,No,1,Mikhail Samoylov,J,1995,Russia,119.75,150,,,150,,125,M,Михаил Самойлов,B,150,,,,,
Raw,No,1,Aleksey Markelov,O,1984,Russia,111.6,242.5,-247.5,-247.5,242.5,,125,M,Алексей Маркелов,B,242.5,,,,,
Raw,No,2,Aleksey Karpikov,O,1979,Russia,115.8,230,235,-240,235,,125,M,Алексей Карпиков,B,235,,,,,
Raw,No,3,Ilya Kalininskiy,O,1989,Russia,113.4,225,232.5,-235,232.5,,125,M,Илья Калининский,B,232.5,,,,,
Raw,No,4,Alexander Panaskin,O,1991,Russia,113.7,200,205,-210,205,,125,M,Александр Панаскин,B,205,,,,,
Raw,No,5,Roman Fedorov,O,1992,Russia,122.1,190,200,-205,200,,125,M,Роман Федоров,B,200,,,,,
Raw,No,1,Anatoliy Logunov,M2,1953,Russia,113.7,155,-162.5,-162.5,155,,125,M,Анатолий Логунов,B,155,,,,,
Raw,No,2,Grigoriy Tsyganskiy,M2,1957,Russia,110.9,150,-160,-160,150,,125,M,Григорий Цыганский,B,150,,,,,
Raw,No,1,Albert Mustafin,PFM,1986,Russia,114,190,200,207.5,207.5,,125,M,Альберт Мустафин,B,207.5,,,,,
Raw,No,2,Denis Nagibin,PFM,1986,Russia,123.8,180,190,-192.5,190,,125,M,Денис Нагибин,B,190,,,,,
Unlimited,Yes,1,Irina Bryukhanova,O,1984,Russia,47.25,70,80,-82.5,80,,48,F,Ирина Брюханова,B,80,,,,,
Unlimited,Yes,1,Kseniya Nikitina,T3,1996,Russia,52,-75,75,-85,75,,52,F,Ксения Никитина,B,75,,,,,
Unlimited,Yes,1,Marina Zelenina,O,1984,Russia,51.45,60,70,-75,70,,52,F,Марина Зеленина,B,70,,,,,
Unlimited,Yes,1,Elena Prokopova,M2,1966,Russia,62.6,42.5,47.5,50,50,,67.5,F,Елена Прокопова,B,50,,,,,
Unlimited,Yes,1,Marina Sinotova,O,1988,Russia,71.8,100,-105,-105,100,,75,F,Марина Синотова,B,100,,,,,
Unlimited,Yes,1,Rinat Khuzin,O,1969,Russia,66.85,157.5,-182.5,182.5,182.5,,67.5,M,Ринат Хузин,B,182.5,,,,,
Unlimited,Yes,1,Rinat Khuzin,M1,1969,Russia,66.85,157.5,-182.5,182.5,182.5,,67.5,M,Ринат Хузин,B,182.5,,,,,
Unlimited,Yes,1,Ivan Gachenkov,T2,1998,Russia,71.25,-120,120,132.5,132.5,,75,M,Иван Гаченков,B,132.5,,,,,
Unlimited,Yes,1,Evgeniy Chekulaev,T3,1997,Russia,74.45,100,105,110,110,,75,M,Евгений Чекулаев,B,110,,,,,
Unlimited,Yes,1,Ilya Varshavskiy,O,1991,Russia,74.2,-202.5,202.5,210,210,,75,M,Илья Варшавский,B,210,,,,,
Unlimited,Yes,1,Mikhail Kiselev,J,1992,Russia,81.7,180,-192.5,-192.5,180,,82.5,M,Михаил Киселев,B,180,,,,,
Unlimited,Yes,DQ,Kirill Sukharev,J,1993,Russia,81.95,-190,-190,-190,,,82.5,M,Кирилл Сухарев,B,,,,,,
Unlimited,Yes,DQ,Kirill Sukharev,O,1993,Russia,81.95,-190,-190,-190,,,82.5,M,Кирилл Сухарев,B,,,,,,
Unlimited,Yes,1,Denis Akimov,O,1988,Russia,84.4,170,180,-190,180,,90,M,Денис Акимов,B,180,,,,,
Unlimited,Yes,2,Viktor Chekulaev,O,1985,Russia,87.9,162.5,170,177.5,177.5,,90,M,Виктор Чекулаев,B,177.5,,,,,
Unlimited,Yes,1,Gennadiy Kamyshnikov,M1,1969,Russia,86.7,140,155,160,160,,90,M,Геннадий Камышников,B,160,,,,,
Unlimited,Yes,1,Dmitriy Vasilenko,O,1975,Russia,97.25,240,-252.5,252.5,252.5,,100,M,Дмитрий Василенко,B,252.5,,,,,
Unlimited,Yes,2,Vitaliy Atmeneev,O,1986,Russia,99.1,210,-220,-220,210,,100,M,Виталий Атминеев,B,210,,,,,
Unlimited,Yes,3,Ruslan Galeev,O,1987,Russia,98.6,180,192.5,-200,192.5,,100,M,Руслан Галеев,B,192.5,,,,,
Unlimited,Yes,4,Konstantin Kozlov,O,1990,Russia,97.1,150,160,-170,160,,100,M,Константин Козлов,B,160,,,,,
Unlimited,Yes,1,Dmitriy Vasilenko,M1,1975,Russia,97.25,240,-252.5,252.5,252.5,,100,M,Дмитрий Василенко,B,252.5,,,,,
Unlimited,Yes,1,Mikhail Prokopov,M2,1956,Russia,98.65,200,210,220,220,,100,M,Михаил Прокопов,B,220,,,,,
Unlimited,Yes,1,Roman Yurasov,O,1976,Russia,109.2,275,285,-300,285,,110,M,Роман Юрасов,B,285,,,,,
Unlimited,Yes,2,Konstantin Vorobyev,O,1991,Russia,107.9,180,-190,-190,180,,110,M,Константин Воробьев,B,180,,,,,
Unlimited,Yes,3,Artem Artyukhov,O,1987,Russia,109.7,172.5,177.5,-182.5,177.5,,110,M,Артем Артюхов,B,177.5,,,,,
Unlimited,Yes,1,Vladislav Savitskiy #1,M1,1976,Russia,104.8,210,220,-230,220,,110,M,Владислав Савицкий,B,220,,,,,
Unlimited,Yes,1,Artem Artyukhov,PFM,1987,Russia,109.7,172.5,177.5,-182.5,177.5,,110,M,Артем Артюхов,B,177.5,,,,,
Unlimited,Yes,1,Denis Ogloblin,O,1967,Russia,121.5,235,-245,245,245,,125,M,Денис Оглоблин,B,245,,,,,
Unlimited,Yes,1,Denis Ogloblin,M1,1967,Russia,121.5,235,-245,245,245,,125,M,Денис Оглоблин,B,245,,,,,
Unlimited,Yes,2,Aleksey Petrov,M1,1975,Russia,124.2,160,-170,-170,160,,125,M,Алексей Петров,B,160,,,,,
Unlimited,Yes,1,Aleksey Petrov,PFM,1975,Russia,124.2,160,-170,-170,160,,125,M,Алексей Петров,B,160,,,,,
Unlimited,Yes,1,Kirill Kozlov,O,1986,Russia,135.8,240,-257.5,-257.5,240,,140,M,Кирилл Козлов,B,240,,,,,
Unlimited,Yes,1,Roman Mishurenkov,O,1982,Russia,143.6,240,250,260,260,,140+,M,Роман Мишуренков,B,260,,,,,
Unlimited,No,1,Elena Shushura,M1,1976,Russia,71.8,75,85,-90,85,,75,F,Елена Шушура,B,85,,,,,
Unlimited,No,1,Nikolay Prokaev,O,1987,Russia,65.85,90,100,107.5,107.5,,67.5,M,Николай Прокаев,B,107.5,,,,,
Unlimited,No,1,Yuriy Kolesnikov #1,O,1981,Russia,74.45,-160,160,-175,160,,75,M,Юрий Колесников,B,160,,,,,
Unlimited,No,1,Semen Lebedev,O,1986,Russia,82.45,150,-160,-170,150,,82.5,M,Семен Лебедев,B,150,,,,,
Unlimited,No,1,Sergey Myachik,O,1979,Russia,87.45,240,-250,-250,240,,90,M,Сергей Мячик,B,240,,,,,
Unlimited,No,1,Eduard Belyanin,PFM,1974,Russia,87.85,180,-200,200,200,,90,M,Эдуард Белянин,B,200,,,,,
Unlimited,No,1,Ilya Katigaridi,T3,1997,Russia,92.7,150,160,-170,160,,100,M,Илья Катигариди,B,160,,,,,
Unlimited,No,1,Pavel Leonov,O,1983,Russia,95.1,300,-310,-320,300,,100,M,Павел Леонов,B,300,,,,,
Unlimited,No,1,Igor Solomichev,M1,1967,Russia,93.1,220,-230,-230,220,,100,M,Игорь Соломичев,B,220,,,,,
Unlimited,No,1,Yaroslav Golubev,O,1980,Russia,109.1,300,-317.5,-317.5,300,,110,M,Ярослав Голубев,B,300,,,,,
Unlimited,No,1,Sergey Ivanchikov,O,1977,Russia,117.75,272.5,-285,285,285,290,125,M,Сергей Иванчиков,B,285,,,,,
Unlimited,No,2,Anton Chilikin,O,1992,Russia,111.7,220,245,-272.5,245,,125,M,Антон Чиликин,B,245,,,,,
Unlimited,No,1,Dmitriy Shabalin #1,O,1969,Russia,135.85,315,330,335,335,,140,M,Дмитрий Шабалин,B,335,,,,,
Unlimited,No,2,Roman Zalutskiy,O,1979,Russia,128.8,315,325,-330,325,,140,M,Роман Залуцкий,B,325,,,,,
Unlimited,No,1,Dmitriy Shabalin #1,M1,1969,Russia,135.85,315,330,335,335,,140,M,Дмитрий Шабалин,B,335,,,,,
Unlimited,No,1,Vyacheslav Solovyev,O,1976,Russia,163,342.5,370,380,380,,140+,M,Вячеслав Соловьев,B,380,,,,,
Single-ply,Yes,1,Konstantin Alekseychuk,O,1988,Russia,74.65,140,-155,,140,,75,M,Константин Алексейчук,B,140,,,,,
Single-ply,Yes,1,Vladimir Konchakov,O,1973,Russia,87.2,220,-230,-230,220,,90,M,Владимир Кончаков,B,220,,,,,
Single-ply,Yes,1,Vladimir Konchakov,M1,1973,Russia,87.2,220,-230,-230,220,,90,M,Владимир Кончаков,B,220,,,,,
Single-ply,Yes,1,Aleksey Krasovskiy,M1,1974,Russia,96,135,142.5,-145,142.5,,100,M,Алексей Красовский,B,142.5,,,,,
Single-ply,Yes,1,Dmitriy Bubyr,O,1981,Russia,107.3,205,212.5,-220,212.5,,110,M,Дмитрий Бубырь,B,212.5,,,,,
Single-ply,Yes,1,Evgeniy Baranov,O,1982,Russia,124.05,270,-285,-290,270,,125,M,Евгений Баранов,B,270,,,,,
Single-ply,No,1,Svetlana Tyatkova,O,1979,Russia,57.2,40,45,50,50,,60,F,Светлана Тятькова,B,50,,,,,
Single-ply,No,1,Nikolay Prokaev,O,1987,Russia,65.85,90,100,107.5,107.5,,67.5,M,Николай Прокаев,B,107.5,,,,,
Single-ply,No,1,Yuriy Churin,O,1971,Russia,74.8,202.5,207.5,210,210,,75,M,Юрий Чурин,B,210,,,,,
Single-ply,No,1,Yuriy Churin,M1,1971,Russia,74.8,202.5,207.5,210,210,,75,M,Юрий Чурин,B,210,,,,,
Single-ply,No,1,Yuriy Eremin,O,1983,Russia,78.75,205,220,230,230,,82.5,M,Юрий Еремин,B,230,,,,,
Single-ply,No,2,Sergey Artyukhov,O,1987,Russia,79.75,152.5,162.5,-180,162.5,,82.5,M,Сергей Артюхов,B,162.5,,,,,
Single-ply,No,1,Sergey Kandaurov,M1,1974,Russia,82.45,170,-180,182.5,182.5,,82.5,M,Сергей Кандауров,B,182.5,,,,,
Single-ply,No,1,Dmitriy Mayorov,O,1988,Russia,83.15,190,200,210,210,,90,M,Дмитрий Майоров,B,210,,,,,
Single-ply,No,1,Sergey Chikin,O,1976,,91.5,240,245,-250,245,,100,M,Сергей Чикин,B,245,,,,,
Single-ply,No,2,Vyacheslav Lotsken,O,1986,Russia,96.75,115,-125.5,125.5,125.5,,100,M,Вячеслав Лоцкен,B,125,,,,,
Single-ply,No,1,Sergey Popov #7,M1,1974,Russia,91,230,235,-240,235,,100,M,Сергей Попов,B,235,,,,,
Single-ply,No,1,Ivan Poryadin,O,1982,Russia,100.6,-280,290,,290,,110,M,Иван Порядин,B,290,,,,,
Single-ply,No,2,Andrey Chebykin,O,1976,Russia,107.9,250,270,-280,270,,110,M,Андрей Чебыкин,B,270,,,,,
Single-ply,No,1,Andrey Chebykin,M1,1976,Russia,107.9,250,270,-280,270,,110,M,Андрей Чебыкин,B,270,,,,,
Single-ply,No,1,Nikolay Timofeev,O,1982,Russia,123.7,250,260,270,270,,125,M,Николай Тимофеев,B,270,,,,,
Raw,Yes,1,Ekaterina Pavlova,O,1990,Russia,42.9,,,,,,44,F,Екатерина Павлова,D,70,70,-80,-80,70,
Raw,Yes,1,Viktoriya Sukhanova,O,1988,Russia,46.15,,,,,,48,F,Виктория Суханова,D,95,77.5,82.5,95,95,
Raw,Yes,2,Nadezhda Barsukova,O,1983,Russia,46.95,,,,,,48,F,Надежда Барсукова,D,95,95,-107.5,-107.5,95,
Raw,Yes,1,Anastasiya Dzyuba,T1,2003,Russia,50.6,,,,,,52,F,Анастасия Дзюба,D,115,105,110,115,115,
Raw,Yes,1,Yuliya Nenartovich,O,1988,Russia,50.3,,,,,,52,F,Юлия Ненартович,D,117.5,105,112.5,117.5,117.5,
Raw,Yes,2,Elizaveta Spiridonova,O,1987,Russia,51.45,,,,,,52,F,Елизавета Спиридонова,D,115,100,107.5,115,115,
Raw,Yes,1,Kristina Dobrya,O,1989,Russia,55.3,,,,,,56,F,Кристина Добря,D,137.5,130,137.5,-142.5,137.5,
Raw,Yes,2,Galina Netrebina,O,1978,Russia,56,,,,,,56,F,Галина Нетребина,D,110,110,-122.5,-122.5,110,
Raw,Yes,1,Galina Bocharova,J,1992,Russia,58.5,,,,,,60,F,Галина Бочарова,D,130,130,-140,-140,130,
Raw,Yes,1,Svetlana Okhapkina,O,1977,Russia,59.35,,,,,,60,F,Светлана Охапкина,D,170,165,-170,170,170,
Raw,Yes,2,Elena Bedretdinova,O,1978,Russia,58.2,,,,,,60,F,Елена Бедретдинова,D,140,130,140,-145,140,
Raw,Yes,3,Lyudmila Ryamaeva,O,1980,Russia,58.45,,,,,,60,F,Людмила Рямаева,D,137.5,130,137.5,-145,137.5,
Raw,Yes,4,Olga Kasyanova,O,1984,Russia,59.15,,,,,,60,F,Ольга Касьянова,D,132.5,115,120,132.5,132.5,
Raw,Yes,5,Svetlana Klepikova,O,1988,Russia,57.65,,,,,,60,F,Светлана Клепикова,D,120,-100,115,120,120,
Raw,Yes,1,Natalya Larina,M2,1964,Russia,59.8,,,,,,60,F,Наталья Ларина,D,105,80,-90,105,105,
Raw,Yes,1,Arina Valitskaya,O,1990,Russia,64.5,,,,,,67.5,F,Арина Валицкая,D,140,125,-135,140,140,
Raw,Yes,2,Natalya Pozdnyakova,O,1984,Russia,61.65,,,,,,67.5,F,Наталья Позднякова,D,110,100,110,-125,110,
Raw,Yes,1,Natalya Lavrischeva,M1,1974,Russia,67.5,,,,,,67.5,F,Наталья Лаврищева,D,95,85,90,95,95,
Raw,Yes,1,Oksana Fomenko,O,1988,Russia,69.1,,,,,,75,F,Оксана Фоменко,D,145,135,145,-155,145,
Raw,Yes,1,Veronika Ukolova,O,1997,Russia,117.9,,,,,,90+,F,Вероника Уколова,D,150,150,-160,-160,150,
Raw,Yes,1,Aleksandr Fomichev #3,O,1990,Russia,67.2,,,,,,67.5,M,Александр Фомичев,D,170,170,-175,-175,170,
Raw,Yes,1,Dmitriy Pechenkin,T1,2000,Russia,72.65,,,,,,75,M,Дмитрий Печенкин,D,125,110,120,125,125,
Raw,Yes,1,Vartan Paloyan,O,1989,Russia,72.85,,,,,,75,M,Вартан Палоян,D,300,-290,290,300,300,
Raw,Yes,2,Ivan Shatov,O,1986,Russia,73.75,,,,,,75,M,Иван Шатов,D,215,195,207.5,215,215,
Raw,Yes,3,Aleksey Klimov,O,1988,Russia,72.3,,,,,,75,M,Алексей Климов,D,190,-165,170,190,190,
Raw,Yes,1,Mikhail Kiselev,O,1992,Russia,81.7,,,,,,82.5,M,Михаил Киселев,D,250,250,-270,-270,250,
Raw,Yes,2,Maksim Baydin,O,1986,Russia,80.05,,,,,,82.5,M,Максим Байдин,D,242.5,232.5,-242.5,242.5,242.5,
Raw,Yes,1,Rustam Rabadanov,M1,1970,Russia,80.9,,,,,,82.5,M,Рустам Рабаданов,D,167.5,157.5,167.5,-170,167.5,
Raw,Yes,1,Valeriy Antipov,M2,1943,Russia,78.1,,,,,,82.5,M,Валерий Антипов,D,180,165,175,180,180,
Raw,Yes,2,Vladimir Panfilov,M2,1953,Russia,79.25,,,,,,82.5,M,Владимир Панфилов,D,170,160,170,,170,
Raw,Yes,DQ,Vladimir Kamenev,M2,1952,Russia,80.05,,,,,,82.5,M,Владимир Каменев,D,,-232.5,-232.5,-232.5,,
Raw,Yes,1,Sergey Sivak,PFM,1979,Russia,77.95,,,,,,82.5,M,Сергей Сивак,D,222.5,200,210,222.5,222.5,
Raw,Yes,2,Kirill Sadovnikov,PFM,1990,Russia,81.3,,,,,,82.5,M,Кирилл Садовников,D,210,210,-222.5,-222.5,210,
Raw,Yes,1,Sergey Dashkov,T2,1999,Russia,88.25,,,,,,90,M,Сергей Дашков,D,195,170,190,195,195,
Raw,Yes,1,Aleksey Ignatyev,O,1988,Russia,82.9,,,,,,90,M,Алексей Игнатьев,D,235,225,235,-245,235,
Raw,Yes,1,Vladimir Kurbasov,M2,1959,Russia,86.3,,,,,,90,M,Владимир Курбасов,D,205,190,205,-210,205,
Raw,Yes,1,Ruslan Kulebyakin,O,1991,Russia,99.15,,,,,,100,M,Руслан Кулебякин,D,255,240,250,255,255,
Raw,Yes,1,Pavel Bychkov,M1,1975,Russia,98.35,,,,,,100,M,Павел Бычков,D,250,245,250,-252.5,250,
Raw,Yes,1,Mikhail Kozachuk,M2,1963,Russia,95.95,,,,,,100,M,Михаил Козачук,D,167.5,155,162.5,167.5,167.5,
Raw,Yes,1,Dmitriy Nenartovich,O,1987,Russia,108.75,,,,,,110,M,Дмитрий Ненартович,D,257.5,240,-257.5,257.5,257.5,
Raw,Yes,1,Aleksandr Kokotkin,M1,1974,Russia,108.85,,,,,,110,M,Александр Кокоткин,D,225,210,225,-250,225,
Raw,Yes,2,Viktor Sholtis,M1,1974,Russia,101.9,,,,,,110,M,Виктор Шольтис,D,180,180,-190,-190,180,
Raw,Yes,1,Andrey Shishkin,M2,1962,Russia,106.65,,,,,,110,M,Андрей Шишкин,D,257.5,175,240,257.5,257.5,260
Raw,Yes,1,Ivan Regulyarnyy,O,1984,Russia,116.05,,,,,,125,M,Иван Регулярный,D,270,270,-290.5,-290.5,270,
Raw,No,1,Veronika Kozhevnikova,O,1987,Russia,58.75,,,,,,60,F,Вероника Кожевникова,D,90,80,90,-100,90,
Raw,No,1,Viktoriya Ablaeva,O,1983,Russia,65.2,,,,,,67.5,F,Виктория Аблаева,D,175,175,-185,-190,175,
Raw,No,2,Marina Kozhukhantseva,O,1992,Russia,66.95,,,,,,67.5,F,Марина Кожуханцева,D,140,120,135,140,140,
Raw,No,1,Mariya Vaganova,T2,2000,Russia,69.7,,,,,,75,F,Мария Ваганова,D,120,100,110,120,120,125
Raw,No,1,Mariya Klintsova,O,1987,Russia,71.05,,,,,,75,F,Мария Клинцова,D,137.5,130,137.5,-142.5,137.5,
Raw,No,1,Nikolay Prokaev,O,1987,Russia,65.85,,,,,,67.5,M,Николай Прокаев,D,200,165,185,200,200,
Raw,No,1,Dmitriy Gromov,O,1987,Russia,74.9,,,,,,75,M,Дмитрий Громов,D,250,235,250,-265,250,
Raw,No,1,Nikita Bobrov,J,1994,Russia,80.5,,,,,,82.5,M,Никита Бобров,D,220,220,-240,-240,220,
Raw,No,1,Nikita Bobrov,O,1994,Russia,80.5,,,,,,82.5,M,Никита Бобров,D,220,220,-240,-240,220,
Raw,No,2,Kirill Shakirov,O,1977,Russia,76.7,,,,,,82.5,M,Кирилл Шакиров,D,120,100,110,120,120,
Raw,No,1,Sergey Khlebas,PFM,1985,Russia,81.95,,,,,,82.5,M,Сергей Хлебас,D,230,200,230,-265,230,
Raw,No,1,Aleksandr Krinitsyn,J,1993,Russia,88.3,,,,,,90,M,Александр Криницын,D,245,220,235,245,245,256
Raw,No,1,Kirill Tsaparov,O,1984,Russia,83.8,,,,,,90,M,Кирилл Цапаров,D,280,280,-295,-295,280,
Raw,No,2,Nikita Romanov,O,1991,Russia,87.8,,,,,,90,M,Никита Романов,D,235,220,235,-245,235,
Raw,No,1,Dmitriy Dolmatov,PFM,1988,Russia,83.5,,,,,,90,M,Дмитрий Долматов,D,255,255,-270,-270,255,
Raw,No,2,Vasiliy Drannikov,PFM,1992,Russia,88.5,,,,,,90,M,Василий Дранников,D,220,220,-235,-235,220,
Raw,No,1,Andrey Bulgar,O,1988,Russia,98.1,,,,,,100,M,Андрей Булгарь,D,315,315,-325,-325,315,
Raw,No,2,Aleksey Ananin,O,1976,Russia,97.65,,,,,,100,M,Алексей Ананьин,D,295,295,-305,-305,295,
Raw,No,1,Elmar Abbasov,T3,1996,Russia,106.3,,,,,,110,M,Эльмар Аббасов,D,240,-240,240,-250,240,
Raw,No,1,Pavel Koltsov,J,1993,Russia,101.7,,,,,,110,M,Павел Кольцов,D,260,240,250,260,260,
Raw,No,1,Akim Vakhtin,O,1983,Russia,106.65,,,,,,110,M,Аким Вахтин,D,340,330,340,-350,340,
Raw,No,2,Marat Savosin,O,1990,Russia,105.85,,,,,,110,M,Марат Савосин,D,307.5,290,300,307.5,307.5,
Raw,No,3,Pavel Chukhnov,O,1989,Russia,106.6,,,,,,110,M,Павел Чухнов,D,260,260,-280,-280,260,
Raw,No,4,Andrey Butko,O,1985,Russia,109.3,,,,,,110,M,Андрей Бутко,D,250,250,-260,,250,
Raw,No,DQ,Pavel Papenkov,O,1980,Russia,102.7,,,,,,110,M,Павел Папенков,D,,-285,-285,-302.5,,
Raw,No,1,Mikhail Rudakov,M1,1973,Russia,101.8,,,,,,110,M,Михаил Рудаков,D,250,240,250,-260,250,
Raw,No,1,Aleksey Danilin,PFM,1982,Russia,103.3,,,,,,110,M,Алексей Данилин,D,255,255,-265,,255,
Raw,No,1,Vladislav Bernetskiy,J,1993,Russia,112.75,,,,,,125,M,Владислав Бернецкий,D,305,220,305,-315,305,
Raw,No,1,Vladimir Marchenko,O,1978,Russia,121.4,,,,,,125,M,Владимир Марченко,D,320,320,-330,-330,320,
Raw,No,2,Vasiliy Dovgoborets,O,1990,Russia,110.95,,,,,,125,M,Василий Довгоборец,D,310,300,310,-320,310,
Raw,No,1,Leonid Palshin,M1,1970,Russia,120.3,,,,,,125,M,Леонид Пальшин,D,240,210,230,240,240,
Raw,No,1,Dmitriy Petrunkov,J,1993,Russia,144.85,,,,,,140+,M,Дмитрий Петруньков,D,315,310,315,-320,315,
Single-ply,Yes,1,Roman Durnov,O,1986,Russia,78.05,,,,,,82.5,M,Роман Дурнов,D,237.5,210,237.5,-240,237.5,
Single-ply,Yes,1,Aleksandr Belyaev,T2,1998,Russia,107.7,,,,,,110,M,Александр Беляев,D,230,230,-255,-255,230,
Single-ply,No,1,Elena Medvedeva,O,1990,Russia,49.8,,,,,,52,F,Елена Медведева,D,107.5,90,100,107.5,107.5,
Single-ply,No,1,Alena Fedulova,O,1990,Russia,58.75,,,,,,60,F,Алена Федулова,D,112.5,100,107.5,112.5,112.5,
Single-ply,No,1,Nina Emelyanova,O,1980,Russia,64.9,,,,,,67.5,F,Нина Емельянова,D,130,120,130,-135,130,
Single-ply,No,1,Ekaterina Romanovskaya,O,1992,Russia,70,,,,,,75,F,Екатерина Романовская,D,130,120,130,-135,130,
Single-ply,No,1,Nikolay Prokaev,O,1987,Russia,65.85,,,,,,67.5,M,Николай Прокаев,D,200,165,185,200,200,
Single-ply,No,1,Anton Doronin,O,1991,Russia,73.05,,,,,,75,M,Антон Доронин,D,177.5,160,170,177.5,177.5,
Single-ply,No,2,Artem Demin,O,1989,Russia,71.9,,,,,,75,M,Артем Демин,D,160,-140,150,160,160,
Single-ply,No,1,Roman Tsikolenko,O,1984,Russia,81.35,,,,,,82.5,M,Роман Циколенко,D,180,180,-190,-190,180,
Single-ply,No,2,Aleksandr Parfenov,O,1988,Russia,80.8,,,,,,82.5,M,Александр Парфенов,D,150,140,150,-157.5,150,
Single-ply,No,1,Petr Samko,O,1987,Russia,89.65,,,,,,90,M,Петр Самко,D,242.5,210,235,242.5,242.5,
Single-ply,No,1,Sergey Kovalchuk,O,1986,Russia,98.7,,,,,,100,M,Сергей Ковальчук,D,280,280,-300,-300,280,
Single-ply,No,2,Denis Esakov,O,1986,Russia,94.1,,,,,,100,M,Денис Есаков,D,242.5,220,230,242.5,242.5,
Single-ply,No,3,Dmitriy Pershin,O,1990,Russia,92.9,,,,,,100,M,Дмитрий Першин,D,235,210,235,-240,235,
Single-ply,No,DQ,Roman Konstantinov,O,1984,Russia,97.5,,,,,,100,M,Роман Константинов,D,,-260,-260,-260,,
Single-ply,No,1,Aleksandr Yukhanov,O,1985,Russia,112,,,,,,125,M,Александр Юханов,D,317.5,300,317.5,-325,317.5,
