Equipment,Place,Name,Division,BirthYear,Country,BodyweightKg,Squat1Kg,Squat2Kg,Squat3Kg,Best3SquatKg,Bench1Kg,Bench2Kg,Bench3Kg,Best3BenchKg,Deadlift1Kg,Deadlift2Kg,Deadlift3Kg,Best3DeadliftKg,TotalKg,WeightClassKg,Sex,CyrillicName,Event
Raw,1,Olena Fales,O,1976,Ukraine,42.9,57.5,60,62.5,62.5,37.5,40,,40,90,100,105,105,207.5,44,F,Олена Фалес,SBD
Raw,1,Olena Fales,M1,1976,Ukraine,42.9,57.5,60,62.5,62.5,37.5,40,,40,90,100,105,105,207.5,44,F,Олена Фалес,SBD
Raw,1,Anastasiya Melnikova #2,O,1980,Ukraine,46.9,77.5,80,-85,80,47.5,-50,-50,47.5,85,90,-92.5,90,217.5,47.5,F,Анастасія Мельникова,SBD
Raw,1,Natalya Voloschuk,O,1991,Ukraine,48.2,90,100,102.5,102.5,50,52.5,-55,52.5,100,110,115,115,270,50.5,F,Наталя Волощук,SBD
Raw,2,Yuliya Moroz,O,1992,Ukraine,50.4,-60,60,65,65,40,45,-47.5,45,60,-65,65,65,175,50.5,F,Юлія Мороз,SBD
Raw,DQ,Olga Selezen,O,1982,Ukraine,49.4,-100,-100,-100,,,,,,,,,,,50.5,F,Ольга Селезень,SBD
Raw,1,Katerina Shipulina,T2,1999,Ukraine,51.1,80,-85,-85,80,45,50,-52.5,50,80,87.5,92.5,92.5,222.5,53,F,Катерина Шипуліна,SBD
Raw,1,Olena Kozhanova,O,1980,Ukraine,50.7,90,-97.5,-97.5,90,-60,60,65,65,90,-100,,90,245,53,F,Олена Кожанова,SBD
Raw,2,Katerina Shipulina,O,1999,Ukraine,51.1,80,-85,-85,80,45,50,-52.5,50,80,87.5,92.5,92.5,222.5,53,F,Катерина Шипуліна,SBD
Raw,3,Valentina Soroka,O,1983,Ukraine,52.3,55,60,65,65,35,40,-42.5,40,70,80,-95,80,185,53,F,Валентина Сорока,SBD
Raw,1,Bogdana Paleshko,O,1990,Ukraine,54.2,90,96,100,100,45,50,-55,50,80,-90,92.5,92.5,242.5,55.5,F,Богдана Палєшко,SBD
Raw,2,Olga Martinyuk,O,1991,Ukraine,55,67.5,-70,75,75,40,45,-47.5,45,80,-85,87.5,87.5,207.5,55.5,F,Ольга Мартинюк,SBD
Raw,1,Veronika Venediktova,O,1985,Ukraine,58.3,80,-90,95,95,65,70,-75.5,70,110,117.5,125.5,125.5,290.5,58.5,F,Вероніка Венедіктова,SBD
Raw,2,Irina Pavlishak,O,1984,Ukraine,56.3,80,90,95,95,50,55,-57.5,55,95,100,105,105,255,58.5,F,Ірина Павлишак,SBD
Raw,DQ,Yuliya Suprunova,O,1982,Ukraine,56.9,100,-110,-110,100,-60,-60,-60,,,,,,,58.5,F,Юлія Супрунова,SBD
Raw,1,Tetyana Dzigun,O,1986,Ukraine,61,90,100,-110,100,45,50,55,55,110,120,130,130,285,63,F,Тетяна Дзигун,SBD
Raw,2,Oleksandra Benni,O,1985,Ukraine,61.2,80,85,90,90,47.5,50,-55,50,100,110,-115,110,250,63,F,Олександра Бенні,SBD
Raw,3,Olena Tyutenko,O,1970,Ukraine,60.7,60,-62.5,62.5,62.5,40.5,42.5,-45,42.5,87.5,92.5,95,95,200,63,F,Олена Тютенко,SBD
Raw,1,Olena Tyutenko,M2,1970,Ukraine,60.7,60,-62.5,62.5,62.5,40.5,42.5,-45,42.5,87.5,92.5,95,95,200,63,F,Олена Тютенко,SBD
Raw,1,Dar'ya Starichenko,J,1994,Ukraine,67.1,100,-110,110,110,60,65,-67.5,65,100,110,-120.5,110,285,70,F,Дар'я Стариченко,SBD
Raw,1,Nataliya Balabanova,O,1984,Ukraine,69.7,110,115,-120,115,60,65,-67.5,65,115,120,125,125,305,70,F,Наталія Балабанова,SBD
Raw,2,Dar'ya Starichenko,O,1994,Ukraine,67.1,100,-110,110,110,60,65,-67.5,65,100,110,-120.5,110,285,70,F,Дар'я Стариченко,SBD
Raw,3,Angelina Kozhemyakina,O,1987,Ukraine,68.7,100,-110,110,110,50,55,-60,55,100,-110,115,115,280,70,F,Ангеліна Кожемякіна,SBD
Raw,4,Olena Savich,O,1974,Ukraine,70,77.5,80,87.5,87.5,45,47.5,50,50,110,117.5,122.5,122.5,260,70,F,Олена Савич,SBD
Raw,1,Olena Savich,M1,1974,Ukraine,70,77.5,80,87.5,87.5,45,47.5,50,50,110,117.5,122.5,122.5,260,70,F,Олена Савич,SBD
Raw,1,Anna Ershova,O,1978,Ukraine,72.7,125,130.5,,130.5,62.5,65,-67.5,65,125,130,-135,130,325.5,80,F,Анна Єршова,SBD
Raw,2,Lyudmyla Ischenko,O,1961,Ukraine,71.1,100,110,,110,50,60,-65,60,110,120,,120,290,80,F,Людмила Іщенко,SBD
Raw,1,Lyudmyla Ischenko,M4,1961,Ukraine,71.1,100,110,,110,50,60,-65,60,110,120,,120,290,80,F,Людмила Іщенко,SBD
Raw,1,Sergiy Mak-Mak,T1,2001,Ukraine,54.6,110,115,120.5,120.5,-70,75,-85.5,75,120,130.5,135,135,330.5,56,M,Сергій Мак-Мак,SBD
Raw,1,Sergiy Mak-Mak,O,2001,Ukraine,54.6,110,115,120.5,120.5,-70,75,-85.5,75,120,130.5,135,135,330.5,56,M,Сергій Мак-Мак,SBD
Raw,1,Illya Rudenko,T2,2000,Ukraine,58.7,100,-110,110,110,-60,62.5,67.5,67.5,110,120,122.5,122.5,300,60,M,Ілля Руденко,SBD
Raw,2,Artem Zubenko,T2,1999,Ukraine,59.4,100,105,-112.5,105,70,75,77.5,77.5,105,110,117.5,117.5,300,60,M,Артем Зубенко,SBD
Raw,3,Oleksiy Maslov,T2,2000,Ukraine,59.8,80,85,90,90,57.5,60,62.5,62.5,115,125,130,130,282.5,60,M,Олексій Маслов,SBD
Raw,1,Sergiy Rindunika,J,1996,Ukraine,60,90,100,105,105,72.5,77.5,-80,77.5,150,160,-165,160,342.5,60,M,Сергій Риндуника,SBD
Raw,1,Sergiy Rindunika,O,1996,Ukraine,60,90,100,105,105,72.5,77.5,-80,77.5,150,160,-165,160,342.5,60,M,Сергій Риндуника,SBD
Raw,2,Illya Rudenko,O,2000,Ukraine,58.7,100,-110,110,110,-60,62.5,67.5,67.5,110,120,122.5,122.5,300,60,M,Ілля Руденко,SBD
Raw,3,Artem Zubenko,O,1999,Ukraine,59.4,100,105,-112.5,105,70,75,77.5,77.5,105,110,117.5,117.5,300,60,M,Артем Зубенко,SBD
Raw,4,Oleksiy Maslov,O,2000,Ukraine,59.8,80,85,90,90,57.5,60,62.5,62.5,115,125,130,130,282.5,60,M,Олексій Маслов,SBD
Raw,1,Oleg Pavlishak,T1,2002,Ukraine,64.5,80,90,95,95,60,65,67.5,67.5,90,100,105,105,267.5,67.5,M,Олег Павлишак,SBD
Raw,2,Vladislav Akopyan,T2,1999,Ukraine,66.7,100,112.5,120,120,90,95,-100,95,110,120,-130,120,335,67.5,M,Владислав Акопян,SBD
Raw,4,Ruslan Timchenko,T2,1999,Ukraine,67.5,120,130,-135,130,80,-90,90,90,130,140,-150,140,360,67.5,M,Руслан Тимченко,SBD
Raw,1,Vladislav Lendel,T3,1997,Ukraine,66.3,100,105,115,115,80,85,87.5,87.5,115,130,145,145,347.5,67.5,M,Владислав Лендєл,SBD
Raw,1,Valentin Prokhoruk,J,1996,Ukraine,63.6,120,130,137.5,137.5,85,95,-102.5,95,150,160,-170,160,392.5,67.5,M,Валентин Прохорук,SBD
Raw,1,Vadym Grabar,O,1984,Ukraine,65.2,150,155,160,160,97.5,102.5,-107.5,102.5,190,197.5,-202.5,197.5,460,67.5,M,Вадим Грабар,SBD
Raw,1,Vladislav Lendel,O,1997,Ukraine,66.3,100,105,115,115,80,85,87.5,87.5,115,130,145,145,347.5,67.5,M,Владислав Лендєл,SBD
Raw,2,Valentin Prokhoruk,O,1996,Ukraine,63.6,120,130,137.5,137.5,85,95,-102.5,95,150,160,-170,160,392.5,67.5,M,Валентин Прохорук,SBD
Raw,3,Ruslan Timchenko,O,1999,Ukraine,67.5,120,130,-135,130,80,-90,90,90,130,140,-150,140,360,67.5,M,Руслан Тимченко,SBD
Raw,5,Vladislav Akopyan,O,1999,Ukraine,66.7,100,112.5,120,120,90,95,-100,95,110,120,-130,120,335,67.5,M,Владислав Акопян,SBD
Raw,6,Oleg Pavlishak,O,2002,Ukraine,64.5,80,90,95,95,60,65,67.5,67.5,90,100,105,105,267.5,67.5,M,Олег Павлишак,SBD
Raw,1,Artem Ksenofontov,T1,2001,Ukraine,69.4,130,140,150,150,90,-100,-100,90,130,140,145.5,145.5,385.5,75,M,Артем Ксєнофонтов,SBD
Raw,2,Valeriy Stremedlovskiy,T1,2002,Ukraine,71.8,110,120,125,125,67.5,70,72.5,72.5,135,140,146,146,343.5,75,M,Валерій Стремедловський,SBD
Raw,1,Kirilo Romanchuk,T3,1998,Ukraine,73.6,-170,170,180,180,110,115,117.5,117.5,190,200,207.5,207.5,505,75,M,Кирило Романчук,SBD
Raw,2,Glib Trazanov,T3,1998,Ukraine,72.5,140,150,-160,150,95,100,-105,100,160,170,180,180,430,75,M,Гліб Тразанов,SBD
Raw,3,Kostyantin Mnikh,T3,1998,Ukraine,72.7,120,135,-145,135,90,95,100,100,140,160,-172.5,160,395,75,M,Костянтин Мних,SBD
Raw,1,Kirilo Romanchuk,O,1998,Ukraine,73.6,-170,170,180,180,110,115,117.5,117.5,190,200,207.5,207.5,505,75,M,Кирило Романчук,SBD
Raw,2,Volodymyr Batrak,O,1977,Ukraine,71.2,150,157.5,-162.5,157.5,105,112.5,-117.5,112.5,210,220,-225,220,490,75,M,Володимир Батрак,SBD
Raw,3,Dmytro Belykh,O,1974,Ukraine,74.8,135,145,152.5,152.5,110,115,120,120,185,200,210.5,210.5,483,75,M,Дмитро Бєлих,SBD
Raw,4,Glib Trazanov,O,1998,Ukraine,72.5,140,150,-160,150,95,100,-105,100,160,170,180,180,430,75,M,Гліб Тразанов,SBD
Raw,5,Kostyantin Mnikh,O,1998,Ukraine,72.7,120,135,-145,135,90,95,100,100,140,160,-172.5,160,395,75,M,Костянтин Мних,SBD
Raw,6,Artem Ksenofontov,O,2001,Ukraine,69.4,130,140,150,150,90,-100,-100,90,130,140,145.5,145.5,385.5,75,M,Артем Ксєнофонтов,SBD
Raw,7,Valeriy Stremedlovskiy,O,2002,Ukraine,71.8,110,120,125,125,67.5,70,72.5,72.5,135,140,146,146,343.5,75,M,Валерій Стремедловський,SBD
Raw,8,Oleksandr Gladkikh,O,1946,Ukraine,74.3,85,95,100,100,70,75,-77.5,75,115,120,122.5,122.5,297.5,75,M,Олександр Гладких,SBD
Raw,9,Arkadiy Myshko Ariy,O,1945,Ukraine,73.3,115,,,115,70,-75,,70,110,-112.5,,110,295,75,M,Арій Мишко,SBD
Raw,1,Dmytro Belykh,M1,1974,Ukraine,74.8,135,145,152.5,152.5,110,115,120,120,185,200,210.5,210.5,483,75,M,Дмитро Бєлих,SBD
Raw,1,Oleksandr Gladkikh,M7,1946,Ukraine,74.3,85,95,100,100,70,75,-77.5,75,115,120,122.5,122.5,297.5,75,M,Олександр Гладких,SBD
Raw,2,Arkadiy Myshko Ariy,M7,1945,Ukraine,73.3,115,,,115,70,-75,,70,110,-112.5,,110,295,75,M,Арій Мишко,SBD
Raw,1,Volodymyr Batrak,PFM,1977,Ukraine,71.2,150,157.5,-162.5,157.5,105,112.5,-117.5,112.5,210,220,-225,220,490,75,M,Володимир Батрак,SBD
Raw,2,Dmytro Belykh,PFM,1974,Ukraine,74.8,135,145,152.5,152.5,110,115,120,120,185,200,210.5,210.5,483,75,M,Дмитро Бєлих,SBD
Raw,1,Oleksandr Korchaka,T1,2001,Ukraine,77.8,120,130,140,140,95,100,-105,100,140,150,160,160,400,82.5,M,Олександр Корчака,SBD
Raw,1,Mikita Rodin,T2,2000,Ukraine,80.9,180,190,195,195,95,100,-105,100,180,190,195,195,490,82.5,M,Микита Родін,SBD
Raw,2,Oleksandr Zhitnyak,T2,1999,Ukraine,80.3,120,130,140,140,120,-132.5,-132.5,120,180,-190,190,190,450,82.5,M,Олександр Житняк,SBD
Raw,1,Anatoliy Varchuk,T3,1997,Ukraine,82,155,160,165,165,140,145,-150,145,200,210,215,215,525,82.5,M,Анатолій Варчук,SBD
Raw,1,Anton Alekseev #1,O,1986,Ukraine,80.8,-190,200,-210,200,125,135,-145,135,240,250,-260,250,585,82.5,M,Антон Алєксєєв,SBD
Raw,2,Anatoliy Varchuk,O,1997,Ukraine,82,155,160,165,165,140,145,-150,145,200,210,215,215,525,82.5,M,Анатолій Варчук,SBD
Raw,3,Mikita Rodin,O,2000,Ukraine,80.9,180,190,195,195,95,100,-105,100,180,190,195,195,490,82.5,M,Микита Родін,SBD
Raw,4,Oleksandr Zhitnyak,O,1999,Ukraine,80.3,120,130,140,140,120,-132.5,-132.5,120,180,-190,190,190,450,82.5,M,Олександр Житняк,SBD
Raw,5,Oleksandr Ostrovskiy,O,1953,Ukraine,79.7,-135,140,145,145,85,95,100,100,150,160,,160,405,82.5,M,Олександр Островський,SBD
Raw,6,Oleksandr Korchaka,O,2001,Ukraine,77.8,120,130,140,140,95,100,-105,100,140,150,160,160,400,82.5,M,Олександр Корчака,SBD
Raw,7,Ivan Fales,O,1957,Ukraine,78.2,-120,125,135,135,85,-90,,85,120,130,140,140,360,82.5,M,Іван Фалес,SBD
Raw,1,Ivan Fales,M4,1957,Ukraine,78.2,-120,125,135,135,85,-90,,85,120,130,140,140,360,82.5,M,Іван Фалес,SBD
Raw,1,Oleksandr Ostrovskiy,M5,1953,Ukraine,79.7,-135,140,145,145,85,95,100,100,150,160,,160,405,82.5,M,Олександр Островський,SBD
Raw,1,Ivan Pedash,T1,2000,Ukraine,84.2,120,130,142.5,142.5,95,105,107.5,107.5,170,185,195,195,445,90,M,Іван Педаш,SBD
Raw,2,Yaroslav Gavyada,Y,2003,Ukraine,87.1,130,140,145.5,145.5,70,-80,80,80,180,190,195,195,420.5,90,M,Ярослав Гав'яда,SBD
Raw,3,Igor Fedorenko,T1,2001,Ukraine,84.1,110,115,-120,115,90,95,-98,95,120,130,140,140,350,90,M,Ігор Федоренко,SBD
Raw,1,Boris Ershov,T2,1999,Ukraine,84.2,135,142.5,-145,142.5,85,90,,90,175,180,190,190,422.5,90,M,Борис Єршов,SBD
Raw,1,Anatoliy Boyko,J,1994,Ukraine,89.5,-180,190,-195,190,142.5,150,-155,150,215,-232.5,-232.5,215,555,90,M,Анатолій Бойко,SBD
Raw,1,Taras Ribchinskiy,O,1990,Ukraine,86.9,180,190,-195,190,140,145,150,150,210,215,-220,215,555,90,M,Тарас Рибчинський,SBD
Raw,2,Anatoliy Boyko,O,1994,Ukraine,89.5,-180,190,-195,190,142.5,150,-155,150,215,-232.5,-232.5,215,555,90,M,Анатолій Бойко,SBD
Raw,3,Oleksandr Sapegin,O,1990,Ukraine,87.1,180,190,-192.5,190,125,130,-132.5,130,205,210,215,215,535,90,M,Олександр Сапегін,SBD
Raw,4,Ivan Pedash,O,2000,Ukraine,84.2,120,130,142.5,142.5,95,105,107.5,107.5,170,185,195,195,445,90,M,Іван Педаш,SBD
Raw,5,Yuriy Starkov,O,1947,Ukraine,82.7,140,145,-150,145,65,75,-80,75,200,210,220,220,440,90,M,Юрій Старков,SBD
Raw,6,Boris Ershov,O,1999,Ukraine,84.2,135,142.5,-145,142.5,85,90,,90,175,180,190,190,422.5,90,M,Борис Єршов,SBD
Raw,7,Yaroslav Gavyada,Y,2003,Ukraine,87.1,130,140,145.5,145.5,70,-80,80,80,180,190,195,195,420.5,90,M,Ярослав Гав'яда,SBD
Raw,8,Sergiy Zolkin,O,1970,Ukraine,87.1,-122.5,130,142.5,142.5,110,-120,-120,110,130,140,,140,392.5,90,M,Сергій Золкін,SBD
Raw,9,Igor Fedorenko,O,2001,Ukraine,84.1,110,115,-120,115,90,95,-98,95,120,130,140,140,350,90,M,Ігор Федоренко,SBD
Raw,10,Vasil Andruschenko,O,1974,Ukraine,87,-95,100,-115,100,95,100,105,105,120,135,-152.5,135,340,90,M,Василь Андрущенко,SBD
Raw,DQ,Oleksandr Shved,O,1986,Ukraine,88.9,-170,182.5,-195,182.5,-120,-130,-130,,200,-210,,200,,90,M,Олександр Швед,SBD
Raw,1,Vasil Andruschenko,M1,1974,Ukraine,87,-95,100,-115,100,95,100,105,105,120,135,-152.5,135,340,90,M,Василь Андрущенко,SBD
Raw,1,Sergiy Zolkin,M2,1970,Ukraine,87.1,-122.5,130,142.5,142.5,110,-120,-120,110,130,140,,140,392.5,90,M,Сергій Золкін,SBD
Raw,1,Yuriy Starkov,M6,1947,Ukraine,82.7,140,145,-150,145,65,75,-80,75,200,210,220,220,440,90,M,Юрій Старков,SBD
Raw,1,Anton Fedchenko,T2,1998,Ukraine,95.6,170,180,190,190,120,130,135,135,210,220,225,225,550,100,M,Антон Федченко,SBD
Raw,1,Dmitro Kornev,J,1994,Ukraine,98.6,185,195,-207.5,195,125,132.5,135,135,175,190,-192.5,190,520,100,M,Дмитро Корнєв,SBD
Raw,1,Igor Morozov #4,O,1986,Ukraine,98.8,190,200,-210,200,135,142.5,,142.5,230,240,-245,240,582.5,100,M,Ігор Морозов,SBD
Raw,2,Sergiy Shnir,O,1987,Ukraine,97,190,-200,-200,190,130,137.5,-140,137.5,235,245,-260,245,572.5,100,M,Сергій Шнир,SBD
Raw,3,Anton Fedchenko,O,1998,Ukraine,95.6,170,180,190,190,120,130,135,135,210,220,225,225,550,100,M,Антон Федченко,SBD
Raw,4,Dmitro Kornev,O,1994,Ukraine,98.6,185,195,-207.5,195,125,132.5,135,135,175,190,-192.5,190,520,100,M,Дмитро Корнєв,SBD
Raw,5,Sergiy Denysov,O,1956,Ukraine,97.7,160,170.5,,170.5,115,120,,120,180,182.5,,182.5,473,100,M,Сергій Денисов,SBD
Raw,6,Viktor Stefanov,O,1948,Ukraine,99.3,150,-160,162.5,162.5,100,-107.5,-107.5,100,155,160,-165,160,422.5,100,M,Віктор Стефанов,SBD
Raw,DD,Volodimir Robotko,O,1989,Ukraine,96.4,-200,200,-210,200,180,187.5,-192.5,187.5,230,240,250,250,,100,M,Володимир Роботько,SBD
Raw,1,Sergiy Denysov,M5,1956,Ukraine,97.7,160,170.5,,170.5,115,120,,120,180,182.5,,182.5,473,100,M,Сергій Денисов,SBD
Raw,1,Viktor Stefanov,M6,1948,Ukraine,99.3,150,-160,162.5,162.5,100,-107.5,-107.5,100,155,160,-165,160,422.5,100,M,Віктор Стефанов,SBD
Raw,1,Dmitro Glushko,O,1991,Ukraine,106.3,235,250,-255,250,185,192.5,200,200,250,-260,265,265,715,110,M,Дмитро Глушко,SBD
Raw,2,Volodimir Gorbachenko,O,1978,Ukraine,108.8,195,205,215,215,160,-170,-170,160,250,260,-265,260,635,110,M,Володимир Горбаченко,SBD
Raw,3,Oleksandr Blokhin,O,1991,Ukraine,103.8,-190,-190,190,190,130,140,145,145,220,232.5,245,245,580,110,M,Олександр Блохін,SBD
Raw,4,Igor Dubovych,O,1964,Ukraine,105.4,-180,180,-200,180,147.5,152.5,-157.5,152.5,180,190,-192.5,190,522.5,110,M,Ігор Дубович,SBD
Raw,1,Igor Dubovych,M3,1964,Ukraine,105.4,-180,180,-200,180,147.5,152.5,-157.5,152.5,180,190,-192.5,190,522.5,110,M,Ігор Дубович,SBD
Raw,1,Artur Bruev,O,1990,Ukraine,110.2,160,170,180,180,130,140,150,150,210,220,-225,220,550,125,M,Артур Бруєв,SBD
Raw,2,Oleksandr Foschanko,O,1989,Ukraine,112.5,140,155,165,165,100,110,-120,110,190,210,-220,210,485,125,M,Олександр Фощанко,SBD
Raw,DD,Igor Zagoruyko,O,1966,Ukraine,118.7,180,190,200,200,-150,155,-160,155,200,210,,210,,125,M,Ігор Загоруйко,SBD
Raw,DD,Igor Zagoruyko,M2,1966,Ukraine,118.7,180,190,200,200,-150,155,-160,155,200,210,,210,,125,M,Ігор Загоруйко,SBD
Single-ply,1,Oleksandr Mushinskiy,J,1993,Ukraine,80,185,-200,-200,185,115,130,-135,130,200,215,-225,215,530,82.5,M,Олександр Мушинський,SBD
Single-ply,1,Oleksandr Mushinskiy,O,1993,Ukraine,80,185,-200,-200,185,115,130,-135,130,200,215,-225,215,530,82.5,M,Олександр Мушинський,SBD
Single-ply,1,Oleksandr Skripilov,O,1992,Ukraine,99.1,240,250,,250,150,160,,160,250,270,,270,680,100,M,Олександр Скрипільов,SBD
Single-ply,1,Oleksandr Skripilov,PFM,1992,Ukraine,99.1,240,250,,250,150,160,,160,250,270,,270,680,100,M,Олександр Скрипільов,SBD
Single-ply,1,Evgeniy Chudak,O,1975,Ukraine,109.5,240,-250,-250,240,180,185.5,190,190,200,210,215,215,645,110,M,Євгеній Чудак,SBD
Single-ply,1,Evgeniy Chudak,M1,1975,Ukraine,109.5,240,-250,-250,240,180,185.5,190,190,200,210,215,215,645,110,M,Євгеній Чудак,SBD
