Equipment,Place,Name,Division,BirthYear,Country,BodyweightKg,Squat1Kg,Squat2Kg,Squat3Kg,Best3SquatKg,Bench1Kg,Bench2Kg,Bench3Kg,Best3BenchKg,Deadlift1Kg,Deadlift2Kg,Deadlift3Kg,Best3DeadliftKg,TotalKg,WeightClassKg,Sex,CyrillicName,Event
Raw,1,Ekaterina Volodko,Open,2001,Russia,38.3,50,52.5,-57.5,52.5,32.5,35,-37.5,35,55,60,65,65,152.5,47,F,Екатерина Володько,SBD
Raw,1,Larisa Loktionova,Open,1997,Russia,52,62.5,67.5,75,75,40,50,52.5,52.5,75,82.5,95,95,222.5,52,F,Лариса Локтионова,SBD
Raw,2,Aleksandra Bogachuk,Open,1997,Russia,52,62.5,67.5,72.5,72.5,37.5,40,-42.5,40,70,77.5,-82.5,77.5,190,52,F,Александра Богачук,SBD
Raw,3,Tatyana Nadelyaeva,Open,1999,Russia,50.5,55,-60,60,60,37.5,-40,40,40,70,75,80,80,180,52,F,Татьяна Наделяева,SBD
Raw,1,Elena Varfolomeeva,Open,1983,Russia,57,65,72.5,82.5,82.5,45,52.5,-57.5,52.5,85,92.5,-100,92.5,227.5,57,F,Елена Варфоломеева,SBD
Raw,2,Evgeniya Shvets,Open,1986,Russia,54.9,45,55,57.5,57.5,35,42.5,-45,42.5,-85,85,-90,85,185,57,F,Евгения Швец,SBD
Raw,3,Anna Alekhina,Open,1990,Russia,55.76,60,70,-75,70,35,40,-42.5,40,-60,60,65,65,175,57,F,Анна Алехина,SBD
Raw,1,Ekaterina Zavyalova,Open,1983,Russia,63,75,-80,80,80,40,45,-47.5,45,80,90,97.5,97.5,222.5,63,F,Екатерина Завьялова,SBD
Raw,2,Alena Bichevina,Open,1996,Russia,63,65,70,77.5,77.5,40,42.5,-45,42.5,70,75,80,80,200,63,F,Алена Бичевина,SBD
Raw,1,Yuliya Sivakova,Open,1983,Russia,70,105,115,-122.5,115,70,75,-77.5,75,135,145,150,150,340,72,F,Юлия Сивакова,SBD
Raw,2,Luana Ptukha,Open,1991,Russia,71.8,80,87.5,92.5,92.5,50,55,57.5,57.5,95,102.5,110,110,260,72,F,Луана Птуха,SBD
Raw,3,Nadezhda Churkina,Open,1997,Russia,71.3,85,90,-95,90,57.5,62.5,65,65,85,-92.5,,85,240,72,F,Надежда Чуркина,SBD
Raw,4,Mariya Kaledina,Open,1993,Russia,68.9,55,60,65,65,32.5,35,-37.5,35,60,70,80,80,180,72,F,Мария Каледина,SBD
Raw,5,Anna Litvinova,Open,1996,Russia,68.3,50,55,60,60,35,37.5,40,40,60,65,70,70,170,72,F,Анна Литвинова,SBD
Raw,1,Yuliya Tolstonogova,Open,1994,Russia,72.3,110,117.5,125,125,75,-80,-80,75,130,137.5,145,145,345,84,F,Юлия Толстоногова,SBD
Raw,2,Galina Grinchuk,Open,1985,Russia,82.65,-90,90,-95,90,60,65,,65,100,110,120,120,275,84,F,Галина Гринчук,SBD
Raw,3,Anastasiya Shirinkina,Open,1992,Russia,80,60,65,70,70,50,-55,55,55,65,72.5,,72.5,197.5,84,F,Анастасия Ширинкина,SBD
Raw,1,Valeriy Tanygin,Open,1987,Russia,52.3,85,95,-100,95,65,70,,70,110,120,135,135,300,59,M,Валерий Таныгин,SBD
Raw,2,Vladimir Gavrilov,Open,1997,Russia,52.12,-90,-90,90,90,45,50,55,55,90,100,110,110,255,59,M,Владимир Гаврилов,SBD
Raw,2,Denis Shevchenko,Open,1996,Russia,57.8,-70,70,-80,70,55,-60,-60,55,100,110,120,120,245,59,M,Денис Шевченко,SBD
Raw,3,Sergey Gauch,Open,1998,Russia,54.18,57.5,65,72.5,72.5,55,60,-62.5,60,75,85,90,90,222.5,59,M,Сергей Гауч,SBD
Raw,5,Bogdan Yumashev,Open,2003,Russia,44.5,60,65,-70,65,47.5,50,-52.5,50,60,70,80,80,195,59,M,Богдан Юмашев,SBD
Raw,DQ,Viktor Gulov,Open,1997,Russia,57.14,-105,-105,-105,,75,80,-85,80,140,150,157.5,157.5,,59,M,Виктор Гулов,SBD
Raw,1,Roman Timonin,Open,1991,Russia,65.7,150,162.5,170,170,107.5,115,117.5,117.5,160,172.5,185,185,472.5,66,M,Роман Тимонин,SBD
Raw,2,Ivan Lyubimov,Open,1988,Russia,62.85,165,175,182.5,182.5,90,95,97.5,97.5,165,180,-192.5,180,460,66,M,Иван Любимов,SBD
Raw,3,Maksim Ivanov #22,Open,1990,Russia,66,130,140,-150,140,90,100,-107.5,100,170,180,195,195,435,66,M,Максим Иванов,SBD
Raw,4,Ivan Yakunin,Open,1995,Russia,65.65,110,120,130,130,-90,90,-100,90,-150,150,155,155,375,66,M,Иван Якунин,SBD
Raw,5,Igor Trunov,Open,1997,Russia,64,110,117.5,-120,117.5,70,80,-82.5,80,-150,150,160,160,357.5,66,M,Игорь Трунов,SBD
Raw,6,Vyacheslav Malinovskiy,Open,1997,Russia,63.35,100,110,117.5,117.5,70,75,-77.5,75,140,150,-155,150,342.5,66,M,Вячеслав Малиновский,SBD
Raw,7,Pavel Solovyev,Open,1998,Russia,63.7,80,90,102.5,102.5,75,80,82.5,82.5,110,117.5,125,125,310,66,M,Павел Соловьев,SBD
Raw,8,Anton Komarov,Open,1997,Russia,65.05,97.5,-102.5,-102.5,97.5,65,67.5,-70,67.5,80,90,100,100,265,66,M,Антон Комаров,SBD
Raw,1,Aleksandr Kapturov,Open,1995,Russia,73.9,190,200,207.5,207.5,110,115,120,120,210,220,227.5,227.5,555,74,M,Александр Каптуров,SBD
Raw,2,Vasiliy Sergeev,Open,1987,Russia,72.65,150,160,165,165,120,125,130,130,220,-230,240,240,535,74,M,Василий Сергеев,SBD
Raw,3,Evgeniy Korinovskiy,Open,1992,Russia,73.1,160,165,170,170,115,120,-122.5,120,215,230,-247.5,230,520,74,M,Евгений Кориновский,SBD
Raw,4,Dmitriy Melnikov,Open,1996,Russia,71.8,150,162.5,170,170,107.5,112.5,117.5,117.5,180,190,195,195,482.5,74,M,Дмитрий Мельников,SBD
Raw,5,Svyatoslav Nikonov,Open,1994,Russia,73.3,140,150,160,160,110,120,125,125,160,180,190,190,475,74,M,Святослав Никонов,SBD
Raw,6,Yuriy Lebedev,Open,1997,Russia,73,135,145,152.5,152.5,95,100,105,105,170,180,190,190,447.5,74,M,Юрий Лебедев,SBD
Raw,7,Aleksandr Grinchuk,Open,1990,Russia,74,110,130,-150,130,100,110,-115,110,180,190,200,200,440,74,M,Александр Гринчук,SBD
Raw,8,Denis Stupin,Open,1993,Russia,71.65,110,130,135,135,90,100,-105,100,140,160,-170,160,395,74,M,Денис Ступин,SBD
Raw,9,Dmitriy Vstavskiy,Open,1997,Russia,73.15,-100,105,115,115,80,87.5,-92.5,87.5,150,-160,165,165,367.5,74,M,Дмитрий Вставский,SBD
Raw,10,Roman Amosov,Open,1998,Russia,72.15,100,-115,-120,100,95,100,-102.5,100,150,160,165,165,365,74,M,Роман Амосов,SBD
Raw,11,Kirill Naprienko,Open,1994,Russia,72.75,100,120,-130,120,90,100,105,105,140,-160,-160,140,365,74,M,Кирилл Наприенко,SBD
Raw,12,Aleksandr Apanin,Open,1997,Russia,72.75,100,115,122.5,122.5,-70,70,-72.5,70,140,155,162.5,162.5,355,74,M,Александр Апанин,SBD
Raw,13,Mark Rebrushkin,Open,1995,Russia,72.25,115,-125,130,130,80,85,90,90,130,-145,-145,130,350,74,M,Марк Ребрушкин,SBD
Raw,14,Semen Gavrilov,Open,1997,Russia,69.5,50,60,70,70,55,-65,-65,55,100,120,-130,120,245,74,M,Семен Гаврилов,SBD
Raw,DQ,Maxim Barkhatov,Open,1995,Russia,73.5,130,140,147.5,147.5,-100,-100,-100,,-150,,,,,74,M,Максим Бархатов,SBD
Raw,1,Semen Pshenichnikov,Open,1991,Russia,78.45,190,202.5,-210,202.5,145,155,-160,155,245,255,260,260,617.5,83,M,Семен Пшеничников,SBD
Raw,2,Egor Zhdanov,Open,1994,Russia,82.65,200,-210,-210,200,130,137.5,-142.5,137.5,225,235,245,245,582.5,83,M,Егор Жданов,SBD
Raw,3,Dmitriy Gusakov,Open,1993,Russia,83,160,172.5,182.5,182.5,95,102.5,110,110,190,205,227.5,227.5,520,83,M,Дмитрий Гусаков,SBD
Raw,4,Dmitriy Leskov,Open,1986,Russia,83,150,160,170,170,120,127.5,132.5,132.5,190,200,215,215,517.5,83,M,Дмитрий Лесков,SBD
Raw,5,Aleksandr Dolotchenko,Open,1988,Russia,82,170,180,185,185,110,120,-122.5,120,170,180,200,200,505,83,M,Александр Долотченко,SBD
Raw,6,Dmitriy Evdokimenko,Open,1996,Russia,81,140,-150,150,150,90,95,-100,95,190,205,217.5,217.5,462.5,83,M,Дмитрий Евдокименко,SBD
Raw,7,Evgeniy Lukhnev,Open,1996,Russia,80.85,150,165,-175,165,110,120,-125,120,150,165,175,175,460,83,M,Евгений Лухнев,SBD
Raw,8,Oleg Dzvoniskiy,Open,1993,Russia,78.6,135,145,152.5,152.5,-110,-110,110,110,160,170,180,180,442.5,83,M,Олег Дзвониский,SBD
Raw,9,Aleksey Nadymov,Open,1993,Russia,79.05,120,130,-140,130,95,105,-110,105,140,160,180,180,415,83,M,Алексей Надымов,SBD
Raw,10,Andrey Sychev,Open,1994,Russia,77.25,-110,120,130,130,90,-100,100,100,140,160,180,180,410,83,M,Андрей Сычев,SBD
Raw,11,Vyacheslav Shoshin,Open,1993,Russia,80.3,130,137.5,140,140,100,-107.5,-107.5,100,135,145,160,160,400,83,M,Вячеслав Шошин,SBD
Raw,12,Evgeniy Traydakalo,Open,1994,Russia,81.75,110,-120,120,120,100,-115,-115,100,130,145,155,155,375,83,M,Евгений Трайдакало,SBD
Raw,13,Danil Dremin,Open,1997,Russia,79.1,100,-110,110,110,75,80,90,90,140,-155,155,155,355,83,M,Данил Дремин,SBD
Raw,14,Anton Shipunov,Open,1997,Russia,82.4,90,100,110,110,70,-77.5,77.5,77.5,115,130,-155,130,317.5,83,M,Антон Шипунов,SBD
Raw,1,Aleksandr Gridyakin,Open,1965,Russia,92.1,210,222.5,230,230,130,140,147.5,147.5,225,237.5,252.5,252.5,630,93,M,Александр Гридякин,SBD
Raw,2,Aleksey Mironov,Open,1981,Russia,90.5,210,220,-230,220,155,162.5,170,170,212.5,222.5,237.5,237.5,627.5,93,M,Алексей Миронов,SBD
Raw,3,Sergey Lubinets,Open,1992,Russia,92,160,170,180,180,130,140,150,150,230,242.5,255,255,585,93,M,Сергей Лубенец,SBD
Raw,4,Anton Zenkov,Open,1992,Russia,92.35,190,200,-210,200,125,130,135,135,225,237.5,250,250,585,93,M,Антон Зенков,SBD
Raw,5,Albert Smirnov,Open,1987,Russia,91.9,190,200,205,205,135,140,-145,140,210,220,-227.5,220,565,93,M,Альберт Смирнов,SBD
Raw,6,Anatoliy Ergunov,Open,1965,Russia,92.25,150,160,170,170,120,125,127.5,127.5,190,202.5,210,210,507.5,93,M,Анатолий Ергунов,SBD
Raw,7,Artur Zheltukhin,Open,1991,Russia,90.2,135,150,165,165,120,-125,127.5,127.5,140,152.5,165,165,457.5,93,M,Артур Желтухин,SBD
Raw,8,Evgeniy Mikhalev,Open,1995,Russia,92.65,140,155,165,165,95,102.5,110,110,150,162.5,180,180,455,93,M,Евгений Михалев,SBD
Raw,9,Vladimir Kononenko,Open,1999,Russia,83.9,150,160,-165,160,95,102.5,107.5,107.5,-150,150,,150,417.5,93,M,Владимир Кононенко,SBD
Raw,1,Andrey Belykh,Open,1993,Russia,99.9,227.5,240,250,250,145,155,160,160,295,315,-325,315,725,105,M,Андрей Белых,SBD
Raw,2,Roman Timkovich,Open,1978,Russia,100.05,200,215,230,230,140,155,165,165,240,260,275,275,670,105,M,Роман Тимкович,SBD
Raw,3,Vladimir Mikhaylov,Open,1961,Russia,102.85,190,200,210,210,135,140,145,145,240,250,-260,250,605,105,M,Владимир Михайлов,SBD
Raw,4,Grigoriy Chenets,Open,1985,Russia,104.65,190,200,210,210,135,142.5,-150,142.5,240,250,,250,602.5,105,M,Григорий Ченец,SBD
Raw,5,Vladimir Gusev,Open,1958,Russia,103.6,187.5,200,210,210,150,157.5,,157.5,200,,,200,567.5,105,M,Владимир Гусев,SBD
Raw,6,Igor Krasovskiy,Open,1995,Russia,104.7,160,170,180,180,150,155,-160,155,215,222.5,,222.5,557.5,105,M,Игорь Красовский,SBD
Raw,7,Evgeniy Savritskiy,Open,1997,Russia,103.25,180,192.5,200,200,120,125,130,130,195,205,217.5,217.5,547.5,105,M,Евгений Саврицкий,SBD
Raw,8,Anatoliy Osintsev,Open,1968,Russia,97.65,180,190,-200,190,-140,145,150,150,170,185,,185,525,105,M,Анатолий Осинцев,SBD
Raw,9,Dmitriy Kurtin,Open,1995,Russia,98.1,130,140,-145,140,-100,100,105,105,140,150,160,160,405,105,M,Дмитрий Куртин,SBD
Raw,1,Denis Moiseychenkov,Open,1986,Russia,114.7,250,260,270,270,170,-180,180,180,250,260,280,280,730,120,M,Денис Моисейченков,SBD
Raw,2,Nikolay Sukhov,Open,1973,Russia,116.8,210,225,235,235,175,185,-192.5,185,230,250,260,260,680,120,M,Николай Сухов,SBD
Raw,3,Oleg Zverev,Open,1987,Russia,113.8,220,230,242.5,242.5,160,172.5,180,180,230,245,250,250,672.5,120,M,Олег Зверев,SBD
Raw,1,Aleksandr Kolchanov,Open,1969,Russia,148.2,210,220,230,230,180,190,,190,250,260,,260,680,120+,M,Александр Колчанов,SBD
Raw,2,Aleksey Popov,Open,1979,Russia,130,190,205,215,215,160,-167.5,167.5,167.5,230,-240,,230,612.5,120+,M,Алексей Попов,SBD
