Equipment,Place,Name,Division,BirthYear,Country,BodyweightKg,Best3SquatKg,Best3BenchKg,Best3DeadliftKg,TotalKg,WeightClassKg,Sex,CyrillicName,Event
Single-ply,1,Aleksandr Ivanov,Open,1997,Russia,56.65,187.5,115,190,492.5,59,M,Александр Иванов,SBD
Single-ply,2,Ivan Yushkov,Open,2002,Russia,55.1,115,60,140,315,59,M,Иван Юшков,SBD
Single-ply,3,Dmitriy Semenov,Open,2000,Russia,55.6,100,60,145,305,59,M,Дмитрий Семенов,SBD
Single-ply,4,Nikita Timofeev,Open,1998,Russia,59,85,65,130,280,59,M,Никита Тимофеев,SBD
Single-ply,5,Dmitriy Maksimov,Open,2001,Russia,56,87.5,60,130,277.5,59,M,Дмитрий Максимов,SBD
Single-ply,6,Kirill Elfimov,Open,2001,Russia,55.1,90,57.5,125,272.5,59,M,Кирилл Елфимов,SBD
Single-ply,7,Dmitriy Larionov,Open,2001,Russia,52.8,82.5,57.5,130,270,59,M,Дмитрий Ларионов,SBD
Single-ply,8,Nikita Dmitriev,Open,2001,Russia,58.3,85,60,120,265,59,M,Никита Дмитриев,SBD
Single-ply,1,Nikolay Panov,Open,1989,Russia,65.4,210,130,185,525,66,M,Николай Панов,SBD
Single-ply,2,Sergey Shustrov,Open,1991,Russia,65.7,200,125,200,525,66,M,Сергей Шустров,SBD
Single-ply,3,Anton Somov,Open,2000,Russia,63,140,110,150,400,66,M,Антон Сомов,SBD
Single-ply,4,Andrey Korolkov,Open,1998,Russia,64.15,130,75,140,345,66,M,Андрей Корольков,SBD
Single-ply,5,Anton Mikhaylov,Open,1992,Russia,62.6,107.5,67.5,147.5,322.5,66,M,Антон Михайлов,SBD
Single-ply,6,Andrey Vasilyev,Open,2000,Russia,61,107.5,75,137.5,320,66,M,Андрей Васильев,SBD
Single-ply,7,Dmitriy Eruslanov,Open,1998,Russia,62.75,105,85,130,320,66,M,Дмитрий Ерусланов,SBD
Single-ply,8,Semen Dubov,Open,2001,Russia,60.35,90,80,125,295,66,M,Семен Дубов,SBD
Single-ply,1,Nikita Lyasin,Open,1996,Russia,70.95,205,127.5,190,522.5,74,M,Никита Лясин,SBD
Single-ply,2,Vladimir Rusakov,Open,1992,Russia,69.75,185,100,192.5,477.5,74,M,Владимир Русаков,SBD
Single-ply,3,Vladimir Lychkov,Open,1984,Russia,72.55,192.5,95,190,477.5,74,M,Владимир Лычков,SBD
Single-ply,4,Ilya Goryunov,Open,1998,Russia,71.15,160,90,177.5,427.5,74,M,Илья Горюнов,SBD
Single-ply,5,Pavel Ivanov,Open,1999,Russia,70.6,135,100,190,425,74,M,Павел Иванов,SBD
Single-ply,6,Aleksey Sergienko,Open,1998,Russia,71.25,150,100,162.5,412.5,74,M,Алексей Сергиенко,SBD
Single-ply,7,Artem Bulin,Open,1999,Russia,73.8,140,100,170,410,74,M,Артем Булин,SBD
Single-ply,DQ,Evgeniy Rybakov,Open,1984,Russia,71.1,,,,,74,M,Евгений Рыбаков,SBD
Single-ply,1,Vitaliy Galashkin,Open,1990,Russia,81.75,215,167.5,225,607.5,83,M,Виталий Галашкин,SBD
Single-ply,2,Artem Alekseev,Open,1990,Russia,82.15,225,122.5,250,597.5,83,M,Артем Алексеев,SBD
Single-ply,3,Stepan Lepikov,Open,1995,Russia,80.1,245,145,205,595,83,M,Степан Лепиков,SBD
Single-ply,4,Sergey Andreev,Open,1986,Russia,81.85,210,142.5,235,587.5,83,M,Сергей Андреев,SBD
Single-ply,5,Vladimir Melnikov,Open,1994,Russia,82.1,220,145,222.5,587.5,83,M,Владимир Мельников,SBD
Single-ply,6,Igor Meleshev,Open,1984,Russia,75.1,190,145,215,550,83,M,Игорь Мелешев,SBD
Single-ply,7,Yaroslav Fedorov,Open,1995,Russia,79.4,162.5,120,200,482.5,83,M,Ярослав Федоров,SBD
Single-ply,8,Arkadiy Kotov,Open,1988,Russia,79.7,120,100,175,395,83,M,Аркадий Котов,SBD
Single-ply,1,Maksim Kormyshov,Open,1988,Russia,81.45,,135,,135,83,M,Максим Кормышов,B
Single-ply,1,Dmitriy Gudko,Open,1998,Russia,86.75,250,130,240,620,93,M,Дмитрий Гудько,SBD
Single-ply,2,Sergey Alekseev,Open,1986,Russia,90.2,205,180,225,610,93,M,Сергей Алексеев,SBD
Single-ply,3,Aleksandr Shavelko,Open,1990,Russia,91.05,205,140,230,575,93,M,Александр Шавелько,SBD
Single-ply,4,Daniil Kolupaev,Open,1998,Russia,90.1,210,135,210,555,93,M,Даниил Колупаев,SBD
Single-ply,5,Samir Babaev,Open,1994,Russia,91.3,210,135,200,545,93,M,Самир Бабаев,SBD
Single-ply,6,Aleksandr Andreev,Open,1991,Russia,91.05,190,120,200,510,93,M,Александр Андреев,SBD
Single-ply,7,Oleg Kaptur,Open,1992,Russia,92.1,190,110,210,510,93,M,Олег Каптур,SBD
Single-ply,DQ,Aleksandr Skorbin,Open,1989,Russia,91.3,215,,200,,93,M,Александр Скорбин,SBD
Single-ply,1,Aleksey Petrov,Open,1988,Russia,98.9,240,180,265,685,105,M,Алексей Петров,SBD
Single-ply,2,Aleksandr Kokutsa,Open,1988,Russia,98.95,220,172.5,262.5,655,105,M,Александр Кокуца,SBD
Single-ply,3,Maksim Filippov,Open,1988,Russia,99.5,245,185,225,655,105,M,Максим Филиппов,SBD
Single-ply,4,Nikita Razumovskiy,Open,1989,Russia,102.4,235,165,252.5,652.5,105,M,Никита Разумовский,SBD
Single-ply,5,Aleksandr Polikarpov,Open,1985,Russia,95.1,300,100,245,645,105,M,Александр Поликарпов,SBD
Single-ply,6,Grigoriy Dobrovolskiy,Open,1993,Russia,97.2,240,150,255,645,105,M,Григорий Добровольский,SBD
Single-ply,7,Ilya Panfilov,Open,1992,Russia,99.3,250,150,245,645,105,M,Илья Панфилов,SBD
Single-ply,8,Pavel Pastukhov,Open,1980,Russia,103.7,220,160,265,645,105,M,Павел Пастухов,SBD
Single-ply,9,Mikhail Sobolkov,Open,1986,Russia,95.3,210,135,220,565,105,M,Михаил Собольков,SBD
Single-ply,10,Dmitriy Fedotov,Open,1998,Russia,100.9,200,112.5,240,552.5,105,M,Дмитрий Федотов,SBD
Single-ply,1,Maksim Yakovlev,Open,1982,Russia,112.6,290,253,260,803,120,M,Максим Яковлев,SBD
Single-ply,2,Pavel Evseev,Open,1985,Russia,120,270,220,245,735,120,M,Павел Евсеев,SBD
Single-ply,3,Andrey Pavlov #4,Open,1976,Russia,107,240,215,260,715,120,M,Андрей Павлов,SBD
Single-ply,4,Dmitriy Krasev,Open,1982,Russia,110.45,262.5,195,252.5,710,120,M,Дмитрий Красев,SBD
Single-ply,5,Aleksandr Ivanov,Open,1973,Russia,114.5,270,180,250,700,120,M,Александр Иванов,SBD
Single-ply,6,Dmitriy Filippov,Open,1991,Russia,110.1,260,175,260,695,120,M,Дмитрий Филиппов,SBD
Single-ply,7,Dmitriy Voronov,Open,1999,Russia,107,200,110,215,525,120,M,Дмитрий Воронов,SBD
Single-ply,8,Ilya Sergeev,Open,1996,Russia,119.1,170,135,205,510,120,M,Илья Сергеев,SBD
Raw,1,Denis Gribel,Open,1999,Russia,48.8,60,50,105,215,59,M,Денис Грибель,SBD
Raw,1,Vasiliy Dunin,Open,1984,Russia,64.35,170,102.5,190,462.5,66,M,Василий Дунин,SBD
Raw,2,Aleksandr Mikhaylov,Open,1983,Russia,66,142.5,132.5,167.5,442.5,66,M,Александр Михайлов,SBD
Raw,3,Aleksandr Nozhenko,Open,1981,Russia,65,150,100,180,430,66,M,Александр Ноженко,SBD
Raw,4,Danil Savelov,Open,2000,Russia,66,90,60,125,275,66,M,Данил Савелов,SBD
Raw,1,Pavel Sorokin,Open,1994,Russia,73.05,180,130,250,560,74,M,Павел Сорокин,SBD
Raw,2,Vitaliy Korchevskiy,Open,1984,Russia,72.6,150,120,190,460,74,M,Виталий Корчевский,SBD
Raw,3,Vyacheslav Traber,Open,1991,Russia,71.85,150,115,180,445,74,M,Вячеслав Трабер,SBD
Raw,4,Aleksandr Bogdanov,Open,2001,Russia,68.65,100,72.5,127.5,300,74,M,Александр Богданов,SBD
Raw,5,Ivan Spirin,Open,1999,Russia,69.8,100,70,130,300,74,M,Иван Спирин,SBD
Raw,1,Andrey Matveev,Open,1992,Russia,83,235,145,272.5,652.5,83,M,Андрей Матвеев,SBD
Raw,2,Aleksandr Pavlov,Open,1982,Russia,83,220,165,262.5,647.5,83,M,Александр Павлов,SBD
Raw,1,Rustam Markentevich,Open,1996,Russia,90.5,230,140,235,605,93,M,Рустам Маркентевич,SBD
Raw,2,Maksim Kudaev,Open,1991,Russia,91.75,210,135,240,585,93,M,Максим Кудаев,SBD
Raw,3,Viktor Mardasov,Open,2001,Russia,91.2,142.5,105,170,417.5,93,M,Виктор Мардасов,SBD
Raw,4,Dmitriy Kolesnikov,Open,1999,Russia,85.2,100,70,135,305,93,M,Дмитрий Колесников,SBD
Raw,5,Igor Putilo,Open,1986,Russia,88.25,55,160,50,265,93,M,Игорь Путило,SBD
Raw,1,Aleksey Ilin,Open,1986,Russia,104.05,252.5,180,252.5,685,105,M,Алексей Ильин,SBD
Raw,2,Aleksey Ivanov,Open,1988,Russia,104.85,192.5,147.5,225,565,105,M,Алексей Иванов,SBD
Raw,3,Pavel Ivanov,Open,1992,Russia,93.1,165,150,192.5,507.5,105,M,Павел Иванов,SBD
Raw,1,Sergey Babenov,Open,1983,Russia,118.1,275,200,272.5,747.5,120,M,Сергей Бабенов,SBD
Raw,2,Pavel Detochka,Open,1980,Russia,112.25,240,160,280,680,120,M,Павел Деточка,SBD
Raw,1,Nikolay Ilalov,Open,1983,Russia,129.1,260,185,320,765,120+,M,Николай Илалов,SBD
Raw,2,Daniil Sukachev,Open,1979,Russia,148,220,172.5,250,642.5,120+,M,Даниил Сукачев,SBD
Raw,1,Margarita Nesterova,Juniors,1999,Russia,47,70,37.5,95,202.5,47,F,Маргарита Нестерова,SBD
Raw,1,Anastasiya Golubeva,Juniors,1996,Russia,56,100,50,100,250,57,F,Анастасия Голубева,SBD
Raw,1,Dmitriy Voroshilov,Juniors,1996,Russia,58.35,60,55,85,200,59,M,Дмитрий Ворошилов,SBD
Raw,1,Pavel Kutuzov,Juniors,1998,Russia,64.1,100,80,140,320,66,M,Павел Кутузов,SBD
Raw,1,Daniil Osipov,Juniors,1997,Russia,69.1,150,105,200,455,74,M,Даниил Осипов,SBD
Raw,2,Ruslan Egorov,Juniors,1993,Russia,67.2,150,100,160,410,74,M,Руслан Егоров,SBD
Raw,1,Aleksandr Vasilevskiy,Juniors,1994,Russia,90.5,180,135,185,500,93,M,Александр Василевский,SBD
Raw,1,Nikita Makarevich,Juniors,1993,Russia,147.3,220,145,220,585,120+,M,Никита Макаревич,SBD
Raw,1,Anna Smirnova,Sub-Juniors,2000,Russia,49.1,65,35,70,170,52,F,Анна Смирнова,SBD
Raw,1,Tatyana Yushkova,Sub-Juniors,1999,Russia,55.3,100,55,100,255,57,F,Татьяна Юшкова,SBD
Raw,2,Darya Egorova,Sub-Juniors,2000,Russia,55.45,100,55,97.5,252.5,57,F,Дарья Егорова,SBD
Raw,3,Lyudmila Petrova,Sub-Juniors,2000,Russia,53.4,60,35,70,165,57,F,Людмила Петрова,SBD
Raw,1,Mikhail Nikolaev,Sub-Juniors,2002,Russia,52.7,92.5,55,100,247.5,53,M,Михаил Николаев,SBD
Raw,2,Dmitriy Peshkov,Sub-Juniors,2005,Russia,45.55,40,32.5,50,122.5,53,M,Дмитрий Пешков,SBD
Raw,3,Dmitriy Smirnov,Sub-Juniors,2004,Russia,30.95,37.5,27.5,50,115,53,M,Дмитрий Смирнов,SBD
Raw,1,Ivan Yushkov,Sub-Juniors,2002,Russia,57.95,115,70,165,350,59,M,Иван Юшков,SBD
Raw,1,Anton Somov,Sub-Juniors,2000,Russia,62.45,135,115,152.5,402.5,66,M,Антон Сомов,SBD
Raw,2,Andrey Vasilyev,Sub-Juniors,2000,Russia,61.25,120,80,145,345,66,M,Андрей Васильев,SBD
Raw,3,Anton Mikhaylov,Sub-Juniors,2002,Russia,64.75,115,67.5,152.5,335,66,M,Антон Михайлов,SBD
Raw,4,Mikhail Shubin,Sub-Juniors,2000,Russia,65.75,107.5,87.5,135,330,66,M,Михаил Шубин,SBD
Raw,5,Dmitriy Eruslanov,Sub-Juniors,1998,Russia,65.85,110,90,115,315,66,M,Дмитрий Ерусланов,SBD
Raw,6,Vladimir Kondratyev,Sub-Juniors,1999,Russia,64.9,75,62.5,100,237.5,66,M,Владимир Кондратьев,SBD
Raw,1,Pavel Ivanov,Sub-Juniors,1999,Russia,70.65,142.5,102.5,200,445,74,M,Павел Иванов,SBD
Raw,2,Egor Kudryavtsev,Sub-Juniors,1999,Russia,71.5,125,90,145,360,74,M,Егор Кудрявцев,SBD
Raw,3,Yaroslav Dmitriev,Sub-Juniors,2000,Russia,73.65,110,75,132.5,317.5,74,M,Ярослав Дмитриев,SBD
Raw,4,Vyacheslav Tarkovich,Sub-Juniors,2001,Russia,71.1,115,60,135,310,74,M,Вячеслав Таркович,SBD
Raw,5,Konstantin Mordvinkin,Sub-Juniors,1999,Russia,66.8,95,55,130,280,74,M,Константин Мордвинкин,SBD
Raw,DQ,Aleksandr Bogdanov,Sub-Juniors,2001,Russia,71.3,117.5,90,,,74,M,Александр Богданов,SBD
Raw,1,Dmitriy Martynov,Sub-Juniors,1999,Russia,81.5,160,100,217.5,477.5,83,M,Дмитрий Мартынов,SBD
Raw,2,Aleksey Sergeenko,Sub-Juniors,1998,Russia,77.6,160,125.5,177.5,463,83,M,Алексей Сергеенко,SBD
Raw,3,Artem Bulin,Sub-Juniors,1999,Russia,75.25,160,115,180,455,83,M,Артем Булин,SBD
Raw,4,Andrey Ivanov,Sub-Juniors,1998,Russia,78,142.5,90,175,407.5,83,M,Андрей Иванов,SBD
Raw,5,Daniil Brovtsin,Sub-Juniors,1999,Russia,78.45,120,85,152.5,357.5,83,M,Даниил Бровцин,SBD
Raw,6,Mikhail Semenov,Sub-Juniors,2000,Russia,75.7,110,77.5,130,317.5,83,M,Михаил Семенов,SBD
Raw,7,Daniil Ivanov,Sub-Juniors,2000,Russia,78,115,60,130,305,83,M,Даниил Иванов,SBD
Raw,1,Dmitriy Gudko,Sub-Juniors,1998,Russia,91.5,215,130,230,575,93,M,Дмитрий Гудько,SBD
Raw,2,Kirill Zimin,Sub-Juniors,2001,Russia,86.3,127.5,105,145,377.5,93,M,Кирилл Зимин,SBD
