Equipment,Tested,Place,Name,Division,BirthYear,Country,BodyweightKg,Bench1Kg,Bench2Kg,Bench3Kg,Best3BenchKg,WeightClassKg,Sex,CyrillicName,Event,TotalKg
Raw,Yes,1,Anna Trotsyuk,O,1985,Ukraine,51.9,30,,,30,52,F,Анна Троцюк,B,30
Raw,Yes,1,Olesya Voevodina,O,1985,Ukraine,59,30,,,30,60,F,Олеся Воеводіна,B,30
Raw,Yes,1,Oksana Muzyka,M1,1969,Ukraine,66.9,35,,,35,67.5,F,Оксана Музика,B,35
Raw,Yes,1,Yuliya Malanchuk,T1,1995,Ukraine,75,35,,,35,75,F,Юлія Маланчук,B,35
Raw,Yes,1,Irina Tikhonova,M1,1970,Ukraine,72.7,35,,,35,75,F,Ірина Тихонова,B,35
Raw,Yes,1,Tetyana Dudnyk,O,1983,Ukraine,82.3,70,75,77.5,77.5,82.5,F,Тетяна Дудник,B,77.5
Raw,Yes,2,Olesya Klochek,O,1980,Ukraine,77,45,50,-55,50,82.5,F,Олеся Клочек,B,50
Raw,Yes,1,Mykyta Kravets,Y,2000,Ukraine,33.1,25,,,25,52,M,Микита Кравець,B,25
Raw,Yes,1,Yevgen Yasnovskyy,T1,1996,Ukraine,55.4,30,,,30,56,M,Євген Ясновський,B,30
Raw,Yes,1,Maksim Tynkovan,J,1990,Ukraine,60,45,,,45,60,M,Максим Тінкован,B,45
Raw,Yes,1,Vitaliy Muzyka,T1,1995,Ukraine,67.5,45,,,45,67.5,M,Віталій Музика,B,45
Raw,Yes,1,Aleksandr Betsa,O,1983,Ukraine,81.1,140,145,-152.5,145,82.5,M,Александр Беца,B,145
Raw,Yes,1,Denis Bunchuk,J,1989,Ukraine,86.4,170,180,-185,180,90,M,Денис Бунчук,B,180
Raw,Yes,1,Denis Bunchuk,O,1989,Ukraine,86.4,170,180,-185,180,90,M,Денис Бунчук,B,180
Raw,Yes,1,Sergiy Makarov,O,1979,Ukraine,89.5,160,167.5,-172.5,167.5,90,M,Сергій Макаров,B,167.5
Raw,Yes,2,Volodymyr Garbaruk,O,1977,Ukraine,84.8,160,-167.5,-167.5,160,90,M,Володимир Гарбарук,B,160
Raw,Yes,3,Dmitro Stanchev,O,1979,Ukraine,89.5,150,157.5,-162.5,157.5,90,M,Дмитро Станчев,B,157.5
Raw,Yes,1,Yuriy Vitrenyuk,O,1979,Ukraine,99.7,175,180,-187.5,180,100,M,Юрій Вітренюк,B,180
Raw,Yes,2,Yevgen Syrota,O,1981,Ukraine,95.8,160,170,-175,170,100,M,Євген Сирота,B,170
Raw,Yes,1,Oleksandr Basyuk,PFM,1977,Ukraine,96.2,130,135,140,140,100,M,Олександр Басюк,B,140
Raw,Yes,1,Vyacheslav Vitrenyuk,J,1988,Ukraine,104.5,140,-150,-150,140,110,M,В'ячеслав Вітренюк,B,140
Raw,Yes,1,Vitaliy Drebitko,O,1983,Ukraine,110,200,205,207.5,207.5,110,M,Віталій Дребитко,B,207.5
Raw,Yes,2,Dmytro Garkushka,O,1983,Ukraine,109.1,190,-197.5,-197.5,190,110,M,Дмитро Гаркушка,B,190
Raw,Yes,1,Oleg Afanasyev #1,O,1977,Ukraine,116,162.5,-170,170,170,125,M,Олег Афанась'єв,B,170
Raw,No,1,Maryna Soltanova,O,1985,Ukraine,59,47.5,-50,50,50,60,F,Марина Солтанова,B,50
Raw,No,1,Yuliya Shynkarenko,M4,1955,Ukraine,49.6,30,-35,35,35,52,M,Юлія Шинкаренко,B,35
Raw,No,1,Andriy Maslyak,J,1990,Ukraine,66.2,100,-107.5,,100,67.5,M,Андрій Масляк,B,100
Raw,No,1,Oleksiy Mikhalyuk,J,1989,Ukraine,75,135,145,-152.5,145,75,M,Олексій Михалюк,B,145
Raw,No,1,Oleksandr Foygel,M3,1958,Ukraine,73.4,-95,105,115,115,75,M,Олександр Фойгель,B,115
Raw,No,1,Sergiy Pismennyy,M4,1952,Ukraine,69.5,95,-105,-105,95,75,M,Сергій Письменний,B,95
Raw,No,1,Oleksey Dyadyushev,T2,1994,Ukraine,82.5,85,92.5,95,95,82.5,M,Олексій Дядюшев,B,95
Raw,No,1,Vladyslav Tatulov,T3,1992,Ukraine,82.5,100,-110,112.5,112.5,82.5,M,Владислав Татулов,B,112.5
Raw,No,1,Evgen Menesenko,J,1989,Ukraine,82.5,-165,165,-170,165,82.5,M,Євген Менесенко,B,165
Raw,No,2,Valeriy Durmanenko,J,1988,Ukraine,79.7,145,160,-170,160,82.5,M,Валерій Дурманенко,B,160
Raw,No,1,Ivan Rudyak,O,1980,Ukraine,82.4,150,-160,160,160,82.5,M,Іван Рудяк,B,160
Raw,No,2,Valeriy Marushka,O,1986,Ukraine,81.6,145,150,155,155,82.5,M,Валерій Марушка,B,155
Raw,No,3,Eldar Belyanov,O,1978,Ukraine,82.5,140,150,155,155,82.5,M,Эльдар Белянов,B,155
Raw,No,4,Sergiy Dem'yanov,O,1986,Ukraine,82.1,145,-152.5,-152.5,145,82.5,M,Сергій Дем'янов,B,145
Raw,No,1,Yuriy Osadchenko,M2,1961,Ukraine,81.9,150,155,-160,155,82.5,M,Юрій Осадченко,B,155
Raw,No,1,Yuriy Shamray,M6,1945,Ukraine,80.9,100,-107.5,107.5,107.5,82.5,M,Юрій Шамрай,B,107.5
Raw,No,1,Artem Nagornyy,J,1987,,87.7,170,180,-185,180,90,M,Артем Нагорний,B,180
Raw,No,1,Aleksandr Scherbakov,O,1966,Moldova,90,200,207.5,212.5,212.5,90,M,,B,212.5
Raw,No,2,Oleksandr Bochkaryov,O,1977,Ukraine,87,165,175,180,180,90,M,Олександр Бочкарьов,B,180
Raw,No,3,Konstantin Lukyanets,O,1983,Ukraine,89.9,150,160,-170,160,90,M,Константин Лукьянец,B,160
Raw,No,4,Oleksandr Pustovit,O,1984,Ukraine,86.1,150,-160,-165,150,90,M,Олександр Пустовіт,B,150
Raw,No,5,Oleksandr Zikov,O,1975,Ukraine,88.6,150,-160,-160,150,90,M,Олександр Зиков,B,150
Raw,No,1,Sergey Didovyk,O,1978,Ukraine,98.6,205,215,-220,215,100,M,Сергій Дідовик,B,215
Raw,No,2,Anton Platov,O,1979,Ukraine,99,190,202.5,-207.5,202.5,100,M,Антон Платов,B,202.5
Raw,No,1,Mykola Samonov,M2,1963,Ukraine,97.7,145,155,165,165,100,M,Микола Самонов,B,165
Raw,No,1,Yaroslav Dunay,O,1978,Ukraine,104,200,210,-220,210,110,M,Ярослав Дунай,B,210
Raw,No,2,Ruslan Moiseev,O,1981,Ukraine,103.8,170,-180,180,180,110,M,Руслан Моїсеєв,B,180
Raw,No,3,Viktor Shorokhov,O,1981,Ukraine,110,165,175,-185,175,110,M,Віктор Шорохов,B,175
Raw,No,4,Sergiy Varga,O,1982,Ukraine,107.4,160,-170,172.5,172.5,110,M,Сергій Варга,B,172.5
Raw,No,1,Sergiy Gus',O,1978,Ukraine,115.9,185,195,200,200,125,M,Сергій Гусь,B,200
Raw,No,2,Oleksandr Shopik,O,1982,Ukraine,117.5,195,-205,-205,195,125,M,Олександр Шопік,B,195
Raw,No,1,Viktor Bilik,M1,1969,Ukraine,115.5,160,170,-180,170,125,M,Віктор Білик,B,170
Raw,No,1,Oleg Kasyanenko,O,1971,Ukraine,138,185,-195,-200,185,140,M,Олег Кась'яненко,B,185
Multi-ply,Yes,1,Roman Medvedchuk,O,1981,Ukraine,80.8,130,145,-152.5,145,82.5,M,Роман Медведчук,B,145
Multi-ply,Yes,1,Oleksandr Basyuk,O,1977,Ukraine,96.2,135,140,-145,140,100,M,Олександр Басюк,B,140
Multi-ply,Yes,1,Vyacheslav Arkhipov #1,O,1970,Ukraine,108.4,150,160,170,170,110,M,В'ячеслав Архіпов,B,170
Multi-ply,No,1,Yevgeniya Stefanova,T3,1991,Ukraine,44,37.5,40,-42.5,40,44,F,Євгенія Стефанова,B,40
Multi-ply,No,1,Anastasia Pavlova,O,1985,Ukraine,46.8,42.5,45,47.5,47.5,48,F,Анастасия Павлова,B,47.5
Multi-ply,No,1,Anatoliy Sirkov,T3,1991,Ukraine,82.5,160,170,-175,170,82.5,M,Анатолій Сирков,B,170
Multi-ply,No,1,Oleksandr Bochkaryov,O,1977,Ukraine,87,230,240,245,245,90,M,Олександр Бочкарьов,B,245
Multi-ply,No,DQ,Aleksandr Soborov,O,1984,Moldova,87.1,-230,-240,-245,,90,M,,B,
Multi-ply,No,DQ,Sergey Didovyk,O,1978,Ukraine,98.6,-265,-265,-265,,100,M,Сергій Дідовик,B,
Multi-ply,No,DQ,Anton Platov,O,1979,Ukraine,99.2,,,,,100,M,Антон Платов,B,
Multi-ply,No,1,Yaroslav Dunay,O,1978,Ukraine,104,235,-240,,235,110,M,Ярослав Дунай,B,235
Multi-ply,No,2,Mykola Kuznetsov,O,1982,Ukraine,102.9,215,-230,-230,215,110,M,Микола Кузнецов,B,215
Multi-ply,No,3,Sergiy Denysyuk,O,1985,Ukraine,109.1,185,-200,-200,185,110,M,Сергій Денисюк,B,185
