Equipment,Tested,Place,Name,Division,BirthYear,Country,BodyweightKg,Squat1Kg,Squat2Kg,Squat3Kg,Best3SquatKg,Bench1Kg,Bench2Kg,Bench3Kg,Best3BenchKg,Deadlift1Kg,Deadlift2Kg,Deadlift3Kg,Best3DeadliftKg,TotalKg,WeightClassKg,Sex,CyrillicName,Event
Wraps,Yes,1,Irina Efremova,Amateur Juniors 20-23,1993,Russia,42.1,70,75,77.5,77.5,35,37.5,-40,37.5,95,-100,-100,95,210,44,F,Ирина Ефремова,SBD
Wraps,Yes,1,Alina Nagaeva,Amateur Teen 14-15,1998,Russia,46.55,60,65,,65,35,40,-42.5,40,70,80,82.5,82.5,187.5,48,F,Алина Нагаева,SBD
Wraps,Yes,1,Kristina Sidorenko,Amateur Teen 16-17,1998,Russia,47.75,75,-80,-85,75,35,40,-45,40,-90,90,95,95,210,48,F,Кристина Сидоренко,SBD
Wraps,Yes,DQ,Dinara Protasova,Amateur Open,1985,Russia,52,90,95,100,100,-45,-50,-50,,130,,,130,,52,F,Динара Протасова,SBD
Wraps,Yes,1,Tatyana Konovalova,Amateur Open,1989,Russia,55.85,120,130,-140,130,52.5,60,62.5,62.5,120,130,140,140,332.5,56,F,Татьяна Коновалова,SBD
Multi-ply,Yes,1,Anna Chubarova,Amateur Open,1988,Russia,74.3,190,200,210,210,120,130,135,135,-185,185,-195,185,530,75,F,Анна Чубарова,SBD
Multi-ply,Yes,1,Egor Kiselev,Amateur Open,1995,Russia,67.5,210,-230,230,230,110,130,-150,130,185,200,210,210,570,67.5,M,Егор Киселев,SBD
Wraps,No,1,Svetlana Bartuli,Pro Teen 18-19,1995,Russia,58.3,100,-110,-110,100,45,52.5,57.5,57.5,140,150,155,155,312.5,60,F,Светлана Бартули,SBD
Wraps,No,1,Galina Abramova,Pro Open,1989,Russia,60,132.5,140,-145,140,55,62.5,65,65,165,180,190,190,395,60,F,Галина Абрамова,SBD
Wraps,No,1,Georgiy Rostovtsev,Pro Teen 14-15,1998,Russia,59.3,105,110,115,115,60,65,-70,65,-110,110,125,125,305,60,M,Георгий Ростовцев,SBD
Wraps,No,1,Vladislav Alekseev,Pro Teen 18-19,1996,Russia,66.5,110,120,-130,120,90,97.5,100,100,150,160,170,170,390,67.5,M,Владислав Алексеев,SBD
Wraps,No,1,Timofey Ishimov,Pro Juniors 20-23,1990,Russia,66.95,120,-130,-135,120,90,97.5,-105,97.5,170,180,190,190,407.5,67.5,M,Тимофей Ишимов,SBD
Wraps,No,1,Roman Virt,Pro Teen 14-15,1998,Russia,70.65,90,100,110,110,65,70,77.5,77.5,125,135,145,145,332.5,75,M,Роман Вирт,SBD
Wraps,No,1,Roman Peshkov,Pro Open,1991,Russia,82.1,145,152.5,-160,152.5,90,95,102.5,102.5,200,210,215,215,470,82.5,M,Роман Пешков,SBD
Wraps,No,1,Pavel Gavrilenko,Pro Open,1980,Kazakhstan,89.15,220,230,,230,170,180,185.5,185.5,275,300,-310,300,715.5,90,M,,SBD
Wraps,No,2,Timofey Ermolaev,Pro Open,1991,Russia,89.95,185,195,202.5,202.5,142.5,-150,-150,142.5,220,240,250,250,595,90,M,Тимофей Ермолаев,SBD
Wraps,No,1,Valentin Gaydul,Pro Teen 14-15,1998,Russia,96,-110,110,125,125,57.5,62.5,67.5,67.5,110,125,140,140,332.5,100,M,Валентин Гайдуль,SBD
Wraps,No,1,Stanislav Telyatin,Pro Open,1989,Russia,100,-225,225,245,245,140,150,162.5,162.5,235,255,272.5,272.5,680,100,M,Станислав Телятин,SBD
Wraps,No,2,Aleksandr Shnarr,Pro Open,1994,Russia,99.6,-210,220,-240,220,132.5,142.5,-150,142.5,-240,240,255,255,617.5,100,M,Александр Шнарр,SBD
Wraps,No,3,Aleksandr Zinets,Pro Open,1992,Russia,98.5,215,-235,-235,215,140,150,-155,150,250,-270,-270,250,615,100,M,Александр Зинец,SBD
Wraps,No,1,Pavel Egoshin,Pro Juniors 20-23,1993,Russia,106.6,140,150,160,160,85,92.5,-97.5,92.5,160,170,180,180,432.5,110,M,Павел Егошин,SBD
Wraps,Yes,DQ,Margarita Andryuschuk,Amateur Teen 16-17,1997,Russia,43.55,-90,-90,-90,,,,,,,,,,,44,F,Маргарита Андрющук,S
Wraps,Yes,1,Sofya Lukyanova,Amateur Juniors 20-23,1992,Russia,50.4,65,-72.5,72.5,72.5,,,,,,,,,72.5,52,F,Софья Лукьянова,S
Wraps,Yes,1,Tatyana Orlacheva,Amateur Open,1989,Russia,54.9,77.5,87.5,-97.5,87.5,,,,,,,,,87.5,56,F,Татьяна Орлачева,S
Multi-ply,Yes,1,Nina Odintsova,Amateur Juniors 20-23,1994,Russia,54.6,-100,100,-110,100,,,,,,,,,100,56,F,Нина Одинцова,S
Multi-ply,Yes,1,Sergey Popov #15,Amateur Teen 18-19,1995,Russia,65.2,-210,-210,210,210,,,,,,,,,210,67.5,M,Сергей Попов,S
Multi-ply,No,1,Ivan Vasyunin,Pro Open,1983,Russia,98.85,360,-385,385,385,,,,,,,,,385,100,M,Иван Васюнин,S
Raw,Yes,1,Margarita Andryuschuk,Amateur Teen 16-17,1997,Russia,43.55,,,,,-50,50,-55,50,,,,,50,44,F,Маргарита Андрющук,B
Raw,Yes,1,Ekaterina Efimova,Amateur Juniors 20-23,1992,Russia,49.05,,,,,60,-65,,60,,,,,60,52,F,Екатерина Ефимова,B
Raw,Yes,2,Ekaterina Starodubtseva,Amateur Juniors 20-23,1991,Russia,51.8,,,,,40,45,47.5,47.5,,,,,47.5,52,F,Екатерина Стародубцева,B
Raw,Yes,1,Natalya Konovalova,Amateur Open,1988,Russia,54.15,,,,,105,110,117.5,117.5,,,,,117.5,56,F,Наталья Коновалова,B
Raw,Yes,1,Alina Kovtun,Amateur Teen 18-19,1995,Russia,65.5,,,,,67.5,-70,-70,67.5,,,,,67.5,67.5,F,Алина Ковтун,B
Raw,Yes,1,Olesya Tretyakova,Amateur Open,1982,Russia,79.25,,,,,60,65,72.5,72.5,,,,,72.5,82.5,F,Олеся Третьякова,B
Raw,Yes,1,Sergey Synkov,Amateur Teen 13,2001,Russia,42.1,,,,,50,52.5,55,55,,,,,55,44,M,Сергей Сынков,B
Raw,Yes,1,Nikita Udovichenko,Amateur Open,1990,Russia,59.05,,,,,100,105,-107.5,105,,,,,105,60,M,Никита Удовиченко,B
Raw,Yes,1,Aleksey Manankov,Amateur Open,1982,Russia,66.65,,,,,127.5,132.5,-145,132.5,,,,,132.5,67.5,M,Алексей Мананков,B
Raw,Yes,2,Aleksandr Efremov,Amateur Open,1989,Russia,66.85,,,,,102.5,110,-115,110,,,,,110,67.5,M,Александр Ефремов,B
Raw,Yes,DQ,Mikhail Alfa,Amateur Teen 18-19,1994,Russia,75,,,,,-115,-117.5,-117.5,,,,,,,75,M,Михаил Альфа,B
Raw,Yes,1,Alexander Alexandrov,Amateur Open,1979,Russia,69.75,,,,,160,167.5,172.5,172.5,,,,,172.5,75,M,Александр Александров,B
Raw,Yes,2,Nikolay Alimpiev,Amateur Open,1985,Russia,75,,,,,-127.5,127.5,-137.5,127.5,,,,,127.5,75,M,Николай Алимпиев,B
Raw,Yes,3,Artemey Gulin,Amateur Open,1983,Russia,72.45,,,,,107.5,115,-120,115,,,,,115,75,M,Артемей Гулин,B
Raw,Yes,1,Vadim Mosienko,Amateur Teen 18-19,1994,Russia,81.4,,,,,125,-130,-130,125,,,,,125,82.5,M,Вадим Мосиенко,B
Raw,Yes,1,Nikolay Mikhalchenko,Amateur Open,1985,Russia,82.5,,,,,-155,155,170,170,,,,,170,82.5,M,Николай Михальченко,B
Raw,Yes,2,Denis Simakhin,Amateur Open,1982,Russia,81.6,,,,,140,150,155,155,,,,,155,82.5,M,Денис Симахин,B
Raw,Yes,1,Denis Savchenko,Amateur Open,1983,Russia,88.5,,,,,120,-127.5,-127.5,120,,,,,120,90,M,Денис Савченко,B
Raw,Yes,2,Sergey Starodubov,Amateur Open,1987,Russia,88.55,,,,,-170,-170,170,170,,,,,170,90,M,Сергей Стародубов,B
Raw,Yes,1,Yakov Zuban,Amateur Juniors 20-23,1990,Russia,98.05,,,,,142.5,150,155,155,,,,,155,100,M,Яков Зубан,B
Raw,Yes,1,Vasiliy Synkov,Amateur Open,1972,Russia,99.15,,,,,190,200,,200,,,,,200,100,M,Василий Сынков,B
Raw,Yes,2,Sergey Babich,Amateur Open,1983,Russia,98.25,,,,,-170,-175,175,175,,,,,175,100,M,Сергей Бабич,B
Raw,Yes,3,Oleg Belkin,Amateur Open,1970,Russia,99.75,,,,,170,-180,-180,170,,,,,170,100,M,Олег Белкин,B
Raw,Yes,4,Dmitriy Kobruchev,Amateur Open,1982,Russia,97.6,,,,,150,162.5,-170,162.5,,,,,162.5,100,M,Дмитрий Кобручев,B
Raw,Yes,5,Igor Fomin,Amateur Open,1981,Russia,95.85,,,,,152.5,160,-165,160,,,,,160,100,M,Игорь Фомин,B
Raw,Yes,6,Maksim Savinkov,Amateur Open,1977,Russia,92.2,,,,,-155,155,-162.5,155,,,,,155,100,M,Максим Савинков,B
Raw,Yes,7,Aleksandr Schurov,Amateur Open,1979,Russia,97.9,,,,,147.5,-155,-162.5,147.5,,,,,147.5,100,M,Александр Щуров,B
Raw,Yes,8,Vladimir Klementyev,Amateur Open,1977,Russia,96.1,,,,,-142.5,142.5,-162.5,142.5,,,,,142.5,100,M,Владимир Клементьев,B
Raw,Yes,1,Maksim Vanin,Amateur Open,1980,Russia,109.4,,,,,160,170,177.5,177.5,,,,,177.5,110,M,Максим Ванин,B
Raw,Yes,1,Sergey Golub,Amateur Open,1982,Russia,119.45,,,,,165,175,185,185,,,,,185,125,M,Сергей Голуб,B
Raw,Yes,2,Aleksandr Sheshin,Amateur Open,1990,Russia,123.1,,,,,160,-175,175,175,,,,,175,125,M,Александр Шешин,B
Multi-ply,Yes,DQ,Sergey Bogun,Amateur Open,1999,Russia,55.4,,,,,-155,-155,-155,,,,,,,56,M,Сергей Богун,B
Multi-ply,Yes,1,Nikolay Shestakov,Amateur Teen 16-17,1996,Russia,73.7,,,,,150,157.5,-165,157.5,,,,,157.5,75,M,Николай Шестаков,B
Multi-ply,Yes,1,Artem Shkirdin,Amateur Teen 18-19,1995,Russia,73.75,,,,,157.5,-180,180,180,,,,,180,75,M,Артем Шкирдин,B
Multi-ply,Yes,1,Danil Lamanov,Amateur Open,1987,Russia,72.85,,,,,170,180,190,190,,,,,190,75,M,Данил Ламанов,B
Multi-ply,Yes,2,Sergey Khoruzhin,Amateur Open,1990,Russia,73.55,,,,,160,170,-180,170,,,,,170,75,M,Сергей Хоружин,B
Multi-ply,Yes,1,Dmitriy Kondaurov,Amateur Open,1989,Russia,81.75,,,,,-185,185,-195,185,,,,,185,82.5,M,Дмитрий Кондауров,B
Multi-ply,Yes,1,Alexey Merkulov,Amateur Open,1983,Russia,93.6,,,,,272.5,285.5,-300,285.5,,,,,285.5,100,M,Алексей Меркулов,B
Multi-ply,Yes,2,Vasiliy Synkov,Amateur Open,1972,Russia,99.15,,,,,255,270,,270,,,,,270,100,M,Василий Сынков,B
Multi-ply,Yes,1,Vasiliy Synkov,Amateur Masters 40-44,1972,Russia,99.15,,,,,190,200,,200,,,,,200,100,M,Василий Сынков,B
Multi-ply,Yes,2,Dmitriy Kamenek,Amateur Masters 40-44,1973,Russia,98.85,,,,,150,-162.5,-162.5,150,,,,,150,100,M,Дмитрий Каменек,B
Multi-ply,Yes,1,Oleg Vlasov,Amateur Open,1973,Russia,119.25,,,,,240,250,-260,250,,,,,250,125,M,Олег Власов,B
Raw,No,1,Ekaterina Kamenek,Pro Open,1989,Russia,47.35,,,,,70,80,-90,80,,,,,80,48,F,Екатерина Каменек,B
Raw,No,1,Igor Zhukov,Pro Juniors 20-23,1993,Russia,54.9,,,,,100,-105,,100,,,,,100,56,M,Игорь Жуков,B
Raw,No,1,Aleksandr Degtyarev,Pro Open,1983,Russia,66.85,,,,,125,135,-147.5,135,,,,,135,67.5,M,Александр Дегтярев,B
Raw,No,1,Nikita Vdovin,Pro Teen 16-17,1997,Russia,73.95,,,,,-100,100,-110,100,,,,,100,75,M,Никита Вдовин,B
Raw,No,1,Denis Belyaev,Pro Juniors 20-23,1993,Russia,71.3,,,,,105,110,-117.5,110,,,,,110,75,M,Денис Беляев,B
Raw,No,1,Mekhrodzh Madolimov,Pro Open,1991,Russia,69.5,,,,,145,150,-155,150,,,,,150,75,M,Мехродж Мадолимов,B
Raw,No,1,Sergey Simonov,Pro Juniors 20-23,1993,Russia,81.25,,,,,135,145,-155,145,,,,,145,82.5,M,Сергей Симонов,B
Raw,No,1,Ilya Dugushkin,Pro Open,1986,Russia,79.55,,,,,-130,-140,140,140,,,,,140,82.5,M,Илья Дугушкин,B
Raw,No,1,Evgeniy Shakirov,Pro Open,1982,Russia,87.4,,,,,160,170,175,175,,,,,175,90,M,Евгений Шакиров,B
Raw,No,1,Sergey Konovalov #1,Pro Open,1987,Russia,98.35,,,,,-212.5,222.5,230,230,,,,,230,100,M,Сергей Коновалов,B
Raw,No,2,Aleksey Novikov,Pro Open,1985,Russia,93.9,,,,,172.5,-195,-195,172.5,,,,,172.5,100,M,Алексей Новиков,B
Raw,No,1,Alexandr Zaytsev,Pro Open,1986,Kazakhstan,105.65,,,,,205,210,215,215,,,,,215,110,M,,B
Raw,No,2,Sergey Savoskin,Pro Open,1982,Russia,100.25,,,,,180,187.5,192.5,192.5,,,,,192.5,110,M,Сергей Савоськин,B
Raw,No,3,Ivan Klimenko,Pro Open,1980,Russia,105.65,,,,,160,170,-175,170,,,,,170,110,M,Иван Клименко,B
Raw,No,1,Aleksandr Abramov,Pro Open,1987,Russia,114.55,,,,,155,-165,165,165,,,,,165,125,M,Александр Абрамов,B
Raw,No,1,Nikolay Goryachev,Pro Masters 55-59,1957,Russia,114.75,,,,,150,160,-165,160,,,,,160,125,M,Николай Горячев,B
Raw,No,1,Aleksandr Logvinenko,Pro Open,1974,Russia,150.25,,,,,250,260,270,270,,,,,270,140+,M,Александр Логвиненко,B
Multi-ply,No,DQ,Alina Dubrovina,Pro Juniors 20-23,1992,Russia,63.05,,,,,-105,-105,-105,,,,,,,67.5,F,Алина Дубровина,B
Multi-ply,No,1,Aleksandr Degtyarev,Pro Open,1983,Russia,66.85,,,,,145,155,162.5,162.5,,,,,162.5,67.5,M,Александр Дегтярев,B
Multi-ply,No,1,Mikhail Kuleshov,Pro Open,1990,Russia,82.25,,,,,217.5,-227.5,227.5,227.5,,,,,227.5,82.5,M,Михаил Кулешов,B
Multi-ply,No,1,Yuriy Mikhaylov,Pro Open,1987,Russia,84.3,,,,,150,160,170,170,,,,,170,90,M,Юрий Михайлов,B
Multi-ply,No,1,Igor Kurlanov,Pro Open,1991,Russia,97.95,,,,,200,-215,-215,200,,,,,200,100,M,Игорь Курланов,B
Multi-ply,No,1,Tayana Arbakova,Pro Open,1991,Russia,65,,,,,,,,,65,75,-85,75,75,67.5,F,Таяна Арбакова,D
Multi-ply,No,1,Vadim Vandakurov,Pro Open,1992,Russia,88.45,,,,,,,,,275,295,-305,295,295,90,M,Вадим Вандакуров,D
