Equipment,Place,Name,BirthYear,Country,BodyweightKg,Bench1Kg,Bench2Kg,Bench3Kg,Best3BenchKg,WeightClassKg,Sex,CyrillicName,Event,TotalKg,Division
Raw,1,Evgeniya Chizhevskaya,1975,Russia,57,57.5,60,62.5,62.5,57,F,Евгения Чижевская,B,62.5,Open
Raw,2,Natalya Kudlanova,1982,Russia,55.3,40,45,-50,45,57,F,Наталья Кудланова,B,45,Open
Raw,3,Svetlana Nekrasova,1957,Russia,52.2,35,37.5,40,40,57,F,Светлана Некрасова,B,40,Open
Raw,1,Anastasiya Goncharova,1985,Russia,63,50,-55,55,55,63,F,Анастасия Гончарова,B,55,Open
Raw,2,Larisa Chutcheva,1978,Russia,58.3,40,-45,47.5,47.5,63,F,Лариса Чутчева,B,47.5,Open
Raw,3,Alina Permyakova,1990,Russia,58,40,-42.5,-45,40,63,F,Алина Пермякова,B,40,Open
Raw,1,Tatyana Rozhdestvenskaya,1982,Russia,70.7,90,100,-105,100,72,F,Татьяна Рождественская,B,100,Open
Raw,1,Oleg Smirnov,1990,Russia,59,135,-140,142.5,142.5,59,M,Олег Смирнов,B,142.5,Open
Raw,2,Sergey Dudukin,1965,Russia,59,-110,110,,110,59,M,Сергей Дудукин,B,110,Open
Raw,3,Vladimir Belyakov,1998,Russia,59,70,-75,75,75,59,M,Владимир Беляков,B,75,Open
Raw,4,Nikita Bezmaternykh,1998,Russia,59,65,-72.5,-72.5,65,59,M,Никита Безматерных,B,65,Open
Raw,1,Artem Tavastsherna,1985,Russia,66,150,155,157.5,157.5,66,M,Артем Тавастшерна,B,157.5,Open
Raw,2,Aleksandr Starodynov,1967,Russia,65.4,150,-160,-160,150,66,M,Александр Стародынов,B,150,Open
Raw,3,Andrey Khvan,1985,Russia,65.8,127.5,132.5,-135,132.5,66,M,Андрей Хван,B,132.5,Open
Raw,4,Karen Dzhanvelyan,1993,Russia,62.9,115,-117.5,117.5,117.5,66,M,Карен Джанвелян,B,117.5,Open
Raw,5,Vadim Smirnov,1996,Russia,65.2,90,100,102.5,102.5,66,M,Вадим Смирнов,B,102.5,Open
Raw,6,Kirill Kovalev,1992,Russia,64.1,85,90,-95,90,66,M,Кирилл Ковалев,B,90,Open
Raw,7,Andrey Kuznetsov,1995,Russia,65.1,75,-80,-80,75,66,M,Андрей Кузнецов,B,75,Open
Raw,1,Dmitriy Luchkin,1986,Russia,73.1,160,-170,170,170,74,M,Дмитрий Лучкин,B,170,Open
Raw,2,Stepan Zhilin,1992,Russia,74,125,130,132.5,132.5,74,M,Степан Жилин,B,132.5,Open
Raw,3,Ruslan Vystavkin,1995,Russia,69.8,-95,-95,95,95,74,M,Руслан Выставкин,B,95,Open
Raw,4,Dmitriy Kuropov,1998,Russia,71.2,-85,85,90,90,74,M,Дмитрий Куропов,B,90,Open
Raw,1,Evgeniy Shestakov,1989,Russia,81.5,150,155,157.5,157.5,83,M,Евгений Шестаков,B,157.5,Open
Raw,2,Maksim Osin,1989,Russia,76,135,142.5,-145,142.5,83,M,Максим Осин,B,142.5,Open
Raw,3,Rasim Ramazanov,1991,Russia,79.4,135,140,-147.5,140,83,M,Расим Рамазанов,B,140,Open
Raw,4,Mikhail Shestakov,1989,Russia,79.4,-140,140,-145,140,83,M,Михаил Шестаков,B,140,Open
Raw,5,Aleksandr Perekhodnov,1984,Russia,82.7,120,-125,125,125,83,M,Александр Переходнов,B,125,Open
Raw,6,Aleksandr Lugovskiy,1990,Russia,78.3,120,-130,-130,120,83,M,Александр Луговский,B,120,Open
Raw,7,Nikita Ananko,1995,Russia,75.8,-110,110,115,115,83,M,Никита Ананко,B,115,Open
Raw,8,Vasiliy Chudaev,1996,Russia,80.9,110,115,-117.5,115,83,M,Василий Чудаев,B,115,Open
Raw,1,Vitaliy Agafonov,1976,Russia,92.4,190,-200,200,200,93,M,Виталий Агафонов,B,200,Open
Raw,2,Nikita Nechaev,1987,Russia,92.1,180,185,-190,185,93,M,Никита Нечаев,B,185,Open
Raw,3,Yuriy Fedin,1973,Russia,91.2,145,152.5,155,155,93,M,Юрий Федин,B,155,Open
Raw,4,Stanislav Fetisov,1986,Russia,92.8,145,-152.5,-157.5,145,93,M,Станислав Фетисов,B,145,Open
Raw,5,Vyacheslav Pugachev,1977,Russia,90.1,130,140,-147.5,140,93,M,Вячеслав Пугачев,B,140,Open
Raw,6,Aleksandr Altymbaev,1994,Russia,85,135,-145,-150,135,93,M,Александр Алтымбаев,B,135,Open
Raw,7,Yuriy Kazakov,1967,Russia,92.7,135,-140,,135,93,M,Юрий Казаков,B,135,Open
Raw,8,Vyacheslav Smirnov,1966,Russia,85,120,-130,-130,120,93,M,Вячеслав Смирнов,B,120,Open
Raw,9,Andrey Lyubimov,1987,Russia,84,105,110,-115,110,93,M,Андрей Любимов,B,110,Open
Raw,1,Mikhail Batrakov,1979,Russia,100.9,160,170,-175,170,105,M,Михаил Батраков,B,170,Open
Raw,2,Slava Margyavichus,1971,Russia,104.8,170,-175,-175,170,105,M,Слава Маргявичус,B,170,Open
Raw,3,Sergey Kazakov,1973,Russia,100,160,165,-170,165,105,M,Сергей Казаков,B,165,Open
Raw,4,Algimantas Gruodis,1964,Russia,99,130,135,-140,135,105,M,Альгимантас Груодис,B,135,Open
Raw,5,Boris Osovitskiy,1981,Russia,102.5,125,130,-135,130,105,M,Борис Осовицкий,B,130,Open
Raw,DQ,Aleksey Artemov,1982,Russia,99,-140,-140,-145,,105,M,Алексей Артемов,B,,Open
Raw,DQ,Viktor Vasilyev,1954,Russia,102.4,-147.5,-147.5,-147.5,,105,M,Виктор Васильев,B,,Open
Raw,DQ,Aleksey Evdokimov,1990,Russia,103.2,-160,-165,,,105,M,Алексей Евдокимов,B,,Open
Raw,1,Ivan Yanushkevich,1986,Russia,111,172.5,182.5,190,190,120,M,Иван Янушкевич,B,190,Open
Raw,2,Sergey Kozlov,1973,Russia,105.7,170,-180,-180,170,120,M,Сергей Козлов,B,170,Open
Raw,3,Konstantin Lomovtsev,1993,Russia,116.8,160,170,-175,170,120,M,Константин Ломовцев,B,170,Open
Raw,4,Kirill Sutyka,1988,Russia,107.9,160,-170,-170,160,120,M,Кирилл Сутыка,B,160,Open
Raw,5,Vladimir Belyakov,1954,Russia,106.7,120,-125,-125,120,120,M,Владимир Беляков,B,120,Open
Raw,6,Oleg Rodnikov,1964,Russia,107.2,90,100,-105,100,120,M,Олег Родников,B,100,Open
Raw,1,Aleksandr Klychev,1987,Russia,124.4,210,220,-227.5,220,120+,M,Александр Клычев,B,220,Open
Raw,2,Vladimir Nakaznyy,1986,Russia,129.7,190,202.5,207.5,207.5,120+,M,Владимир Наказный,B,207.5,Open
