Equipment,Place,Name,Division,BirthYear,Country,BodyweightKg,Bench1Kg,Bench2Kg,Bench3Kg,Best3BenchKg,WeightClassKg,Sex,CyrillicName,Deadlift1Kg,Deadlift2Kg,Deadlift3Kg,Best3DeadliftKg,Event,TotalKg
Raw,1,Olga Kuksach,Teen,1999,Ukraine,49.1,50,52.5,-55,52.5,,F,Ольга Куксач,,,,,B,52.5
Raw,2,Svetlana Kovaleva,Teen,1997,Belarus,54.6,42.5,47.5,50,50,,F,,,,,,B,50
Raw,1,Olga Ostapenko,Juniors 20-23,1996,Ukraine,55.1,42.5,45,-50,45,,F,Ольга Остапенко,,,,,B,45
Raw,1,Oksana Logvinchuk,Open,1991,Ukraine,52,40,42.5,45,45,,F,Оксана Логвинчук,,,,,B,45
Raw,1,Alla Lanko,Masters,1965,Ukraine,51,-42.5,42.5,45,45,,F,Алла Ланько,,,,,B,45
Raw,1,Dmitro Sentyabrov,Teen,1998,Ukraine,59.6,92.5,95,-97.5,95,,M,Дмитро Сентябрьов,,,,,B,95
Raw,2,Bogdan Savosta,Teen,1999,Ukraine,54.6,-62.5,-62.5,62.5,62.5,,M,Богдан Савоста,,,,,B,62.5
Raw,1,Roman Korobko,Teen,2001,Ukraine,63.8,-75,75,80,80,67.5,M,Роман Коробко,,,,,B,80
Raw,2,Dmitro Khramets,Teen,2002,Ukraine,62.1,50,55,57.5,57.5,67.5,M,Дмитро Храмец,,,,,B,57.5
Raw,1,Danilo Bruenkov,Juniors 20-23,1996,Belarus,66.3,100,-107.5,-112.5,100,67.5,M,,,,,,B,100
Raw,1,Vladislav Fesyun,Teen,1998,Ukraine,68.2,-82.5,82.5,-95,82.5,75,M,Владислав Фесюн,,,,,B,82.5
Raw,2,Daniїl Skidan,Teen,2001,Ukraine,74.9,-70,70,-80,70,75,M,Даніїл Скідан,,,,,B,70
Raw,1,Kirilo Talko,Juniors 20-23,1994,Ukraine,73.6,-120,120,-122.5,120,75,M,Кирило Талько,,,,,B,120
Raw,2,Pavlo Belka,Juniors 20-23,1994,Ukraine,73.3,95,-100,100,100,75,M,Павло Бєлка,,,,,B,100
Raw,1,Igor Lashkevich,Open,1981,Belarus,73.9,-130,130,135,135,75,M,,,,,,B,135
Raw,2,Oleksandr Simonenko,Open,1992,Ukraine,67.6,-95,95,100,100,75,M,Олександр Симоненко,,,,,B,100
Raw,1,Aleksandr Valivashenko,Open,1987,Belarus,82.3,175,185,195,195,82.5,M,,,,,,B,195
Raw,2,Oleksandr Morgay,Open,1987,Ukraine,82.5,152.5,157.5,-160,157.5,82.5,M,Олександр Моргай,,,,,B,157.5
Raw,3,Stanislav Svirepov,Open,1986,Ukraine,81.2,-150,150,-160,150,82.5,M,Станіслав Свирепов,,,,,B,150
Raw,4,Artem Tyumentsev,Open,1990,Ukraine,78.5,130,-142.5,142.5,142.5,82.5,M,Артем Тюменцев,,,,,B,142.5
Raw,5,Evgeniy Konovalenko,Open,1990,Ukraine,76.4,117.5,125,127.5,127.5,82.5,M,Євгеній Коноваленко,,,,,B,127.5
Raw,DQ,Ivan Yuvzhenko,Open,1986,Ukraine,69.9,-90,-92.5,-92.5,,82.5,M,Іван Ювженко,,,,,B,
Raw,1,Vadim Melnik,Masters,1965,Ukraine,79.8,140,145,-150,145,82.5,M,Вадим Мельник,,,,,B,145
Raw,1,Viktor Borinets,Open,1989,Ukraine,87.1,170,177.5,-182.5,177.5,90,M,Віктор Боринец,,,,,B,177.5
Raw,2,Viktor Kolko,Open,1989,Ukraine,88.5,160,-165,170,170,90,M,Віктор Колько,,,,,B,170
Raw,3,Andriy Nesterenko,Open,1984,Ukraine,84.7,150,-155,-155,150,90,M,Андрій Нестеренко,,,,,B,150
Raw,1,Valeriy Lanko,Masters,1965,Ukraine,86.5,142.5,-145,145,145,90,M,Валерій Ланько,,,,,B,145
Raw,1,Mikhaylo Ilyushin,Open,1990,Ukraine,99.1,145,150,-160,150,100,M,Михайло Ілюшин,,,,,B,150
Raw,2,Roman Aleksandrov,Open,1993,Ukraine,98,137.5,145,-150,145,100,M,Роман Александров,,,,,B,145
Raw,3,Oleksandr Surmay,Open,1994,Ukraine,93.4,-115,120,130,130,100,M,Олександр Сурмай,,,,,B,130
Raw,DQ,Rostyslav Gerasymenko,Open,1978,Ukraine,92.8,-180,-180,-180,,100,M,Ростислав Герасименко,,,,,B,
Raw,1,Evgeniy Khityaev,Open,1984,Ukraine,114.9,180,202.5,205,205,,M,Євгеній Хітяєв,,,,,B,205
Raw,1,Sergiy Zabiyaka,Masters,1976,Ukraine,118.7,-180,180,190,190,,M,Сергій Забіяка,,,,,B,190
Raw,2,Oleksandr Pirotskiy,Masters,1976,Ukraine,108.5,145,152.5,160,160,,M,Олександр Пироцький,,,,,B,160
Raw,3,Oleksiy Glinin,Masters,1974,Ukraine,103.7,120,122.5,125,125,,M,Олексій Глинін,,,,,B,125
Raw,1,Dmitro Ogienko,Teen,1998,Ukraine,49.6,85,87.5,-90,87.5,,M,Дмитро Огієнко,,,,,B,87.5
Raw,1,Ilgar Rzaev #2,Juniors 20-23,1994,Ukraine,68,65,70,72.5,72.5,,M,Ілгар Рзаєв,,,,,B,72.5
Raw,1,Mikola Baydyuk,Open,1992,Ukraine,73.5,85,90,-95,90,,M,Микола Байдюк,,,,,B,90
Raw,1,Anatoliy Gavrish,Masters,1973,Ukraine,115.6,150,160,165,165,,M,Анатолій Гавриш,,,,,B,165
Raw,1,Svetlana Kovaleva,Teen,1997,Belarus,54.6,,,,,56,F,,-107.5,110,117.5,117.5,D,117.5
Raw,1,Olga Ostapenko,Juniors 20-23,1996,Ukraine,55.1,,,,,56,F,Ольга Остапенко,90,95,100,100,D,100
Raw,1,Polina Korol,Teen,2000,Belarus,58.6,,,,,,F,,-105,107.5,-117.5,107.5,D,107.5
Raw,2,Valeriya Ivaschenko,Teen,2000,Ukraine,63.7,,,,,,F,Валерія Іващенко,100,105,107.5,107.5,D,107.5
Raw,1,Alina Sukhitska,Juniors 20-23,1996,Ukraine,79,,,,,,F,Аліна Сухицька,90,-100,-102.5,90,D,90
Raw,1,Ilona Fursa,Open,1989,Ukraine,67.2,,,,,,F,Ілона Фурса,75,85,95,95,D,95
Raw,1,Bogdan Tsatsuk,Teen,1998,Ukraine,57,,,,,,M,Богдан Цацук,130,140,145,145,D,145
Raw,DQ,Oleksandr Logvin,Teen,2001,Ukraine,56,,,,,,M,Олександр Логвин,-120,-120,-120,,D,
Raw,1,Dmitro Khramets,Teen,2002,Ukraine,62.1,,,,,67.5,M,Дмитро Храмец,110,-120,120,120,D,120
Raw,1,Danilo Bruenkov,Juniors 20-23,1996,Belarus,66.3,,,,,67.5,M,,160,172.5,-180,172.5,D,172.5
Raw,2,Yuriy Vasiltsov,Juniors 20-23,1995,Belarus,60.1,,,,,67.5,M,,130,140,150,150,D,150
Raw,1,Oleg Chernyavskiy #3,Open,1983,Ukraine,67.3,,,,,67.5,M,Олег Чернявський,215,230,-240,230,D,230
Raw,1,Vladislav Bondar,Teen,1998,Ukraine,74.2,,,,,75,M,Владислав Бондар,210,-225,-225,210,D,210
Raw,2,Oleksandr Burmak,Teen,1999,Ukraine,73.2,,,,,75,M,Олександр Бурмак,182.5,187.5,192.5,192.5,D,192.5
Raw,3,Evgeniy Drobishevskiy,Teen,1999,Belarus,73,,,,,75,M,,190,-202.5,-202.5,190,D,190
Raw,1,Kirilo Talko,Juniors 20-23,1994,Ukraine,73.6,,,,,75,M,Кирило Талько,160,180,190,190,D,190
Raw,2,Vladislav Litvin,Juniors 20-23,1996,Ukraine,72.4,,,,,75,M,Владислав Литвин,-180,180,-190,180,D,180
Raw,3,Pavlo Belka,Juniors 20-23,1994,Ukraine,73.3,,,,,75,M,Павло Бєлка,130,140,150,150,D,150
Raw,1,Dmitro Galik,Open,1992,Ukraine,80.2,,,,,82.5,M,Дмитро Галік,190,-200,-200,190,D,190
Raw,1,Evgen Shvachko,Masters,1977,Ukraine,82,,,,,82.5,M,Євген Швачко,185,-195,195,195,D,195
Raw,1,Mikhail Chernushevich,Open,1992,Belarus,98.7,,,,,100,M,,270,290,-310,290,D,290
Raw,2,Artur Lisyuk,Open,1990,Belarus,98.5,,,,,100,M,,250,260,-267.5,260,D,260
Raw,3,Roman Aleksandrov,Open,1993,Ukraine,98,,,,,100,M,Роман Александров,200,210,220,220,D,220
Raw,4,Oleksandr Surmay,Open,1980,Ukraine,93.4,,,,,100,M,Олександр Сурмай,-180,190,200,200,D,200
Raw,1,Yuriy Suslo,Open,1981,Ukraine,102.8,,,,,110,M,Юрій Сусло,200,215,-225,215,D,215
Raw,1,Oleksiy Kotov,Juniors 20-23,1996,Ukraine,69.2,,,,,75,M,Олексій Котов,-125,-135,135,135,D,135
Raw,2,Ilgar Rzaev #2,Juniors 20-23,1994,Ukraine,68,,,,,75,M,Ілгар Рзаєв,-115,-115,115,115,D,115
