Equipment,Place,Name,Division,BirthYear,Country,BodyweightKg,Best3SquatKg,Best3BenchKg,Best3DeadliftKg,TotalKg,WeightClassKg,Sex,CyrillicName,Event,BirthDate
Single-ply,1,Anna Grebenets,Open,1990,Russia,56.02,140,85,130,355,57,F,Анна Гребенец,SBD,
Single-ply,1,Irina Elizarova,Open,1960,Russia,67.75,162.5,90,160,412.5,69,F,Ирина Елизарова,SBD,
Single-ply,1,Linur Zakiev,Open,1988,Russia,72.65,202.5,150,200,552.5,74,M,Линур Закиев,SBD,
Single-ply,1,Maksim Kutovoy,Open,1989,Russia,81.25,262.5,195,220,677.5,83,M,Максим Кутовой,SBD,
Single-ply,1,Yuriy Ershov,Open,1972,Russia,92.4,240,195,255,690,93,M,Юрий Ершов,SBD,
Single-ply,2,Andrey Onufriychuk,Open,1987,Russia,92.9,250,187.5,240,677.5,93,M,Андрей Онуфрийчук,SBD,
Single-ply,DQ,Ivan Asandi,Open,1979,Russia,92.1,270,,240,,93,M,Иван Асанди,SBD,
Single-ply,1,Aleksandr Gorokhovskiy,Open,1989,Russia,101.5,342.5,247.5,290,880,105,M,Александр Гороховский,SBD,
Single-ply,2,Aleksey Drachuk,Open,1986,Russia,98.8,315,270,272.5,857.5,105,M,Алексей Драчук,SBD,
Single-ply,1,Ivan Chistyakov,Open,1989,Russia,119,257.5,190,240,687.5,120,M,Иван Чистяков,SBD,
Raw,1,Anna Klisch,Open,1989,Russia,46.88,110,67.5,152.5,330,47,F,Анна Клищ,SBD,
Raw,2,Irina Guzenkova,Open,1989,Russia,46.32,92.5,47.5,120,260,47,F,Ирина Гузенкова,SBD,
Raw,3,Violeta Anisimova,Open,2006,Russia,46.02,95,52.5,80,227.5,47,F,Виолета Анисимова,SBD,
Raw,4,Veronika Anisimova,Open,2006,Russia,46.4,100,50,77.5,227.5,47,F,Вероника Анисимова,SBD,
Raw,5,Mariya Sholokhova,Open,1989,Russia,46.24,55,32.5,75,162.5,47,F,Мария Шолохова,SBD,
Raw,1,Irina Akimova,Open,1989,Russia,51.76,117.5,67.5,152.5,337.5,52,F,Ирина Акимова,SBD,
Raw,2,Yana Volkova,Open,1991,Russia,50.76,90,60,132.5,282.5,52,F,Яна Волкова,SBD,
Raw,3,Elena Kirdishova,Open,1982,Russia,51.46,75,45,90,210,52,F,Елена Кирдишова,SBD,
Raw,4,Oksana Golyakevich,Open,1991,Russia,50.06,65,37.5,82.5,185,52,F,Оксана Голякевич,SBD,
Raw,1,Olga Kopylova,Open,1992,Russia,56.18,107.5,67.5,105,280,57,F,Ольга Копылова,SBD,
Raw,2,Yuliya Fayzulina,Open,1993,Russia,55.9,92.5,57.5,97.5,247.5,57,F,Юлия Файзулина,SBD,
Raw,3,Margarita Melnikova,Open,1990,Russia,56.34,77.5,47.5,107.5,232.5,57,F,Маргарита Мельникова,SBD,
Raw,4,Kseniya Paykacheva,Open,1994,Russia,55.98,65,35,95,195,57,F,Ксения Пайкачева,SBD,
Raw,1,Irina Artyushkina,Open,1993,Russia,62.25,122.5,67.5,142.5,332.5,63,F,Ирина Артюшкина,SBD,
Raw,2,Natalya Rodicheva,Open,1975,Russia,60.35,117.5,57.5,130,305,63,F,Наталья Родичева,SBD,
Raw,3,Lyubov Nikitenko,Open,2001,Russia,62.7,105,67.5,125,297.5,63,F,Любовь Никитенко,SBD,
Raw,4,Anna Kalitina,Open,1990,Russia,61,100,65,125,290,63,F,Анна Калитина,SBD,
Raw,5,Olga Belyakova,Open,1978,Russia,61.9,92.5,52.5,120,265,63,F,Ольга Белякова,SBD,
Raw,6,Darya Aglushevich,Open,2004,Russia,61.75,95,50,95,240,63,F,Дарья Аглушевич,SBD,
Raw,1,Olesya Pugach,Open,1983,Russia,71.4,133.5,75,157.5,366,76,F,Олеся Пугач,SBD,
Raw,2,Elizaveta Chernova,Open,1982,Russia,70.85,117.5,55,155,327.5,76,F,Елизавета Чернова,SBD,
Raw,3,Yana Nosik,Open,1985,Russia,69.9,97.5,52.5,137.5,287.5,76,F,Яна Носик,SBD,
Raw,4,Anastasiya Ayzatulina,Open,1994,Russia,71.65,100,52.5,110,262.5,76,F,Анастасия Айзатулина,SBD,
Raw,5,Svetlana Korolyuk,Open,1989,Russia,68.9,95,42.5,115,252.5,69,F,Светлана Королюк,SBD,
Raw,6,Yuliya Rudenko #3,Open,1985,Russia,70.7,90,50,95,235,76,F,Юлия Руденко,SBD,
Raw,1,Yuliya Gorelova,Open,1987,Russia,83.45,145,90,180,415,84,F,Юлия Горелова,SBD,
Raw,2,Yana Eremeeva,Open,1990,Russia,79.45,112.5,60,122.5,295,84,F,Яна Еремеева,SBD,
Raw,3,Irina Anisimova,Open,1983,Russia,75.9,90,42.5,122.5,255,76,F,Ирина Анисимова,SBD,
Raw,1,Roman Medvedev,Open,2005,Russia,57.84,107.5,65,142.5,315,59,M,Роман Медведев,SBD,
Raw,2,Oleg Rybka,Open,2006,Russia,51.1,110,65,137.5,312.5,59,M,Олег Рыбка,SBD,
Raw,3,Ilya Taraburin,Open,2003,Russia,57.1,77.5,50,87.5,215,59,M,Илья Тарабурин,SBD,
Raw,DQ,Vladimir Polchenko,Open,2003,Russia,58.3,,,,,59,M,Владимир Полченко,SBD,
Raw,1,Mark Mikityuk,Open,2004,Russia,62.15,152.5,85,195,432.5,66,M,Марк Микитюк,SBD,
Raw,2,Roman Mugenov,Open,2000,Russia,64.25,142.5,125,165,432.5,66,M,Роман Мугенов,SBD,
Raw,3,Danil Kachan,Open,2002,Russia,65.85,142.5,105,177.5,425,66,M,Данил Качан,SBD,
Raw,4,Sergey Amirov,Open,1993,Russia,64.8,150,102.5,145,397.5,66,M,Сергей Амиров,SBD,
Raw,5,Egor Dubovik,Open,2000,Russia,65.15,130,97.5,152.5,380,66,M,Егор Дубовик,SBD,
Raw,6,Andrey Bakhturin,Open,2004,Russia,63.6,125,75,170,370,66,M,Андрей Бахтурин,SBD,
Raw,7,Ilya Oblezin,Open,1999,Russia,63.55,125,90,145,360,66,M,Илья Облезин,SBD,
Raw,8,Danila Popov,Open,2002,Russia,63.1,90,70,130,290,66,M,Данила Попов,SBD,
Raw,1,Sergey Tsarev,Open,1994,Russia,73.35,170,132.5,185,487.5,74,M,Сергей Царев,SBD,
Raw,2,Aleksey Kirsanov,Open,1987,Russia,72.05,170,132.5,177.5,480,74,M,Алексей Кирсанов,SBD,
Raw,3,Kirill Bozheskov,Open,1990,Russia,74,157.5,117.5,195,470,74,M,Кирилл Божесков,SBD,
Raw,4,Yaroslav Kalinin,Open,2004,Russia,73.6,130,80,140,350,74,M,Ярослав Калинин,SBD,
Raw,1,Aleksandr Klepikov,Open,1974,Russia,82.2,175,147.5,252.5,575,83,M,Александр Клепиков,SBD,
Raw,2,Nikolay Tvardovskiy,Open,1978,Russia,81.55,205,122.5,245,572.5,83,M,Николай Твардовский,SBD,
Raw,3,Pavel Kasperavichyus,Open,1991,Russia,80.1,165,175,225,565,83,M,Павел Касперавичюс,SBD,
Raw,4,Dmitriy Tretyakov,Open,1983,Russia,79.5,185,137.5,240,562.5,83,M,Дмитрий Третьяков,SBD,
Raw,5,Nikolay Vilisov,Open,1974,Russia,82.4,200,125,230,555,83,M,Николай Вилисов,SBD,
Raw,6,Aleksandr Pushkar,Open,1985,Russia,81.9,160,125,230,515,83,M,Александр Пушкарь,SBD,
Raw,7,Vadim Kifel,Open,1997,Russia,79.95,160,135,205,500,83,M,Вадим Кифель,SBD,
Raw,8,Vitaliy Cherisov,Open,1993,Russia,82.1,145,115,210,470,83,M,Виталий Черисов,SBD,
Raw,9,Andrey Semenov,Open,2001,Russia,77.1,155,105,180,440,83,M,Андрей Семенов,SBD,
Raw,10,Aleksey Vyatkin,Open,1974,Russia,81.7,140,100,160,400,83,M,Алексей Вяткин,SBD,
Raw,DQ,Evgeniy Blynskiy,Open,1990,Russia,81.1,,112.5,190,,83,M,Евгений Блынский,SBD,
Raw,DQ,Anton Zhomov,Open,1992,Russia,81.85,152.5,,195,,83,M,Антон Жомов,SBD,
Raw,1,Nikolay Kravchenko,Open,1986,Russia,88.05,252.5,187.5,272.5,712.5,93,M,Николай Кравченко,SBD,
Raw,2,Vasiliy Bakhturin,Open,1984,Russia,91.4,242.5,192.5,275,710,93,M,Василий Бахтурин,SBD,
Raw,3,Anton Fatkulin,Open,1980,Russia,90.95,240,162.5,265,667.5,93,M,Антон Фаткулин,SBD,
Raw,4,Aleksandr Bardin,Open,1975,Russia,90.65,235,160,270,665,93,M,Александр Бардин,SBD,
Raw,5,Aleksandr Perezhogin,Open,1978,Russia,86.7,260,155,230,645,93,M,Александр Пережогин,SBD,
Raw,6,Pavel Sheptitskiy,Open,1994,Russia,92.6,210,147.5,282.5,640,93,M,Павел Шептицкий,SBD,
Raw,7,Viktor Kurzenev,Open,1993,Russia,92.65,230,162.5,225,617.5,93,M,Виктор Курзенев,SBD,
Raw,8,Valeriy Malakhov,Open,1984,Russia,92.65,210,142.5,260,612.5,93,M,Валерий Малахов,SBD,
Raw,9,Leonid Sitkevich,Open,1985,Russia,91.75,200,165,215,580,93,M,Леонид Ситкевич,SBD,
Raw,10,Aleksey Voynov,Open,1993,Russia,87.65,180,125,220,525,93,M,Алексей Войнов,SBD,
Raw,11,Yuriy Almyashov,Open,1979,Russia,91.65,192.5,125,200,517.5,93,M,Юрий Альмяшов,SBD,
Raw,12,Ilya Kozlov,Open,1979,Russia,90.25,170,145,200,515,93,M,Илья Козлов,SBD,
Raw,13,Andrey Kascheev,Open,1983,Russia,92.75,180,110,200,490,93,M,Андрей Кащеев,SBD,
Raw,14,Anton Sinitskiy,Open,1990,Russia,89,170,117.5,185,472.5,93,M,Антон Синицкий,SBD,
Raw,15,Mikhail Vozmitel,Open,1997,Russia,86.25,155,100,162.5,417.5,93,M,Михаил Возмитель,SBD,
Raw,16,Aleksandr Belyakov,Open,2005,Russia,92.45,130,72.5,150,352.5,93,M,Александр Беляков,SBD,
Raw,1,Egor Romantsov,Open,1989,Russia,103.05,250,180,310,740,105,M,Егор Романцов,SBD,
Raw,2,Aleksandr Gorokhovskiy,Open,1989,Russia,102.3,245,180,295,720,105,M,Александр Гороховский,SBD,
Raw,3,Ruslan Kambulatov,Open,1986,Russia,103.35,250,202.5,257.5,710,105,M,Руслан Камбулатов,SBD,
Raw,4,Sergey Rogalev,Open,1989,Russia,104.45,215,177.5,260,652.5,105,M,Сергей Рогалев,SBD,
Raw,5,Roman Sokolov,Open,1976,Russia,104.2,245,155,250,650,105,M,Роман Соколов,SBD,
Raw,6,Sergey Afonyushkin,Open,1984,Russia,103.15,175,145,225,545,105,M,Сергей Афонюшкин,SBD,
Raw,7,Aleksandr Mansurov,Open,1981,Russia,99.15,190,110,242.5,542.5,105,M,Александр Мансуров,SBD,
Raw,8,Yuriy Maksimov,Open,1984,Russia,101.7,190,137.5,212.5,540,105,M,Юрий Максимов,SBD,
Raw,9,Denis Lukyachenko,Open,1991,Russia,98.55,120,160,240,520,105,M,Денис Лукьяченко,SBD,
Raw,10,Vitaliy Kuritsin,Open,1991,Russia,99.1,180,120,190,490,105,M,Виталий Курицин,SBD,
Raw,11,Aleksey Paznyak,Open,1975,Russia,99.1,180,110,160,450,105,M,Алексей Пазняк,SBD,
Raw,1,Aleksey Gorelov,Open,1981,Russia,119.15,255,180,290,725,120,M,Алексей Горелов,SBD,
Raw,2,Andrey Chukhin,Open,1972,Russia,107.7,242.5,147.5,280,670,120,M,Андрей Чухин,SBD,
Raw,3,Aleksandr Smirnov,Open,1974,Russia,117.55,210,122.5,245,577.5,120,M,,SBD,
Raw,4,Aleksandr Sashenko,Open,1996,Russia,105.85,210,135,230,575,120,M,Александр Сашенко,SBD,
Raw,5,Oleg Agafonov,Open,1974,Russia,107.55,190,130,215,535,120,M,Олег Агафонов,SBD,
Raw,1,Roman Drobchenko,Open,2004,Russia,124.35,165,102.5,230,497.5,120+,M,Роман Дробченко,SBD,
