Equipment,Tested,Place,Name,Division,BirthYear,Country,BodyweightKg,Squat1Kg,Squat2Kg,Squat3Kg,Best3SquatKg,Bench1Kg,Bench2Kg,Bench3Kg,Best3BenchKg,Deadlift1Kg,Deadlift2Kg,Deadlift3Kg,Best3DeadliftKg,TotalKg,WeightClassKg,Sex,CyrillicName,Event,Bench4Kg,Squat4Kg
Raw,No,1,Denis Kanaev,Pro Teen 14-15,1996,Russia,59.9,55,60,-65,60,-60,60,-70,60,80,90,-100,90,210,60,M,Денис Канаев,SBD,,
Raw,No,1,Mingaley Zagirov,Pro Masters 60-64,1948,Russia,74.6,-100,100,110,110,75,80,85,85,140,150,160,160,355,75,M,Мингалей Загиров,SBD,,
Raw,No,DQ,Vyacheslav Druzhinin,Pro Open,1983,Russia,80.9,-185,-185,-185,,,,,,,,,,,82.5,M,Вячеслав Дружинин,SBD,,
Raw,No,DQ,Mikhail Manyugin,Pro Masters 40-44,1969,Russia,81,165,176,180,180,-110,-110,-110,,,,,,,82.5,M,Михаил Манюгин,SBD,,
Raw,No,1,Sergey Nafikov,Pro Open,1973,Russia,90,-180,190,202.5,202.5,-150,160,170,170,230,250,260,260,632.5,90,M,Сергей Нафиков,SBD,,
Raw,No,2,Denis Krasnov,Pro Open,1971,Russia,88.5,190,200,210,210,-160,160,167.5,167.5,222.5,235,,235,612.5,90,M,Денис Краснов,SBD,,
Raw,No,1,Denis Krasnov,Pro Masters 40-44,1971,Russia,88.5,190,200,210,210,-160,160,167.5,167.5,222.5,235,,235,612.5,90,M,Денис Краснов,SBD,,
Raw,No,1,Sergey Shakhnovich,Pro Juniors 20-23,1991,Russia,99.1,230,250,-260,250,180,-190,-190,180,-235,235,250,250,680,100,M,Сергей Шахнович,SBD,,
Raw,No,1,Sergey Aldoshkin,Pro Juniors 20-23,1988,Russia,107.5,200,220,-230,220,130,150,-160,150,210,240,-260,240,610,110,M,Сергей Алдошкин,SBD,,
Raw,No,1,Denis Poddubnyy,Pro Open,1979,Russia,102.5,260,275,-285,275,170,-180,180,180,260,-280,280,280,735,110,M,Денис Поддубный,SBD,,
Raw,No,1,Aleksey Yurchenko,Pro Juniors 20-23,1988,Russia,114.6,240,255,262.5,262.5,170,180,-185,180,250,260,-270,260,702.5,125,M,Алексей Юрченко,SBD,,
Raw,No,1,Aleksey Yurchenko,Pro Open,1988,Russia,114.6,240,255,262.5,262.5,170,180,-185,180,250,260,-270,260,702.5,125,M,Алексей Юрченко,SBD,,
Raw,No,DQ,Aleksandr Fedulov,Pro Masters 45-49,1966,Russia,118.5,250,260,-272.5,260,-190,,,,,,,,,125,M,Александр Федулов,SBD,,
Multi-ply,No,1,Vladimir Ubeyvolk,Pro Teen 18-19,1992,Russia,65.5,195,205,-220,205,150,162.5,172.5,172.5,190,205,-212.5,205,582.5,67.5,M,Владимир Убейволк,SBD,,
Multi-ply,No,1,Mikhail Salopaev,Pro Juniors 20-23,1989,Russia,63.9,185,195,-200,195,105,-110,-110,105,190,200,-205,200,500,67.5,M,Михаил Салопаев,SBD,,
Multi-ply,No,1,Vladimir Kopchuk,Pro Open,1957,Russia,90,240,-260,-260,240,150,-165,-165,150,100,,,100,490,90,M,Владимир Копчук,SBD,,
Multi-ply,No,1,Vladimir Kopchuk,Pro Masters 55-59,1957,Russia,90,240,-260,-260,240,150,-165,-165,150,100,,,100,490,90,M,Владимир Копчук,SBD,,
Multi-ply,No,1,Mikhail Glazunov,Pro Open,1974,Russia,123.1,380,420,440,440,260,285,-300,285,350,-385,-385,350,1075,125,M,Михаил Глазунов,SBD,,
Raw,Yes,1,Rimma Karimova,Amateur Open,1983,Russia,58.2,70,85,-90,85,45,47.5,-50,47.5,-120,120,-130,120,252.5,60,F,Римма Каримова,SBD,,
Raw,Yes,2,Renata Simonyan,Amateur Open,1986,Russia,59.3,70,80,-90,80,40,45,50,50,90,105,-112.5,105,235,60,F,Рената Симонян,SBD,,
Raw,Yes,1,Elena Brusina,Amateur Open,1972,Russia,66.6,90,105,110,110,65,-75,75,75,-100,110,117.5,117.5,302.5,67.5,F,Елена Брусина,SBD,,
Raw,Yes,1,Aliya Khakimova,Amateur Open,1986,Russia,67.7,100,-105,-105,100,47.5,52.5,-55,52.5,120,-141,-141,120,272.5,75,F,Алия Хакимова,SBD,,
Raw,Yes,1,Evgeniy Eremenko,Amateur Teen 14-15,1997,Russia,42.1,60,-65,-65,60,35,40,42.5,42.5,65,70,75,75,177.5,52,M,Евгений Еременко,SBD,,
Raw,Yes,1,Denis Ryabov,Amateur Juniors 20-23,1990,Russia,51.3,95,105,115,115,55,65,-70,65,125,145,155,155,335,52,M,Денис Рябов,SBD,,
Raw,Yes,1,Pavel Vyatkin,Amateur Teen 16-17,1994,Russia,67.2,120,130,-140,130,90,95,100,100,160,165,170,170,400,67.5,M,Павел Вяткин,SBD,,
Raw,Yes,1,Anton Perminov,Amateur Open,1987,Russia,65.8,150,-160,-160,150,100,110,-115,110,190,200,210,210,470,67.5,M,Антон Перминов,SBD,,
Raw,Yes,1,Aleksandr Yudin,Amateur Teen 18-19,1993,Russia,70.3,140,150,160,160,100,105,-107.5,105,170,190,-200,190,455,75,M,Александр Юдин,SBD,,
Raw,Yes,2,Vladislav Bronnikov,Amateur Teen 18-19,1992,Russia,69.5,150,160,-165,160,-100,-100,110,110,160,-170,170,170,440,75,M,Владислав Бронников,SBD,,
Raw,Yes,1,Anton Nekhoroshkov,Amateur Juniors 20-23,1988,Russia,73.2,160,165,-170,165,125,130,-135,130,210,215,220,220,515,75,M,Антон Нехорошков,SBD,,
Raw,Yes,2,Aleksey Vikhrov,Amateur Juniors 20-23,1988,Russia,71.5,155,-162.5,165,165,-107.5,107.5,-110,107.5,200,207.5,217.5,217.5,490,75,M,Алексей Вихров,SBD,,
Raw,Yes,1,Roman Shalyagin,Amateur Teen 16-17,1994,Russia,77.3,170,180,182.5,182.5,115,120,-122.5,120,200,220,223,223,525.5,82.5,M,Роман Шалягин,SBD,,
Raw,Yes,2,Timur Fayziev,Amateur Teen 16-17,1996,Russia,82.5,150,-160,-165,150,-90,90,100,100,160,170,190,190,440,82.5,M,Тимур Файзиев,SBD,,
Raw,Yes,3,Nikita Uporov,Amateur Teen 16-17,1995,Russia,77,75,85,-95,85,40,50,60,60,100,110,120,120,265,82.5,M,Никита Упоров,SBD,,
Raw,Yes,1,Vladimir Dubrovin,Amateur Open,1986,Russia,82.4,210,-220,-220,210,140,-150,-150,140,210,220,-242.5,220,570,82.5,M,Владимир Дубровин,SBD,,
Raw,Yes,2,Konstantin Kuznetsov,Amateur Open,1983,Russia,80.4,-170,170,-180,170,155,160,-162.5,160,-200,200,-212.5,200,530,82.5,M,Константин Кузнецов,SBD,,
Raw,Yes,3,Artem Arzumanyan,Amateur Open,1987,Russia,80.6,180,-190,-190,180,120,125,-135,125,200,220,-240,220,525,82.5,M,Артем Арзуманян,SBD,,
Raw,Yes,4,Yan Bolkunevich,Amateur Open,1982,Russia,82.5,125,135,150,150,90,100,-105,100,140,150,165,165,415,82.5,M,Ян Болкуневич,SBD,,
Raw,Yes,1,Efim Kalimullin,Amateur Masters 55-59,1955,Russia,77.1,120,130,140,140,90,95,97.5,97.5,155,167.5,175,175,412.5,82.5,M,Ефим Калимуллин,SBD,,
Raw,Yes,1,Anton Zinatullin,Amateur Teen 16-17,1994,Russia,88.9,200,210,-220,210,140,-145,145,145,-240,240,-265,240,595,90,M,Антон Зинатуллин,SBD,,
Raw,Yes,1,Dmitriy Kurok,Amateur Teen 18-19,1993,Russia,83.7,-170,170,180,180,110,117.5,-122.5,117.5,190,200,210,210,507.5,90,M,Дмитрий Курок,SBD,,
Raw,Yes,1,Vyacheslav Sapozhnikov,Amateur Juniors 20-23,1988,Russia,89,125,135,145,145,92.5,97.5,-100,97.5,155,170,180,180,422.5,90,M,Вячеслав Сапожников,SBD,,
Raw,Yes,1,Anton Koval,Amateur Open,1982,Russia,89.8,205,212.5,220,220,150,155,-160,155,220,230,240,240,615,90,M,Антон Коваль,SBD,,
Raw,Yes,2,Alexander Grigoryev,Amateur Open,1987,Russia,89.2,-170,175,185,185,120,-130,-130,120,210,-242.5,-242.5,210,515,90,M,Александр Григорьев,SBD,,
Raw,Yes,1,Fedor Pankratov,Amateur Teen 14-15,1996,Russia,98.5,-120,-120,120,120,85,90,-95,90,140,150,-155,150,360,100,M,Федор Панкратов,SBD,,
Raw,Yes,1,Aleksandr Anshevits,Amateur Teen 18-19,1993,Russia,94.6,175,185,-192.5,185,125,135,-142.5,135,225,235,242.5,242.5,562.5,100,M,Александр Аншевиц,SBD,,
Raw,Yes,1,Artem Nechitaylo,Amateur Juniors 20-23,1989,Russia,97.2,-170,-170,170,170,125,132.5,135,135,235,245,250,250,555,100,M,Артем Нечитайло,SBD,,
Raw,Yes,1,Andrey Dobryakov,Amateur Open,1975,Russia,99.6,160,170,180,180,150,-165,165,165,155,170,202.5,202.5,547.5,100,M,Андрей Добряков,SBD,,
Raw,Yes,2,Alir Sharipov,Amateur Open,1967,Russia,92.9,170,177.5,185,185,125,130,135,135,200,215,225,225,545,100,M,Алир Шарипов,SBD,,
Raw,Yes,3,Sergey Nikitin,Amateur Open,1974,Russia,95.1,130,140,160,160,120,130,-135,130,140,160,,160,450,100,M,Сергей Никитин,SBD,,
Raw,Yes,1,Alir Sharipov,Amateur Masters 40-44,1967,Russia,92.9,170,177.5,185,185,125,130,135,135,200,215,225,225,545,100,M,Алир Шарипов,SBD,,
Raw,Yes,1,Valeriy Bystrov,Amateur Masters 70-74,1941,Russia,97.1,170,180,-190,180,105,-110,112.5,112.5,190,195,200,200,492.5,100,M,Валерий Быстров,SBD,,
Raw,Yes,1,Dmitriy Stavskiy,Amateur Juniors 20-23,1989,Russia,102.7,235,245,255,255,-125,-130,130,130,270,285,-295,285,670,110,M,Дмитрий Ставский,SBD,,
Raw,Yes,2,Kirill Fedoseev,Amateur Juniors 20-23,1992,Russia,107.8,-170,-180,180,180,-140,140,150,150,210,230,-240,230,560,110,M,Кирилл Федосеев,SBD,,
Raw,Yes,1,Aleksandr Kozhevnikov,Amateur Open,1977,Russia,109.1,220,230,,230,180,190,,190,250,260,,260,680,110,M,Александр Кожевников,SBD,,
Raw,Yes,1,Eduard Posobilov,Amateur Masters 40-44,1970,Russia,106.6,185,195,202.5,202.5,125,-135,-135,125,210,220,227.5,227.5,555,110,M,Эдуард Пособилов,SBD,,
Raw,Yes,1,Igor Solovey,Amateur Open,1967,Russia,122.8,-230,-230,230,230,155,-162.5,162.5,162.5,230,240,-250,240,632.5,125,M,Игорь Соловей,SBD,,
Raw,Yes,1,Igor Solovey,Amateur Masters 40-44,1967,Russia,122.8,-230,-230,230,230,155,-162.5,162.5,162.5,230,240,-250,240,632.5,125,M,Игорь Соловей,SBD,,
Raw,Yes,1,Oleg Vasyuchenko,Amateur Masters 40-44,1968,Russia,125.4,240,260,,260,140,,,140,260,-280,,260,660,140,M,Олег Васюченко,SBD,,
Multi-ply,Yes,1,Veronika Galiakbarova,Amateur Juniors 20-23,1989,Russia,55.3,120,130,-140,130,-70,70,-72.5,70,125,135,,135,335,56,F,Вероника Галиакбарова,SBD,,
Multi-ply,Yes,DQ,Yuliya Biktasheva,Amateur Juniors 20-23,1989,Russia,55.4,105,115,120,120,-75,-75,-75,,-105,,,,,56,F,Юлия Бикташева,SBD,,
Multi-ply,Yes,1,Vasilina Avdeenko,Amateur Open,1983,Russia,64.3,150,-166,-166,150,-70,70,-76,70,120,130,,130,350,67.5,F,Василина Авдеенко,SBD,,
Multi-ply,Yes,1,Denis Prokhorov,Amateur Teen 14-15,1997,Russia,55.9,140,151,-155,151,65,70,-75,70,-125,130,135,135,356,56,M,Денис Прохоров,SBD,,
Multi-ply,Yes,1,Eduard Zamiralov,Amateur Teen 14-15,1998,Russia,59.8,135,142.5,150,150,70,77.5,-82.5,77.5,125,135,-140,135,362.5,60,M,Эдуард Замиралов,SBD,,
Multi-ply,Yes,1,Sergey Kopchenov,Amateur Teen 18-19,1993,Russia,66.3,-200,-200,200,200,110,-115,115,115,170,190,-200,190,505,67.5,M,Сергей Копченов,SBD,,
Multi-ply,Yes,DQ,Mikhail Fateev,Amateur Juniors 20-23,1989,Russia,65.9,-210,-210,-210,,,,,,,,,,,67.5,M,Михаил Фатеев,SBD,,
Multi-ply,Yes,1,Vadim Panyakin,Amateur Teen 14-15,1998,Russia,72.1,170,-180,,170,95,102.5,107.5,107.5,150,160,-167.5,160,437.5,75,M,Вадим Панякин,SBD,,
Multi-ply,Yes,1,Konstantin Bazhin,Amateur Masters 40-44,1967,Russia,74,-180,180,200,200,-115,115,125,125,200,-212.5,-212.5,200,525,75,M,Константин Бажин,SBD,,
Multi-ply,Yes,1,Mikhail Vysotskiy,Amateur Teen 14-15,1996,Russia,82.1,210,222.5,229,229,-115,115,125,125,150,165,175,175,529,82.5,M,Михаил Высоцкий,SBD,,
Multi-ply,Yes,1,Sergey Olisov,Amateur Teen 18-19,1992,Russia,82.4,250,-260,-260,250,150,-160,-160,150,210,230,250,250,650,82.5,M,Сергей Олисов,SBD,,
Multi-ply,Yes,1,Evgeniy Baranov,Amateur Open,1972,Russia,80.1,280,-300,300,300,-190,-190,190,190,230,250,-262.5,250,740,82.5,M,Евгений Баранов,SBD,,
Multi-ply,Yes,1,Evgeniy Golovanov,Amateur Open,1987,Russia,88.4,-235,235,-265,235,130,150,-160,150,230,250,-266,250,635,90,M,Евгений Голованов,SBD,,
Multi-ply,Yes,1,Valeriy Ignatyev,Amateur Masters 40-44,1969,Russia,97.5,-275,275,285,285,180,-190,190,190,245,260,,260,735,100,M,Валерий Игнатьев,SBD,,
Multi-ply,Yes,1,Valeriy Zaytsev,Amateur Open,1976,Russia,105.9,-215,-215,215,215,145,155,-165,155,190,210,-225,210,580,110,M,Валерий Зайцев,SBD,,
Multi-ply,Yes,1,Vladimir Blinkov,Amateur Open,1978,Russia,117.6,360,390,,390,235,242.5,247.5,247.5,290,310,322.5,322.5,960,125,M,Владимир Блинков,SBD,,
Raw,No,1,Vladimir Sergeev,Pro Open,1985,Russia,57,70,80,-90,80,60,65,-70,65,125,140,-150,140,285,60,M,Владимир Сергеев,SBD,,
Raw,No,1,Vyacheslav Parkaev,Pro Teen 16-17,1994,Russia,61.3,105,115,125,125,75,77.5,-80,77.5,130,145,-150,145,347.5,67.5,M,Вячеслав Паркаев,SBD,,
Raw,No,1,Dmitriy Ivanov #3,Pro Juniors 20-23,1989,Russia,65.4,75,85,92.5,92.5,70,-75,-75,70,135,145,-155,145,307.5,67.5,M,Дмитрий Иванов,SBD,,
Raw,No,1,Nikita Zhelev,Pro Teen 16-17,1994,Russia,69,90,100,110,110,80,87.5,-90,87.5,140,-147.5,150,150,347.5,75,M,Никита Желев,SBD,,
Raw,No,1,Aleksey Uymin,Pro Juniors 20-23,1990,Russia,74.9,85,90,100,100,77.5,85,-92.5,85,75,,,75,260,75,M,Алексей Уймин,SBD,,
Raw,No,1,Pavel Chushkin,Pro Open,1987,Russia,73.1,-95,100,115,115,97.5,102.5,107.5,107.5,165,170,-180,170,392.5,75,M,Павел Чушкин,SBD,,
Raw,No,2,Aleksey Knyazkin,Pro Open,1987,Russia,69.9,105,115,122.5,122.5,90,-95,-95,90,125,140,-150,140,352.5,75,M,Алексей Князькин,SBD,,
Raw,No,1,Petr Borodinov,Pro Teen 16-17,1994,Russia,78.2,120,125,130,130,85,92.5,97.5,97.5,160,175,187.5,187.5,415,82.5,M,Петр Бородинов,SBD,,
Raw,No,1,Pavel Zubov,Pro Juniors 20-23,1990,Russia,80.7,162.5,170,-180,170,100,102.5,105,105,-185,185,-195,185,460,82.5,M,Павел Зубов,SBD,,
Raw,No,1,Andrey Gusev,Pro Open,1987,Russia,75.5,90,100,-110,100,75,80,-85,80,110,125,-140,125,305,82.5,M,Андрей Гусев,SBD,,
Raw,No,1,Kirill Isaev,Pro Open,1987,Russia,85.7,110,120,130,130,92.5,97.5,100,100,135,145,155,155,385,90,M,Кирилл Исаев,SBD,,
Raw,No,1,Andrey Ladeyschikov,Pro Open,1984,Russia,95.8,170,185,190,190,125,132.5,137.5,137.5,200,215,225,225,552.5,100,M,Андрей Ладейщиков,SBD,,
Raw,No,2,Ivan Kukoba,Pro Open,1986,Russia,90.8,90,,,90,90,95,-100,95,140,150,155,155,340,100,M,Иван Кукоба,SBD,,
Raw,No,1,Stanislava Amelchenko,Pro Open,1986,Russia,82.6,,,,,55,57.5,-60,57.5,,,,,57.5,90,F,Станислава Амельченко,B,,
Raw,No,1,Igor Mitrofanov,Pro Teen 14-15,1998,Russia,50,,,,,20,25,-30,25,,,,,25,52,M,Игорь Митрофанов,B,,
Raw,No,1,Ivan Repnitsyn,Pro Teen 14-15,1998,Russia,55,,,,,20,25,30,30,,,,,30,56,M,Иван Репницын,B,,
Raw,No,DQ,Aleksandr Chigirev,Pro Teen 14-15,1996,Russia,65.9,,,,,-80,-80,-80,,,,,,,67.5,M,Александр Чигирев,B,,
Raw,No,1,Aleksandr Pisarev,Pro Teen 16-17,1994,Russia,67,,,,,85,95,-97.5,95,,,,,95,67.5,M,Александр Писарев,B,,
Raw,No,2,Grigoriy Pantyukhin,Pro Teen 16-17,1995,Russia,65.3,,,,,-80,80,-90,80,,,,,80,67.5,M,Григорий Пантюхин,B,,
Raw,No,1,Maksim Kuznetsov,Pro Juniors 20-23,1991,Russia,63,,,,,130,137.5,142.5,142.5,,,,,142.5,67.5,M,Максим Кузнецов,B,,
Raw,No,1,Aleksey Potapov,Pro Open,1976,Russia,67.4,,,,,117.5,122.5,,122.5,,,,,122.5,67.5,M,Алексей Потапов,B,,
Raw,No,1,Pavel Malinin,Pro Teen 14-15,1998,Russia,73,,,,,20,25,30,30,,,,,30,75,M,Павел Малинин,B,,
Raw,No,1,Sergey Kozhokin,Pro Masters 40-44,1969,Russia,69.8,,,,,110,120,-125,120,,,,,120,75,M,Сергей Кожокин,B,,
Raw,No,1,Gennadiy Pereladov,Pro Masters 70-74,1939,Russia,73.4,,,,,85,90,-95,90,,,,,90,75,M,Геннадий Переладов,B,,
Raw,No,1,Ilya Khodyrev,Pro Teen 16-17,1996,Russia,80.1,,,,,125,132.5,140,140,,,,,140,82.5,M,Илья Ходырев,B,,
Raw,No,1,Maksim Chirkov,Pro Juniors 20-23,1989,Russia,82.4,,,,,150,155,160,160,,,,,160,82.5,M,Максим Чирков,B,,
Raw,No,1,Denis Maslakov,Pro Open,1982,Russia,81.4,,,,,150,160,170,170,,,,,170,82.5,M,Денис Маслаков,B,,
Raw,No,2,Sergey Korkin,Pro Open,1979,Russia,77,,,,,90,110,-122.5,110,,,,,110,82.5,M,Сергей Коркин,B,,
Raw,No,1,Aleksandr Levin,Pro Teen 16-17,1994,Russia,87.8,,,,,160,185,,185,,,,,185,90,M,Александр Левин,B,,
Raw,No,1,Dmitriy Prozorov,Pro Open,1985,Russia,86.4,,,,,172.5,182.5,-185,182.5,,,,,182.5,90,M,Дмитрий Прозоров,B,,
Raw,No,2,Andrey Kalinin,Pro Open,1972,Russia,89.2,,,,,165,-170,,165,,,,,165,90,M,Андрей Калинин,B,,
Raw,No,1,Vladimir Reshetnikov,Pro Masters 50-54,1960,Russia,85.2,,,,,182.5,190,,190,,,,,190,90,M,Владимир Решетников,B,,
Raw,No,1,Evgeniy Basov,Pro Masters 55-59,1955,Russia,89.5,,,,,115,125,-135,125,,,,,125,90,M,Евгений Басов,B,,
Raw,No,1,Aleksandr Kazantsev,Pro Open,1979,Russia,99.8,,,,,220,227.5,,227.5,,,,,227.5,100,M,Александр Казанцев,B,,
Raw,No,2,Dmitriy Tambovtsev,Pro Open,1969,Russia,99.2,,,,,180,190,195,195,,,,,195,100,M,Дмитрий Тамбовцев,B,,
Raw,No,3,Aleksandr Shmygin,Pro Open,1983,Russia,100,,,,,180,195,-200,195,,,,,195,100,M,Александр Шмыгин,B,,
Raw,No,4,Sergey Martyanov,Pro Open,1975,Russia,100,,,,,170,180,-192.5,180,,,,,180,100,M,Сергей Мартьянов,B,,
Raw,No,5,Valentin Nechaev,Pro Open,1980,Russia,97.1,,,,,165,172.5,-180,172.5,,,,,172.5,100,M,Валентин Нечаев,B,,
Raw,No,DQ,Denis Leman,Pro Open,1978,Russia,96.8,,,,,-165,-172.5,-172.5,,,,,,,100,M,Денис Леман,B,,
Raw,No,1,Dmitriy Tambovtsev,Pro Masters 40-44,1969,Russia,99.2,,,,,185,190,195,195,,,,,195,100,M,Дмитрий Тамбовцев,B,,
Raw,No,2,Vladimir Petrov,Pro Masters 40-44,1968,Russia,99.9,,,,,165,172.5,-180,172.5,,,,,172.5,100,M,Владимир Петров,B,,
Raw,No,1,Igor Anfalov,Pro Masters 45-49,1964,Russia,99.3,,,,,150,157.5,-160,157.5,,,,,157.5,100,M,Игорь Анфалов,B,,
Raw,No,1,Ivan Minko,Pro Juniors 20-23,1988,Russia,103.5,,,,,190,-200,-200,190,,,,,190,110,M,Иван Минко,B,,
Raw,No,1,Evgeniy Illarionov,Pro Open,1982,Russia,103.7,,,,,190,200,-205,200,,,,,200,110,M,Евгений Илларионов,B,,
Raw,No,2,Maksim Sveyko,Pro Open,1979,Russia,102.2,,,,,170,180,-185,180,,,,,180,110,M,Максим Свейко,B,,
Raw,No,3,Boris Pecherskiy,Pro Open,1981,Russia,109.6,,,,,155,165,-167.5,165,,,,,165,110,M,Борис Печерский,B,,
Raw,No,1,Mikhail Strizhov,Pro Masters 45-49,1964,Russia,109.8,,,,,160,170,-180,170,,,,,170,110,M,Михаил Стрижов,B,,
Raw,No,1,Aleksandr Poluektov,Pro Masters 55-59,1957,Russia,101.9,,,,,165,172.5,177.5,177.5,,,,,177.5,110,M,Александр Полуэктов,B,,
Raw,No,1,Dmitriy Bal,Pro Open,1974,Russia,117.3,,,,,200,205,210,210,,,,,210,125,M,Дмитрий Баль,B,,
Raw,No,2,Ivan Regulyarnyy,Pro Open,1984,Russia,117.7,,,,,200,-210,-212.5,200,,,,,200,125,M,Иван Регулярный,B,,
Raw,No,1,Aleksandr Sichev,Pro Masters 50-54,1960,Russia,116.1,,,,,-145,150,155,155,,,,,155,125,M,Александр Сычев,B,,
Multi-ply,No,1,Ekaterina Romanova,Pro Juniors 20-23,1990,Russia,42.9,,,,,-70,-75,75,75,,,,,75,44,F,Екатерина Романова,B,-80,
Multi-ply,No,1,Semen Paley,Pro Teen 13,1999,Russia,51,,,,,67.5,-72.5,-72.5,67.5,,,,,67.5,52,M,Семен Палей,B,,
Multi-ply,No,1,Roman Lobanov,Pro Teen 18-19,1992,Russia,60,,,,,-90,100,-102.5,100,,,,,100,60,M,Роман Лобанов,B,,
Multi-ply,No,1,Ivan Semenikhin,Pro Juniors 20-23,1991,Russia,75,,,,,180,-192.5,-200,180,,,,,180,75,M,Иван Семенихин,B,,
Multi-ply,No,1,Ivan Semenikhin,Pro Open,1991,Russia,75,,,,,180,-192.5,-200,180,,,,,180,75,M,Иван Семенихин,B,,
Multi-ply,No,1,Aleksandr Baybordin,Pro Open,1985,Russia,79.8,,,,,170,177.5,180,180,,,,,180,82.5,M,Александр Байбордин,B,,
Multi-ply,No,2,Yuriy Kornilov,Pro Open,1981,Russia,81.7,,,,,167.5,-175,-180,167.5,,,,,167.5,82.5,M,Юрий Корнилов,B,,
Multi-ply,No,1,Vladimir Korolchenko,Pro Masters 60-64,1950,Russia,81.4,,,,,140,-150,-152.5,140,,,,,140,82.5,M,Владимир Корольченко,B,,
Multi-ply,No,1,Evgeniy Kuchin,Pro Open,1987,Russia,88.2,,,,,240,245,250,250,,,,,250,90,M,Евгений Кучин,B,,
Multi-ply,No,2,Pavel Tsetsulin,Pro Open,1978,Russia,88.7,,,,,220,235,247.5,247.5,,,,,247.5,90,M,Павел Цецулин,B,,
Multi-ply,No,1,Fedor Chesnokov,Pro Masters 65-69,1947,Russia,90,,,,,140,150,160,160,,,,,160,90,M,Федор Чесноков,B,,
Multi-ply,No,1,Dmitriy Tambovtsev,Pro Open,1969,Russia,99.2,,,,,250,260,,260,,,,,260,100,M,Дмитрий Тамбовцев,B,,
Multi-ply,No,1,Dmitriy Tambovtsev,Pro Masters 40-44,1969,Russia,99.2,,,,,250,260,,260,,,,,260,100,M,Дмитрий Тамбовцев,B,,
Multi-ply,No,2,Andrey Fadeev,Pro Masters 40-44,1970,Russia,100,,,,,250,-257.5,-262.5,250,,,,,250,100,M,Андрей Фадеев,B,,
Multi-ply,No,1,Aleksandr Zavyalov,Pro Masters 50-54,1957,Russia,93.9,,,,,190,-200,-200,190,,,,,190,100,M,Александр Завьялов,B,,
Multi-ply,No,1,Ivan Bakharev,Pro Teen 16-17,1994,Russia,102.9,,,,,130,135,140,140,,,,,140,110,M,Иван Бахарев,B,,
Multi-ply,No,1,Eduard Khaliullin,Pro Open,1973,Russia,106,,,,,-290,290,-307.5,290,,,,,290,110,M,Эдуард Халиуллин,B,,
Multi-ply,No,1,Nikolay Pyshmintsev,Pro Open,1981,Russia,124.8,,,,,320,-360,-360,320,,,,,320,125,M,Николай Пышминцев,B,,
Multi-ply,No,2,Dmitriy Khanykov,Pro Open,1983,Russia,112.5,,,,,-280,-280,280,280,,,,,280,125,M,Дмитрий Ханыков,B,,
Multi-ply,No,3,Kanat Ismailov,Pro Open,1983,Russia,117.4,,,,,260,272.5,-282.5,272.5,,,,,272.5,125,M,Канат Исмаилов,B,,
Raw,Yes,1,Aynura Mukhamedzhanova,Amateur Juniors 20-23,1990,Russia,45.7,,,,,45,47.5,-50,47.5,,,,,47.5,48,F,Айнура Мухамеджанова,B,,
Raw,Yes,1,Ekaterina Fadeeva,Amateur Teen 16-17,1995,Russia,50.4,,,,,50,-55,-55,50,,,,,50,52,F,Екатерина Фадеева,B,,
Raw,Yes,1,Natalya Osipova #3,Amateur Teen 18-19,1992,Russia,56,,,,,45,50,55,55,,,,,55,56,F,Наталья Осипова,B,-61,
Raw,Yes,1,Natalya Volodina,Amateur Open,1978,Russia,59.8,,,,,45,50,-55,50,,,,,50,60,F,Наталья Володина,B,,
Raw,Yes,1,Yuliya Ponomareva,Amateur Teen 16-17,1995,Russia,66,,,,,40,45,50,50,,,,,50,67.5,F,Юлия Пономарева,B,,
Raw,Yes,1,Elena Brusina,Amateur Open,1972,Russia,66.6,,,,,65,72.5,-80,72.5,,,,,72.5,67.5,F,Елена Брусина,B,,
Raw,Yes,1,Ekaterina Verkhoturova,Amateur Open,1983,Russia,73.7,,,,,70,75,77.5,77.5,,,,,77.5,75,F,Екатерина Верхотурова,B,,
Raw,Yes,1,Maksim Ibragimov,Amateur Teen 14-15,1996,Russia,50.2,,,,,-67.5,-70,70,70,,,,,70,52,M,Максим Ибрагимов,B,,
Raw,Yes,1,Aleksandr Evseev,Amateur Teen 18-19,1994,Russia,51.7,,,,,70,75,82.5,82.5,,,,,82.5,52,M,Александр Евсеев,B,,
Raw,Yes,2,Georgiy Topchu,Amateur Teen 18-19,1992,Russia,49.3,,,,,60,65,67.5,67.5,,,,,67.5,52,M,Георгий Топчу,B,,
Raw,Yes,1,Evgeniy Kopytov,Amateur Teen 14-15,1996,Russia,54.1,,,,,80,85,87.5,87.5,,,,,87.5,56,M,Евгений Копытов,B,,
Raw,Yes,2,Rudolf Tsvirko,Amateur Teen 14-15,1996,Russia,55.2,,,,,72.5,-75,-75,72.5,,,,,72.5,56,M,Рудольф Цвирко,B,,
Raw,Yes,3,Igor Sirazutdinov,Amateur Teen 14-15,1996,Russia,55.4,,,,,60,-65,-65,60,,,,,60,56,M,Игорь Сиразутдинов,B,,
Raw,Yes,1,Pavel Solovyev,Amateur Teen 16-17,1994,Russia,56,,,,,80,85,-92.5,85,,,,,85,56,M,Павел Соловьев,B,,
Raw,Yes,1,Anatoliy Anufriev,Amateur Teen 18-19,1993,Russia,53.8,,,,,70,75,-77.5,75,,,,,75,56,M,Анатолий Ануфриев,B,,
Raw,Yes,1,Elvin Gasanov,Amateur Juniors 20-23,1991,Russia,53.8,,,,,80,85,-87.5,85,,,,,85,56,M,Эльвин Гасанов,B,,
Raw,Yes,1,Nikita Menshchikov,Amateur Open,1983,Russia,55.2,,,,,110,122.5,125,125,,,,,125,56,M,Никита Меньщиков,B,126,
Raw,Yes,2,Maksim Abramovich,Amateur Open,1985,Russia,55.4,,,,,-70,75,-80,75,,,,,75,56,M,Максим Абрамович,B,,
Raw,Yes,1,Nikita Abzaev,Amateur Teen 14-15,1998,Russia,60,,,,,60,62.5,65,65,,,,,65,60,M,Никита Абзаев,B,,
Raw,Yes,1,Anton Luginin,Amateur Teen 16-17,1994,Russia,59.8,,,,,-72.5,-77.5,80,80,,,,,80,60,M,Антон Лугинин,B,,
Raw,Yes,1,Aleksandr Savelkov,Amateur Teen 18-19,1992,Russia,57.6,,,,,75,80,-90,80,,,,,80,60,M,Александр Савелков,B,,
Raw,Yes,1,Sergey Sultanov,Amateur Juniors 20-23,1990,Russia,59,,,,,127.5,135,-141,135,,,,,135,60,M,Сергей Султанов,B,,
Raw,Yes,2,Mikhail Ponomarev,Amateur Juniors 20-23,1989,Russia,59.2,,,,,125,-132.5,-132.5,125,,,,,125,60,M,Михаил Пономарев,B,,
Raw,Yes,3,Ivan Trefilov,Amateur Juniors 20-23,1988,Russia,58.7,,,,,80,85,-90,85,,,,,85,60,M,Иван Трефилов,B,,
Raw,Yes,1,Aleksandr Pitukhin,Amateur Open,1985,Russia,58.2,,,,,105,110,-117.5,110,,,,,110,60,M,Александр Питухин,B,,
Raw,Yes,1,Artem Muchkin,Amateur Teen 14-15,1997,Russia,63.9,,,,,75,77.5,-80,77.5,,,,,77.5,67.5,M,Артем Мучкин,B,,
Raw,Yes,2,Sergey Shershnev,Amateur Teen 14-15,1997,Russia,67.4,,,,,60,67.5,70,70,,,,,70,67.5,M,Сергей Шершнев,B,,
Raw,Yes,1,Vladislav Katrushev,Amateur Teen 16-17,1995,Russia,61,,,,,97.5,102.5,-107.5,102.5,,,,,102.5,67.5,M,Владислав Катрушев,B,,
Raw,Yes,2,Luka Rozhkov,Amateur Teen 16-17,1995,Russia,66.7,,,,,90,-95,-95,90,,,,,90,67.5,M,Лука Рожков,B,,
Raw,Yes,1,Anton Noskov,Amateur Teen 18-19,1993,Russia,64.7,,,,,120,-130,-130,120,,,,,120,67.5,M,Антон Носков,B,,
Raw,Yes,2,Ivan Anufriev,Amateur Teen 18-19,1994,Russia,65.8,,,,,77.5,82.5,87.5,87.5,,,,,87.5,67.5,M,Иван Ануфриев,B,,
Raw,Yes,1,Viktor Putintsev,Amateur Juniors 20-23,1991,Russia,64.1,,,,,120,125,-130,125,,,,,125,67.5,M,Виктор Путинцев,B,,
Raw,Yes,1,Rustam Safin,Amateur Open,1978,Russia,67.5,,,,,120,127.5,-130,127.5,,,,,127.5,67.5,M,Рустам Сафин,B,,
Raw,Yes,2,Andrey Sirazutdinov,Amateur Open,1987,Russia,67.2,,,,,120,-130,-130,120,,,,,120,67.5,M,Андрей Сиразутдинов,B,,
Raw,Yes,3,Sergey Zagray,Amateur Open,1985,Russia,66,,,,,-110,110,115,115,,,,,115,67.5,M,Сергей Заграй,B,,
Raw,Yes,4,Anton Perminov,Amateur Open,1987,Russia,66.2,,,,,100,110,-115,110,,,,,110,67.5,M,Антон Перминов,B,,
Raw,Yes,1,Danil Scheglov,Amateur Teen 14-15,1996,Russia,72.4,,,,,90,-97.5,-97.5,90,,,,,90,75,M,Данил Щеглов,B,,
Raw,Yes,1,Denis Odinokov,Amateur Teen 16-17,1995,Russia,72.8,,,,,115,122.5,127.5,127.5,,,,,127.5,75,M,Денис Одиноков,B,,
Raw,Yes,2,Vitaliy Akinshin,Amateur Teen 16-17,1995,Russia,70.7,,,,,100,105,110,110,,,,,110,75,M,Виталий Акиньшин,B,,
Raw,Yes,3,Pavel Kazantsev,Amateur Teen 16-17,1994,Russia,74.6,,,,,97.5,102.5,110,110,,,,,110,75,M,Павел Казанцев,B,,
Raw,Yes,4,Grigoriy Novikov,Amateur Teen 16-17,1995,Russia,72.3,,,,,100,105,-110,105,,,,,105,75,M,Григорий Новиков,B,,
Raw,Yes,5,Maksim Khomylev,Amateur Teen 16-17,1994,Russia,73,,,,,80,-85,-85,80,,,,,80,75,M,Максим Хомылев,B,,
Raw,Yes,1,Aleksey Volodin,Amateur Teen 18-19,1993,Russia,73,,,,,115,125,130,130,,,,,130,75,M,Алексей Володин,B,,
Raw,Yes,2,Maksim Pistsov,Amateur Teen 18-19,1993,Russia,71.8,,,,,100,-110,-110,100,,,,,100,75,M,Максим Писцов,B,,
Raw,Yes,1,Ilya Babin,Amateur Open,1980,Russia,72.4,,,,,155,162.5,165,165,,,,,165,75,M,Илья Бабин,B,,
Raw,Yes,2,Aleksey Loskutov,Amateur Open,1980,Russia,74.3,,,,,140,-145,-150,140,,,,,140,75,M,Алексей Лоскутов,B,,
Raw,Yes,3,Aleksey Ratmanov,Amateur Open,1987,Russia,73.2,,,,,115,-120,-120,115,,,,,115,75,M,Алексей Ратманов,B,,
Raw,Yes,DQ,Grigoriy Kaygorodtsev,Amateur Open,1981,Russia,74.1,,,,,-115,,,,,,,,,75,M,Григорий Кайгородцев,B,,
Raw,Yes,1,Vladimir Zabolotnev,Amateur Masters 40-44,1968,Russia,72.1,,,,,145,155,-157.5,155,,,,,155,75,M,Владимир Заболотнев,B,,
Raw,Yes,DQ,Vasiliy Mishurinskiy,Amateur Masters 40-44,1968,Russia,74.4,,,,,-130,-130,-130,,,,,,,75,M,Василий Мишуринский,B,,
Raw,Yes,1,Vladimir Gurov,Amateur Masters 45-49,1964,Russia,75,,,,,-120,120,-125,120,,,,,120,75,M,Владимир Гуров,B,,
Raw,Yes,1,Aleksandr Baluev,Amateur Masters 55-59,1955,Russia,74.9,,,,,125,130,,130,,,,,130,75,M,Александр Балуев,B,,
Raw,Yes,1,Valeriy Baranov,Amateur Masters 70-74,1940,Russia,72.5,,,,,-90,-92.5,92.5,92.5,,,,,92.5,75,M,Валерий Баранов,B,,
Raw,Yes,1,Ilya Golovanov,Amateur Teen 14-15,1997,Russia,82,,,,,60,67.5,-72.5,67.5,,,,,67.5,82.5,M,Илья Голованов,B,,
Raw,Yes,1,Viktor Glazkov,Amateur Teen 18-19,1994,Russia,82.1,,,,,125,130,132.5,132.5,,,,,132.5,82.5,M,Виктор Глазков,B,,
Raw,Yes,2,Andrey Pakulev,Amateur Teen 18-19,1993,Russia,81.5,,,,,125,-132.5,-132.5,125,,,,,125,82.5,M,Андрей Пакулев,B,,
Raw,Yes,1,Sergey Zhutenkov,Amateur Juniors 20-23,1989,Russia,79.6,,,,,140,150,-160,150,,,,,150,82.5,M,Сергей Жутенков,B,,
Raw,Yes,1,Oleg Tarkhov,Amateur Open,1985,Russia,81.7,,,,,175,185,-190,185,,,,,185,82.5,M,Олег Тархов,B,,
Raw,Yes,2,Sergey Razzhivin,Amateur Open,1975,Russia,82.4,,,,,165,172.5,-177.5,172.5,,,,,172.5,82.5,M,Сергей Разживин,B,,
Raw,Yes,3,Stanislav Dmitriev,Amateur Open,1979,Russia,82.4,,,,,145,-150,-150,145,,,,,145,82.5,M,Станислав Дмитриев,B,,
Raw,Yes,4,Aleksey Verilov,Amateur Open,1984,Russia,81.5,,,,,120,127.5,-132.5,127.5,,,,,127.5,82.5,M,Алексей Верилов,B,,
Raw,Yes,1,Garma Bazarov,Amateur Masters 40-44,1971,Russia,82.3,,,,,115,125,-132.5,125,,,,,125,82.5,M,Гарма Базаров,B,,
Raw,Yes,1,Sergey Ovchinnikov,Amateur Masters 45-49,1964,Russia,82,,,,,105,110,-115,110,,,,,110,82.5,M,Сергей Овчинников,B,,
Raw,Yes,1,Vladimir Kataev,Amateur Teen 14-15,1996,Russia,83.6,,,,,110,115,120,120,,,,,120,90,M,Владимир Катаев,B,,
Raw,Yes,1,Nikita Khizev,Amateur Teen 16-17,1994,Russia,87,,,,,102.5,110,115,115,,,,,115,90,M,Никита Хизев,B,,
Raw,Yes,1,Kirill Abaturov,Amateur Teen 18-19,1993,Russia,86,,,,,132.5,-137.5,-142.5,132.5,,,,,132.5,90,M,Кирилл Абатуров,B,,
Raw,Yes,1,Artur Shurnov,Amateur Juniors 20-23,1988,Russia,87.7,,,,,157.5,160,-165,160,,,,,160,90,M,Артур Шурнов,B,,
Raw,Yes,2,Adilet Bakytov,Amateur Juniors 20-23,1991,Russia,89.9,,,,,135,145,-150,145,,,,,145,90,M,,B,,
Raw,Yes,3,Dmitriy Oboskalov,Amateur Juniors 20-23,1991,Russia,88.4,,,,,-127.5,127.5,-130,127.5,,,,,127.5,90,M,Дмитрий Обоскалов,B,,
Raw,Yes,4,Vyacheslav Sapozhnikov,Amateur Juniors 20-23,1988,Russia,89,,,,,92.5,-97.5,97.5,97.5,,,,,97.5,90,M,Вячеслав Сапожников,B,,
Raw,Yes,1,Andrei Galaida,Amateur Open,1972,Russia,87.5,,,,,180,-190,-190,180,,,,,180,90,M,Андрей Галайда,B,,
Raw,Yes,2,Dmitriy Stepanov,Amateur Open,1982,Russia,87.7,,,,,155,162.5,165,165,,,,,165,90,M,Дмитрий Степанов,B,,
Raw,Yes,3,Sergey Yavorskiy,Amateur Open,1977,Russia,88.8,,,,,155,165,-167.5,165,,,,,165,90,M,Сергей Яворский,B,,
Raw,Yes,4,Denis Frolov,Amateur Open,1979,Russia,88.4,,,,,160,-165,-165,160,,,,,160,90,M,Денис Фролов,B,,
Raw,Yes,5,Petr Borisov,Amateur Open,1981,Russia,86.8,,,,,155,-160,-160,155,,,,,155,90,M,Петр Борисов,B,,
Raw,Yes,6,Simon Badoyan,Amateur Open,1980,Russia,88.5,,,,,135,145,155,155,,,,,155,90,M,Симон Бадоян,B,,
Raw,Yes,7,Dmitriy Rusakov,Amateur Open,1978,Russia,89.5,,,,,150,-180,-180,150,,,,,150,90,M,Дмитрий Русаков,B,,
Raw,Yes,8,Denis Golubentsev,Amateur Open,1978,Russia,86.2,,,,,120,-125,-125,120,,,,,120,90,M,Денис Голубенцев,B,,
Raw,Yes,DQ,Maksim Rubtsov,Amateur Open,1986,Russia,88,,,,,-145,-155,-155,,,,,,,90,M,Максим Рубцов,B,,
Raw,Yes,1,Andrei Galaida,Amateur Masters 40-44,1972,Russia,87.5,,,,,180,-190,-190,180,,,,,180,90,M,Андрей Галайда,B,,
Raw,Yes,2,Dmitriy Serikov,Amateur Masters 40-44,1969,Russia,88.2,,,,,132.5,137.5,-140,137.5,,,,,137.5,90,M,Дмитрий Сериков,B,,
Raw,Yes,1,Gennadiy Toporkov,Amateur Masters 50-54,1961,Russia,90,,,,,135,140,-145,140,,,,,140,90,M,Геннадий Топорков,B,,
Raw,Yes,1,Eldar Tsoriev,Amateur Masters 65-69,1946,Russia,83.2,,,,,125,130,,130,,,,,130,90,M,Эльдар Цориев,B,,
Raw,Yes,1,Artem Avdyukov,Amateur Teen 16-17,1994,Russia,99,,,,,115,120,-125,120,,,,,120,100,M,Артем Авдюков,B,,
Raw,Yes,2,Nikita Gorodilov,Amateur Teen 16-17,1994,Russia,98.5,,,,,112.5,-117.5,-117.5,112.5,,,,,112.5,100,M,Никита Городилов,B,,
Raw,Yes,1,Ilya Pakhomov,Amateur Juniors 20-23,1988,Russia,100,,,,,170,180,-187.5,180,,,,,180,100,M,Илья Пахомов,B,,
Raw,Yes,2,Aleksandr Fedotov,Amateur Juniors 20-23,1989,Russia,99.6,,,,,-152.5,162.5,-167.5,162.5,,,,,162.5,100,M,Александр Федотов,B,,
Raw,Yes,3,Maksim Eryashev,Amateur Juniors 20-23,1991,Russia,93.9,,,,,130,135,140,140,,,,,140,100,M,Максим Еряшев,B,,
Raw,Yes,1,Aleksandr Belyaev,Amateur Open,1972,Russia,99.8,,,,,162.5,170,177.5,177.5,,,,,177.5,100,M,Александр Беляев,B,,
Raw,Yes,2,Andrey Tagankin,Amateur Open,1984,Russia,98.2,,,,,170,-175,-177.5,170,,,,,170,100,M,Андрей Таганкин,B,,
Raw,Yes,3,Sergey Talaschenko,Amateur Open,1980,Russia,100,,,,,155,162.5,-165,162.5,,,,,162.5,100,M,Сергей Талащенко,B,,
Raw,Yes,4,Ruslan Yusupov,Amateur Open,1987,Russia,100,,,,,145,155,-162.5,155,,,,,155,100,M,Руслан Юсупов,B,,
Raw,Yes,5,Vladislav Myasnikov,Amateur Open,1983,Russia,100,,,,,135,-142.5,-142.5,135,,,,,135,100,M,Владислав Мясников,B,,
Raw,Yes,6,Nikolay Kalchik,Amateur Open,1975,Ukraine,97.6,,,,,130,-142.5,-142.5,130,,,,,130,100,M,Николай Кальчик,B,,
Raw,Yes,1,Aleksandr Terentyev,Amateur Masters 40-44,1969,Russia,99.8,,,,,165,170,-175,170,,,,,170,100,M,Александр Терентьев,B,,
Raw,Yes,2,Stanislav Mikhalenko,Amateur Masters 40-44,1971,Russia,97.6,,,,,152.5,157.5,162.5,162.5,,,,,162.5,100,M,Станислав Михаленко,B,,
Raw,Yes,3,Aleksandr Simanov,Amateur Masters 40-44,1968,Russia,95.5,,,,,140,152.5,160,160,,,,,160,100,M,Александр Симанов,B,,
Raw,Yes,1,Vladimir Nikonov,Amateur Masters 45-49,1966,Russia,93.5,,,,,165,170,175,175,,,,,175,100,M,Владимир Никонов,B,,
Raw,Yes,2,Evgeniy Fadeev,Amateur Masters 45-49,1967,Russia,99.1,,,,,157.5,162.5,-170,162.5,,,,,162.5,100,M,Евгений Фадеев,B,,
Raw,Yes,3,Aleksandr Loskutnikov,Amateur Masters 45-49,1964,Russia,93.3,,,,,130,-135,135,135,,,,,135,100,M,Александр Лоскутников,B,,
Raw,Yes,1,Mikhail Khudyakov,Amateur Masters 55-59,1955,Russia,98.1,,,,,135,142.5,-150,142.5,,,,,142.5,100,M,Михаил Худяков,B,,
Raw,Yes,1,Valeriy Bystrov,Amateur Masters 70-74,1941,Russia,97.1,,,,,110,112.5,115,115,,,,,115,100,M,Валерий Быстров,B,,
Raw,Yes,1,Gleb Artamonov,Amateur Teen 16-17,1995,Russia,105.6,,,,,115,122.5,125,125,,,,,125,110,M,Глеб Артамонов,B,130,
Raw,Yes,1,Vitaliy Tikhonov,Amateur Juniors 20-23,1988,Russia,108.1,,,,,160,167.5,172.5,172.5,,,,,172.5,110,M,Виталий Тихонов,B,,
Raw,Yes,1,Andrey Sharov,Amateur Open,1974,Russia,109.9,,,,,190,200,203.5,203.5,,,,,203.5,110,M,Андрей Шаров,B,,
Raw,Yes,2,Aleksey Manakov,Amateur Open,1983,Russia,107,,,,,180,190,195,195,,,,,195,110,M,Алексей Манаков,B,,
Raw,Yes,3,Aleksandr Kozhevnikov,Amateur Open,1977,Russia,109.8,,,,,190,195,-203.5,195,,,,,195,110,M,Александр Кожевников,B,,
Raw,Yes,4,Igor Tveritin,Amateur Open,1973,Russia,105.3,,,,,160,167.5,-170,167.5,,,,,167.5,110,M,Игорь Тверитин,B,,
Raw,Yes,5,Andrey Neuymin,Amateur Open,1985,Russia,106.7,,,,,160,-167.5,-167.5,160,,,,,160,110,M,Андрей Неуймин,B,,
Raw,Yes,6,Aleksey Kulikov,Amateur Open,1973,Russia,104.5,,,,,150,155,-160,155,,,,,155,110,M,Алексей Куликов,B,,
Raw,Yes,7,Sergey Kudryavtsev,Amateur Open,1974,Russia,104.6,,,,,147.5,155,-160,155,,,,,155,110,M,Сергей Кудрявцев,B,,
Raw,Yes,8,Stanislav Mingaleev,Amateur Open,1975,Russia,107.3,,,,,142.5,-147.5,147.5,147.5,,,,,147.5,110,M,Станислав Мингалеев,B,,
Raw,Yes,1,Ruslan Yafasov,Amateur Masters 40-44,1971,Russia,107.4,,,,,160,167.5,175,175,,,,,175,110,M,Руслан Яфасов,B,,
Raw,Yes,2,Dmitriy Malts,Amateur Masters 40-44,1967,Russia,107.5,,,,,147.5,150,-157.5,150,,,,,150,110,M,Дмитрий Мальц,B,,
Raw,Yes,3,Andrey Chusovitin,Amateur Masters 40-44,1969,Russia,102.1,,,,,140,147.5,-155,147.5,,,,,147.5,110,M,Андрей Чусовитин,B,,
Raw,Yes,1,Evgeniy Kochnev,Amateur Masters 45-49,1965,Russia,103.8,,,,,135,140,-145,140,,,,,140,110,M,Евгений Кочнев,B,,
Raw,Yes,2,Sergey Kuzminykh,Amateur Masters 45-49,1962,Russia,105.8,,,,,105,115,-120,115,,,,,115,110,M,Сергей Кузьминых,B,,
Raw,Yes,1,Viktor Kachusov,Amateur Masters 50-54,1960,Russia,104.9,,,,,160,165,-170,165,,,,,165,110,M,Виктор Качусов,B,,
Raw,Yes,2,Aleksandr Chernyshev,Amateur Masters 50-54,1957,Russia,103.7,,,,,140,145,-150,145,,,,,145,110,M,Александр Чернышев,B,,
Raw,Yes,1,Aleksandr Sheryakov,Amateur Masters 55-59,1957,Russia,106.7,,,,,157.5,-162.5,,157.5,,,,,157.5,110,M,Александр Шеряков,B,,
Raw,Yes,1,Yuriy Turov,Amateur Open,1983,Russia,119.9,,,,,185,192.5,-202.5,192.5,,,,,192.5,125,M,Юрий Туров,B,,
Raw,Yes,2,Pavel Karamalak,Amateur Open,1973,Russia,124.3,,,,,185,-195,-200,185,,,,,185,125,M,Павел Карамалак,B,,
Raw,Yes,3,Aleksey Chermyaninov,Amateur Open,1976,Russia,117.8,,,,,170,-175,-175,170,,,,,170,125,M,Алексей Чермянинов,B,,
Raw,Yes,4,Sergey Kiselev,Amateur Open,1980,Russia,124.2,,,,,165,170,-175,170,,,,,170,125,M,Сергей Киселев,B,,
Raw,Yes,5,Aleksey Khlopin,Amateur Open,1983,Russia,121.9,,,,,120,130,-137.5,130,,,,,130,125,M,Алексей Хлопин,B,,
Raw,Yes,1,Ravil Fakhrutdinov,Amateur Masters 45-49,1962,Russia,116,,,,,160,167.5,175,175,,,,,175,125,M,Равиль Фахрутдинов,B,,
Raw,Yes,1,Andrei Melkozerov,Amateur Open,1971,Russia,137.3,,,,,215,225,235,235,,,,,235,140,M,Андрей Мелкозеров,B,,
Raw,Yes,2,Aleksey Gorbunov,Amateur Open,1979,Russia,134.4,,,,,170,180,-185,180,,,,,180,140,M,Алексей Горбунов,B,,
Raw,Yes,1,Andrei Melkozerov,Amateur Masters 40-44,1971,Russia,137.3,,,,,215,225,235,235,,,,,235,140,M,Андрей Мелкозеров,B,,
Multi-ply,Yes,1,Nadezhda Reutova,Amateur Teen 18-19,1993,Russia,48,,,,,70,75,,75,,,,,75,48,F,Надежда Реутова,B,,
Multi-ply,Yes,1,Anna Shuklina,Amateur Teen 13,1999,Russia,49.9,,,,,-32.5,-32.5,35,35,,,,,35,52,F,Анна Шуклина,B,,
Multi-ply,Yes,1,Assel Ustyuzhaninova,Amateur Teen 14-15,1996,Russia,55,,,,,30,32.5,,32.5,,,,,32.5,56,F,Ассель Устюжанинова,B,,
Multi-ply,Yes,1,Natalya Kolobova,Amateur Open,1982,Russia,56,,,,,55,60,-65,60,,,,,60,56,F,Наталья Колобова,B,,
Multi-ply,Yes,1,Kseniya Ermakova,Amateur Teen 14-15,1998,Russia,59,,,,,30,32.5,35,35,,,,,35,60,F,Ксения Ермакова,B,,
Multi-ply,Yes,1,Kseniya Shershen,Amateur Open,1985,Russia,60,,,,,65,-72.5,-72.5,65,,,,,65,60,F,Ксения Шершень,B,,
Multi-ply,Yes,1,Yuliya Ozhiganova,Amateur Teen 14-15,1997,Russia,64.5,,,,,30,32.5,-35,32.5,,,,,32.5,67.5,F,Юлия Ожиганова,B,,
Multi-ply,Yes,1,Dmitriy Novoselov,Amateur Teen 13,1999,Russia,43.3,,,,,45,50,55,55,,,,,55,44,M,Дмитрий Новоселов,B,,
Multi-ply,Yes,2,Evgeniy Eremenko,Amateur Teen 14-15,1997,Russia,42.2,,,,,40,45,-50,45,,,,,45,52,M,Евгений Еременко,B,,
Multi-ply,Yes,1,Dmitriy Zub,Amateur Teen 13,1999,Russia,52.2,,,,,40,47.5,-50,47.5,,,,,47.5,56,M,Дмитрий Зуб,B,,
Multi-ply,Yes,1,Ilya Korovin,Amateur Teen 14-15,1998,Russia,65.8,,,,,65,67.5,72.5,72.5,,,,,72.5,67.5,M,Илья Коровин,B,,
Multi-ply,Yes,1,Vladimir Kondratyev,Amateur Teen 16-17,1994,Russia,64.8,,,,,125,-130,,125,,,,,125,67.5,M,Владимир Кондратьев,B,,
Multi-ply,Yes,1,Andrey Kudryavtsev,Amateur Open,1983,Russia,67,,,,,142.5,152.5,-162.5,152.5,,,,,152.5,67.5,M,Андрей Кудрявцев,B,,
Multi-ply,Yes,1,Ilya Obolenskiy,Amateur Open,1982,Russia,74.5,,,,,170,-180,-180,170,,,,,170,75,M,Илья Оболенский,B,,
Multi-ply,Yes,2,Ilya Ilinykh,Amateur Open,1977,Russia,74.4,,,,,150,157.5,162.5,162.5,,,,,162.5,75,M,Илья Ильиных,B,,
Multi-ply,Yes,1,Alexey Popov,Amateur Open,1983,Russia,82,,,,,222.5,-230,,222.5,,,,,222.5,82.5,M,Алексей Попов,B,,
Multi-ply,Yes,2,Nikolay Maslov,Amateur Open,1986,Russia,78.5,,,,,190,-200,-200,190,,,,,190,82.5,M,Николай Маслов,B,,
Multi-ply,Yes,1,Rishat Fattakhov,Amateur Masters 40-44,1967,Russia,80.4,,,,,175,185,-195,185,,,,,185,82.5,M,Ришат Фаттахов,B,,
Multi-ply,Yes,2,Garma Bazarov,Amateur Masters 40-44,1971,Russia,82.3,,,,,140,150,-157.5,150,,,,,150,82.5,M,Гарма Базаров,B,,
Multi-ply,Yes,1,Anatoliy Sirenko,Amateur Masters 50-54,1958,Russia,82.4,,,,,-150,-150,150,150,,,,,150,82.5,M,Анатолий Сиренко,B,170,
Multi-ply,Yes,1,Sergey Glazkov,Amateur Teen 18-19,1992,Russia,89.7,,,,,160,170,180,180,,,,,180,90,M,Сергей Глазков,B,,
Multi-ply,Yes,1,Maksim Takhtay,Amateur Open,1980,Russia,89.6,,,,,200,-210,-212.5,200,,,,,200,90,M,Максим Тахтай,B,,
Multi-ply,Yes,2,Ivan Demidenko,Amateur Open,1976,Russia,88.2,,,,,160,170,-180,170,,,,,170,90,M,Иван Демиденко,B,,
Multi-ply,Yes,1,Aleksey Melnik,Amateur Open,1977,Russia,99.6,,,,,260,270,275,275,,,,,275,100,M,Алексей Мельник,B,,
Multi-ply,Yes,2,Vasiliy Zhilyakov,Amateur Open,1985,Russia,97.3,,,,,210,-222.5,-222.5,210,,,,,210,100,M,Василий Жиляков,B,,
Multi-ply,Yes,3,Aleksandr Baranov,Amateur Open,1985,Russia,95.4,,,,,200,207.5,-210,207.5,,,,,207.5,100,M,Александр Баранов,B,,
Multi-ply,Yes,DQ,Andrey Dobryakov,Amateur Open,1975,Russia,97.9,,,,,-230,-230,-240,,,,,,,100,M,Андрей Добряков,B,,
Multi-ply,Yes,1,Vadim Dostovalov,Amateur Open,1978,Russia,104.4,,,,,-210,210,-220,210,,,,,210,110,M,Вадим Достовалов,B,,
Multi-ply,Yes,DQ,Pavel Klevakin,Amateur Masters 40-44,1969,Russia,105.9,,,,,-275,-275,-275,,,,,,,110,M,Павел Клевакин,B,,
Multi-ply,Yes,1,Oleg Pisachenko,Amateur Masters 45-49,1965,Russia,107,,,,,200,210,-220,210,,,,,210,110,M,Олег Писаченко,B,,
Multi-ply,Yes,1,Andrei Zapylikhin,Amateur Masters 50-54,1960,Russia,109.9,,,,,205,220,-225,220,,,,,220,110,M,Андрей Запылихин,B,,
Multi-ply,Yes,1,Salman Shamkhalov,Amateur Masters 55-59,1952,Russia,108.4,,,,,190,195,202.5,202.5,,,,,202.5,110,M,Салман Шамхалов,B,,
Multi-ply,Yes,1,Konstantin Matsenko,Amateur Masters 40-44,1970,Russia,122.9,,,,,200,-212.5,-212.5,200,,,,,200,125,M,Константин Маценко,B,,
Multi-ply,Yes,1,Andrey Kutlyaev,Amateur Open,1984,Russia,129.7,,,,,-245,245,257.5,257.5,,,,,257.5,140,M,Андрей Кутляев,B,,
Multi-ply,Yes,2,Mikhail Nekrasov,Amateur Open,1969,Russia,140,,,,,-245,-250,250,250,,,,,250,140,M,Михаил Некрасов,B,,
Multi-ply,No,1,Svetlana Kabaeva,Pro Masters 45-49,1965,Russia,115.4,,,,,85,,,85,,,,,85,90+,F,Светлана Кабаева,B,,
Multi-ply,No,1,Igor Ershov,Pro Open,1977,Russia,51.2,,,,,70,-77.5,77.5,77.5,,,,,77.5,52,M,Игорь Ершов,B,,
Multi-ply,No,2,Vadim Rakhmangulov,Pro Open,1977,Russia,50.3,,,,,60,-62.5,-62.5,60,,,,,60,52,M,Вадим Рахмангулов,B,,
Multi-ply,No,1,Aleksandr Trikin,Pro Open,1983,Russia,55,,,,,72.5,77.5,80,80,,,,,80,56,M,Александр Трикин,B,,
Multi-ply,No,2,Eduard Aleksanov,Pro Open,1973,Russia,54.2,,,,,50,55,-57.5,55,,,,,55,56,M,Эдуард Алексанов,B,,
Multi-ply,No,1,Aleksandr Sinitsyn,Pro Teen 16-17,1995,Russia,58.5,,,,,60,65,70,70,,,,,70,60,M,Александр Синицын,B,,
Multi-ply,No,2,Aleksey Shekhovtsov,Pro Teen 16-17,1995,Russia,58.7,,,,,60,65,70,70,,,,,70,60,M,Алексей Шеховцов,B,,
Multi-ply,No,1,Vitaliy Schipachev,Pro Juniors 20-23,1990,Russia,57.6,,,,,65,72.5,-77.5,72.5,,,,,72.5,60,M,Виталий Щипачев,B,,
Multi-ply,No,1,Anton Mamontov,Pro Open,1986,Russia,60,,,,,110,115,-127.5,115,,,,,115,60,M,Антон Мамонтов,B,,
Multi-ply,No,2,Vladimir Sergeev,Pro Open,1985,Russia,57,,,,,60,65,-70,65,,,,,65,60,M,Владимир Сергеев,B,,
Multi-ply,No,3,Aleksandr Zdravomyslov,Pro Open,1980,Russia,56.3,,,,,60,-62.5,-65,60,,,,,60,60,M,Александр Здравомыслов,B,,
Multi-ply,No,1,Dmitriy Zinovyev,Pro Teen 14-15,1996,Russia,61.3,,,,,50,-55,57.5,57.5,,,,,57.5,67.5,M,Дмитрий Зиновьев,B,,
Multi-ply,No,1,Vyacheslav Parkaev,Pro Teen 16-17,1994,Russia,61.3,,,,,75,77.5,-80,77.5,,,,,77.5,67.5,M,Вячеслав Паркаев,B,,
Multi-ply,No,1,Nikita Simonov,Pro Juniors 20-23,1989,Russia,61.5,,,,,90,95,100,100,,,,,100,67.5,M,Никита Симонов,B,,
Multi-ply,No,2,Dmitriy Ivanov #3,Pro Juniors 20-23,1989,Russia,65.4,,,,,70,-75,-75,70,,,,,70,67.5,M,Дмитрий Иванов,B,,
Multi-ply,No,1,Din Nigamatullin,Pro Open,1978,Russia,63.9,,,,,100,115,-120,115,,,,,115,67.5,M,Дин Нигаматуллин,B,,
Multi-ply,No,2,Andrey Galuzin,Pro Open,1979,Russia,61,,,,,70,75,77.5,77.5,,,,,77.5,67.5,M,Андрей Галузин,B,,
Multi-ply,No,3,Anton Polovodov,Pro Open,1983,Russia,65.2,,,,,60,65,-70,65,,,,,65,67.5,M,Антон Половодов,B,,
Multi-ply,No,1,Nikita Zhelev,Pro Teen 16-17,1994,Russia,69,,,,,80,87.5,-90,87.5,,,,,87.5,75,M,Никита Желев,B,,
Multi-ply,No,1,Ruslan Makhmutov,Pro Teen 18-19,1992,Russia,67.9,,,,,87.5,92.5,95,95,,,,,95,75,M,Руслан Махмутов,B,,
Multi-ply,No,1,Aleksey Uymin,Pro Juniors 20-23,1990,Russia,74.9,,,,,77.5,85,92.5,92.5,,,,,92.5,75,M,Алексей Уймин,B,,
Multi-ply,No,1,Pavel Chushkin,Pro Open,1987,Russia,73.1,,,,,97.5,102.5,107.5,107.5,,,,,107.5,75,M,Павел Чушкин,B,,
Multi-ply,No,2,Pavel Nikiforov,Pro Open,1987,Russia,69.4,,,,,80,85,90,90,,,,,90,75,M,Павел Никифоров,B,,
Multi-ply,No,3,Aleksey Knyazkin,Pro Open,1987,Russia,69.9,,,,,90,-95,-95,90,,,,,90,75,M,Алексей Князькин,B,,
Multi-ply,No,1,Petr Borodinov,Pro Teen 16-17,1994,Russia,78.2,,,,,85,92.5,97.5,97.5,,,,,97.5,82.5,M,Петр Бородинов,B,,
Multi-ply,No,1,Egor Vdovinykh,Pro Teen 18-19,1993,Russia,78.5,,,,,100,105,107.5,107.5,,,,,107.5,82.5,M,Егор Вдовиных,B,,
Multi-ply,No,1,Pavel Zubov,Pro Juniors 20-23,1990,Russia,80.7,,,,,100,102.5,105,105,,,,,105,82.5,M,Павел Зубов,B,,
Multi-ply,No,1,Andrey Gusev,Pro Open,1987,Russia,75.5,,,,,75,80,-85,80,,,,,80,82.5,M,Андрей Гусев,B,,
Multi-ply,No,1,Kirill Isaev,Pro Open,1987,Russia,85.7,,,,,92.5,97.5,100,100,,,,,100,90,M,Кирилл Исаев,B,,
Multi-ply,No,2,Deonis Kabaev,Pro Open,1985,Russia,87.9,,,,,85,87.5,90,90,,,,,90,90,M,Деонис Кабаев,B,,
Multi-ply,No,1,Aleksandr Klimchuk,Pro Juniors 20-23,1990,Russia,96,,,,,95,102.5,-107.5,102.5,,,,,102.5,100,M,Александр Климчук,B,,
Multi-ply,No,1,Andrey Ladeyschikov,Pro Open,1984,Russia,95.8,,,,,125,132.5,137.5,137.5,,,,,137.5,100,M,Андрей Ладейщиков,B,,
Multi-ply,No,2,Evgeniy Pastukhov,Pro Open,1985,Russia,98,,,,,-127.5,130,137.5,137.5,,,,,137.5,100,M,Евгений Пастухов,B,,
Multi-ply,No,3,Ivan Kukoba,Pro Open,1986,Russia,90.8,,,,,90,95,-100,95,,,,,95,100,M,Иван Кукоба,B,,
Raw,No,1,Egor Sokolkin,Pro Juniors 20-23,1991,Russia,95.9,,,,,,,,,180,200,-220,200,200,100,M,Егор Соколкин,D,,
Raw,Yes,1,Denis Ryabov,Amateur Juniors 20-23,1990,Russia,51.3,95,105,115,115,,,,,,,,,115,52,M,Денис Рябов,S,,
Raw,Yes,1,Pavel Vyatkin,Amateur Teen 16-17,1994,Russia,67.2,120,130,-140,130,,,,,,,,,130,67.5,M,Павел Вяткин,S,,
Raw,Yes,1,Anton Omarov,Amateur Open,1984,Russia,66.8,160,170,,170,,,,,,,,,170,67.5,M,Антон Омаров,S,,
Raw,Yes,1,Roman Shalyagin,Amateur Teen 16-17,1994,Russia,77.3,170,180,182.5,182.5,,,,,,,,,182.5,82.5,M,Роман Шалягин,S,,-185
Raw,Yes,1,Valeriy Bystrov,Amateur Masters 70-74,1941,Russia,97.1,170,180,-190,180,,,,,,,,,180,100,M,Валерий Быстров,S,,
Raw,Yes,1,Igor Solovey,Amateur Open,1967,Russia,122.8,-230,-230,230,230,,,,,,,,,230,125,M,Игорь Соловей,S,,
Raw,Yes,1,Igor Solovey,Amateur Masters 40-44,1967,Russia,122.8,-230,-230,230,230,,,,,,,,,230,125,M,Игорь Соловей,S,,
Raw,Yes,1,Oleg Vasyuchenko,Amateur Masters 40-44,1968,Russia,125.4,240,260,,260,,,,,,,,,260,140,M,Олег Васюченко,S,,
Raw,Yes,1,Rimma Karimova,Amateur Open,1983,Russia,58.2,,,,,,,,,-120,120,-130,120,120,60,F,Римма Каримова,D,,
Raw,Yes,1,Denis Ryabov,Amateur Juniors 20-23,1990,Russia,51.3,,,,,,,,,125,145,155,155,155,52,M,Денис Рябов,D,,
Raw,Yes,1,Pavel Vyatkin,Amateur Teen 16-17,1994,Russia,67.2,,,,,,,,,160,165,170,170,170,67.5,M,Павел Вяткин,D,,
Raw,Yes,1,Roman Shalyagin,Amateur Teen 16-17,1994,Russia,77.3,,,,,,,,,200,220,223,223,223,82.5,M,Роман Шалягин,D,,
Raw,Yes,1,Valeriy Bystrov,Amateur Masters 70-74,1941,Russia,97.1,,,,,,,,,190,195,200,200,200,100,M,Валерий Быстров,D,,
Raw,Yes,1,Oleg Vasyuchenko,Amateur Masters 40-44,1968,Russia,125.4,,,,,,,,,260,-280,,260,260,140,M,Олег Васюченко,D,,
Multi-ply,Yes,1,Sergey Kopchenov,Amateur Teen 18-19,1993,Russia,66.3,-200,-200,200,200,,,,,,,,,200,67.5,M,Сергей Копченов,S,,220
Raw,No,1,Vladimir Sergeev,Pro Open,1985,Russia,57,70,80,-90,80,,,,,,,,,80,60,M,Владимир Сергеев,S,,
Raw,No,1,Vyacheslav Parkaev,Pro Teen 16-17,1994,Russia,61.3,105,115,125,125,,,,,,,,,125,67.5,M,Вячеслав Паркаев,S,,
Raw,No,1,Dmitriy Ivanov #3,Pro Juniors 20-23,1989,Russia,65.4,75,85,92.5,92.5,,,,,,,,,92.5,67.5,M,Дмитрий Иванов,S,,
Raw,No,1,Nikita Zhelev,Pro Teen 16-17,1994,Russia,69,90,100,110,110,,,,,,,,,110,75,M,Никита Желев,S,,
Raw,No,1,Aleksey Uymin,Pro Juniors 20-23,1990,Russia,74.9,85,90,100,100,,,,,,,,,100,75,M,Алексей Уймин,S,,
Raw,No,1,Aleksey Knyazkin,Pro Open,1987,Russia,69.9,105,115,122.5,122.5,,,,,,,,,122.5,75,M,Алексей Князькин,S,,
Raw,No,2,Pavel Chushkin,Pro Open,1987,Russia,73.1,-95,100,115,115,,,,,,,,,115,75,M,Павел Чушкин,S,,
Raw,No,1,Petr Borodinov,Pro Teen 16-17,1994,Russia,78.2,120,125,130,130,,,,,,,,,130,82.5,M,Петр Бородинов,S,,
Raw,No,1,Pavel Zubov,Pro Juniors 20-23,1990,Russia,80.7,162.5,170,-180,170,,,,,,,,,170,82.5,M,Павел Зубов,S,,
Raw,No,1,Andrey Gusev,Pro Open,1987,Russia,75.5,90,100,-110,100,,,,,,,,,100,82.5,M,Андрей Гусев,S,,
Raw,No,1,Kirill Isaev,Pro Open,1987,Russia,85.7,110,120,130,130,,,,,,,,,130,90,M,Кирилл Исаев,S,,
Raw,No,1,Andrey Ladeyschikov,Pro Open,1984,Russia,95.8,170,185,190,190,,,,,,,,,190,100,M,Андрей Ладейщиков,S,,
Raw,No,2,Ivan Kukoba,Pro Open,1986,Russia,90.8,90,,,90,,,,,,,,,90,100,M,Иван Кукоба,S,,
Raw,No,1,Vladimir Sergeev,Pro Open,1985,Russia,57,,,,,,,,,125,140,-150,140,140,60,M,Владимир Сергеев,D,,
Raw,No,1,Vyacheslav Parkaev,Pro Teen 16-17,1994,Russia,61.3,,,,,,,,,130,145,-150,145,145,67.5,M,Вячеслав Паркаев,D,,
Raw,No,1,Dmitriy Ivanov #3,Pro Juniors 20-23,1989,Russia,65.4,,,,,,,,,135,145,-155,145,145,67.5,M,Дмитрий Иванов,D,,
Raw,No,1,Nikita Zhelev,Pro Teen 16-17,1994,Russia,69,,,,,,,,,140,-147.5,150,150,150,75,M,Никита Желев,D,,
Raw,No,1,Aleksey Uymin,Pro Juniors 20-23,1990,Russia,74.9,,,,,,,,,75,,,75,75,75,M,Алексей Уймин,D,,
Raw,No,1,Pavel Chushkin,Pro Open,1987,Russia,73.1,,,,,,,,,165,170,-180,170,170,75,M,Павел Чушкин,D,,
Raw,No,2,Aleksey Knyazkin,Pro Open,1987,Russia,69.9,,,,,,,,,125,140,-150,140,140,75,M,Алексей Князькин,D,,
Raw,No,1,Petr Borodinov,Pro Teen 16-17,1994,Russia,78.2,,,,,,,,,160,175,187.5,187.5,187.5,82.5,M,Петр Бородинов,D,,
Raw,No,1,Pavel Zubov,Pro Juniors 20-23,1990,Russia,80.7,,,,,,,,,-185,185,-195,185,185,82.5,M,Павел Зубов,D,,
Raw,No,1,Andrey Gusev,Pro Open,1987,Russia,75.5,,,,,,,,,110,125,-140,125,125,82.5,M,Андрей Гусев,D,,
Raw,No,1,Kirill Isaev,Pro Open,1987,Russia,85.7,,,,,,,,,135,145,155,155,155,90,M,Кирилл Исаев,D,,
Raw,No,1,Andrey Ladeyschikov,Pro Open,1984,Russia,95.8,,,,,,,,,200,215,225,225,225,100,M,Андрей Ладейщиков,D,,
Raw,No,2,Ivan Kukoba,Pro Open,1986,Russia,90.8,,,,,,,,,140,150,155,155,155,100,M,Иван Кукоба,D,,
