Equipment,Place,Name,Division,BirthYear,Country,BodyweightKg,Best3SquatKg,Best3BenchKg,Best3DeadliftKg,TotalKg,WeightClassKg,Sex,CyrillicName,Event,BirthDate
Single-ply,1,Natalya Rodicheva,Open,1975,Russia,62.9,60,40,80,180,63,F,Наталья Родичева,SBD,
Single-ply,1,Irina Elizarova,Open,1960,Russia,70.1,145,87.5,150,382.5,72,F,Ирина Елизарова,SBD,
Single-ply,1,Dmitriy Kuraev,Open,2004,Russia,57.7,70,42.5,85,197.5,59,M,Дмитрий Кураев,SBD,
Single-ply,2,Maksim Martynenko,Open,2006,Russia,53.5,45,30,65,140,59,M,Максим Мартыненко,SBD,
Single-ply,DQ,Maksim Baglay,Open,1985,Russia,64.5,125,,160,,66,M,Максим Баглай,SBD,
Single-ply,1,Sergey Kukhkh,Open,1992,Russia,77.7,250,152.5,225,627.5,83,M,Сергей Кухх,SBD,
Single-ply,1,Ivan Asandi,Open,1979,Russia,92,316,212.5,260,788.5,93,M,Иван Асанди,SBD,
Single-ply,2,Andrey Onufriychuk,Open,1987,Russia,92.4,255,180,250,685,93,M,Андрей Онуфрийчук,SBD,
Single-ply,3,Leonid Kozlov,Open,1988,Russia,87.6,245,202.5,232.5,680,93,M,Леонид Козлов,SBD,
Single-ply,4,Mikhail Gnatyuk,Open,1975,Russia,91.8,250,170,240,660,93,M,Михаил Гнатюк,SBD,
Single-ply,DQ,Yuriy Ershov,Open,1972,Russia,92.1,270,,270,,93,M,Юрий Ершов,SBD,
Single-ply,1,Aleksandr Gorokhovskiy,Open,1989,Russia,101.6,330,240,300,870,105,M,Александр Гороховский,SBD,
Single-ply,2,Aleksey Drachuk,Open,1986,Russia,94.6,315,257.5,250,822.5,105,M,Алексей Драчук,SBD,
Single-ply,3,Oleg Sokov,Open,1981,Russia,100.8,240,170,235,645,105,M,Олег Соков,SBD,
Single-ply,1,Maksim Prischip,Open,1982,Russia,118,315,205,265,785,120,M,Максим Прищип,SBD,
Single-ply,1,Aleksey Tarasenko,Open,1977,Russia,136,350,270,315,935,120+,M,Алексей Тарасенко,SBD,
Single-ply,2,Aleksey Gorelov,Open,1981,Russia,130.4,330,225,310,865,120+,M,Алексей Горелов,SBD,
Single-ply,3,Ivan Chistyakov,Open,1989,Russia,126,255,210,245,710,120+,M,Иван Чистяков,SBD,
Raw,1,Elena Toksarova,Open,2002,Russia,46.4,80,50,92.5,222.5,47,F,Елена Токсарова,SBD,
Raw,2,Irina Guzenkova,Open,1989,Russia,46.1,80,40,90,210,47,F,Ирина Гузенкова,SBD,
Raw,3,Anzhelika Kletskova,Open,2004,Russia,45.9,42.5,32.5,60,135,47,F,Анжелика Клецкова,SBD,
Raw,1,Irina Akimova,Open,1989,Russia,51.8,107.5,62.5,130,300,52,F,Ирина Акимова,SBD,
Raw,2,Nadezhda Uspenskaya,Open,1998,Russia,51,85,52.5,120,257.5,52,F,Надежда Успенская,SBD,
Raw,3,Yana Volkova,Open,1991,Russia,50.8,75,52.5,120,247.5,52,F,Яна Волкова,SBD,
Raw,4,Darya Mandryka,Open,1997,Russia,51.2,95,47.5,102.5,245,52,F,Дарья Мандрыка,SBD,
Raw,5,Darina Povidaychik,Open,2004,Russia,51,77.5,40,100,217.5,52,F,Дарина Повидайчик,SBD,
Raw,1,Olga Kopylova,Open,1992,Russia,54.2,107.5,65,112.5,285,57,F,Ольга Копылова,SBD,
Raw,2,Viktoriya Soskova,Open,1999,Russia,56.8,95,57.5,130,282.5,57,F,Виктория Соскова,SBD,
Raw,3,Alena Mikhashova,Open,1989,Russia,56.9,80,40,120,240,57,F,Алена Михашова,SBD,
Raw,4,Natalya Shilnikova,Open,1982,Russia,55.9,70,47.5,80,197.5,57,F,Наталья Шильникова,SBD,
Raw,5,Kseniya Krepysheva,Open,2003,Russia,56.5,70,37.5,77.5,185,57,F,Ксения Крепышева,SBD,
Raw,DQ,Elena Mikityuk,Open,1984,Russia,54.7,,37.5,85,,57,F,Елена Микитюк,SBD,
Raw,1,Darya Klyushnikova,Open,1991,Russia,60.4,120,57.5,105,282.5,63,F,Дарья Клюшникова,SBD,
Raw,2,Natalya Rodicheva,Open,1975,Russia,62.8,100,45,120,265,63,F,Наталья Родичева,SBD,
Raw,3,Alena Alekseeva,Open,1986,Russia,59.3,70,47.5,115,232.5,63,F,Алена Алексеева,SBD,
Raw,4,Natalya Filatova,Open,1988,Russia,62.1,92.5,40,100,232.5,63,F,Наталья Филатова,SBD,
Raw,5,Kseniya Naumenko,Open,2003,Russia,60.2,85,35,110,230,63,F,Ксения Науменко,SBD,
Raw,1,Evgeniya Fedotova,Open,1997,Russia,68.4,120,70,137.5,327.5,72,F,Евгения Федотова,SBD,
Raw,2,Irina Elizarova,Open,1960,Russia,69.6,95,62.5,145,302.5,72,F,Ирина Елизарова,SBD,
Raw,3,Renata Miroshnikova,Open,2003,Russia,67.9,65,40,105,210,72,F,Рената Мирошникова,SBD,
Raw,1,Olesya Pugach,Open,1983,Russia,83,130,75,156,361,84,F,Олеся Пугач,SBD,
Raw,1,Dmitriy Anikin,Open,2001,Russia,58,90,62.5,115,267.5,59,M,Дмитрий Аникин,SBD,
Raw,2,Yaroslav Kalinin,Open,2004,Russia,58.6,90,62.5,115,267.5,59,M,Ярослав Калинин,SBD,
Raw,3,Sergey Bolshovtsev,Open,2003,Russia,55.4,102.5,55,100,257.5,59,M,Сергей Большовцев,SBD,
Raw,4,Artyom Lavrentyev,Open,2004,Russia,57.5,75,50,115,240,59,M,Артём Лаврентьев,SBD,
Raw,5,Aleksandr Snetkov,Open,2003,Russia,56.2,75,50,110,235,59,M,Александр Снетков,SBD,
Raw,6,Maksim Ulyanov,Open,2000,Russia,51.2,77.5,55,95,227.5,59,M,Максим Ульянов,SBD,
Raw,7,Mikhail Kritari,Open,2004,Russia,50.7,60,45,100,205,59,M,Михаил Критари,SBD,
Raw,1,Emil Rukavishnikov,Open,1991,Russia,64.9,155,125,175,455,66,M,Эмиль Рукавишников,SBD,
Raw,2,Nikita Zapolskiy,Open,2001,Russia,65,140,90,180,410,66,M,Никита Запольский,SBD,
Raw,3,Dmitriy Shangin,Open,2002,Russia,63.6,135,95,170,400,66,M,Дмитрий Шаньгин,SBD,
Raw,4,Aleksandr Zubar,Open,2001,Russia,62.9,120,65,150,335,66,M,Александр Зубарь,SBD,
Raw,5,Aleksandr Schepelev,Open,2005,Russia,61.6,95,55,130,280,66,M,Александр Щепелев,SBD,
Raw,1,Artem Slepukhin,Open,1981,Russia,72.8,175,140,220,535,74,M,Артем Слепухин,SBD,
Raw,2,Denis Ledyakhov,Open,1987,Russia,72.9,170,127.5,230,527.5,74,M,Денис Ледяхов,SBD,
Raw,3,Gamlet Kostanyan,Open,2001,Russia,73.3,170,100,190,460,74,M,Гамлет Костанян,SBD,
Raw,4,Aleksandr Kuyukin,Open,2002,Russia,73.7,140,100,190,430,74,M,Александр Куюкин,SBD,
Raw,5,Nikita Naranovich,Open,2002,Russia,73.9,150,105,175,430,74,M,Никита Наранович,SBD,
Raw,6,Aleksey Syromyatnikov,Open,1980,Russia,68.9,150,95,180,425,74,M,Алексей Сыромятников,SBD,
Raw,7,Linur Zakiev,Open,1988,Russia,73.1,140,112.5,165,417.5,74,M,Линур Закиев,SBD,
Raw,8,Konstantin Kromm,Open,2002,Russia,73.8,125,65,155,345,74,M,Константин Кромм,SBD,
Raw,9,Danil Maminov,Open,2003,Russia,69,105,65,145,315,74,M,Данил Маминов,SBD,
Raw,DQ,Sergey Ledyaev,Open,1988,Russia,73.3,140,115,,,74,M,Сергей Ледяев,SBD,
Raw,1,Nikolay Tvardovskiy,Open,1978,Russia,80.7,205,117.5,240,562.5,83,M,Николай Твардовский,SBD,
Raw,2,Aleksandr Klepikov,Open,1974,Russia,79.8,170,147.5,237.5,555,83,M,Александр Клепиков,SBD,
Raw,3,Maksim Kutovoy,Open,1989,Russia,78.3,182.5,147.5,190,520,83,M,Максим Кутовой,SBD,
Raw,4,Mikhail Mukhin,Open,1998,Russia,81.2,172.5,125,212.5,510,83,M,Михаил Мухин,SBD,
Raw,5,Nikolay Vilisov,Open,1974,Russia,82.3,175,120,210,505,83,M,Николай Вилисов,SBD,
Raw,6,Timur Urazmetov,Open,2001,Russia,82.1,160,105,170,435,83,M,Тимур Уразметов,SBD,
Raw,7,Igor Mikityuk,Open,1985,Russia,81.2,130,120,180,430,83,M,Игорь Микитюк,SBD,
Raw,8,Sergey Danilov,Open,2002,Russia,79.8,130,90,170,390,83,M,Сергей Данилов,SBD,
Raw,9,Anton Turlakov,Open,2002,Russia,82.2,120,80,170,370,83,M,Антон Турлаков,SBD,
Raw,10,Maksim Khalyushkov,Open,2003,Russia,82.1,125,55,150,330,83,M,Максим Халюшков,SBD,
Raw,DQ,Semen Efimtsov,Open,1983,Russia,78.1,140,127.5,,,83,M,Семен Ефимцов,SBD,
Raw,1,Anatoliy Gudin,Open,1990,Russia,91.2,240,192.5,262.5,695,93,M,Анатолий Гудин,SBD,
Raw,2,Aleksandr Perezhogin,Open,1978,Russia,89.7,240,170,252.5,662.5,93,M,Александр Пережогин,SBD,
Raw,3,Valeriy Bulatov,Open,1985,Russia,90.9,225,155,270,650,93,M,Валерий Булатов,SBD,
Raw,4,Vasiliy Bakhturin,Open,1984,Russia,92.6,210,177.5,260,647.5,93,M,Василий Бахтурин,SBD,
Raw,5,Anton Nikonov,Open,1991,Russia,87.3,210,170,257.5,637.5,93,M,Антон Никонов,SBD,
Raw,6,Pavel Petukhov,Open,1982,Russia,90.3,230,155,230,615,93,M,Павел Петухов,SBD,
Raw,7,Anton Fatkulin,Open,1980,Russia,86.3,197.5,135,210,542.5,93,M,Антон Фаткулин,SBD,
Raw,8,Yuriy Pankratov,Open,1998,Russia,90.8,190,145,207.5,542.5,93,M,Юрий Панкратов,SBD,
Raw,9,Oleg Kolodyazhnyy,Open,1989,Russia,91.6,175,160,207.5,542.5,93,M,Олег Колодяжный,SBD,
Raw,10,Dmitriy Aleksandrov,Open,1998,Russia,86.7,165,110,205,480,93,M,Дмитрий Александров,SBD,
Raw,11,Denis Vostrilov,Open,1990,Russia,91.4,170,105,190,465,93,M,Денис Вострилов,SBD,
Raw,12,Andrey Kascheev,Open,1983,Russia,91.6,170,105,190,465,93,M,Андрей Кащеев,SBD,
Raw,13,Sergey Zhirnov,Open,1975,Russia,91.7,150,110,160,420,93,M,Сергей Жирнов,SBD,
Raw,14,Sergey Stoletov,Open,2000,Russia,83.8,115,95,130,340,93,M,Сергей Столетов,SBD,
Raw,1,Aleksandr Gorokhovskiy,Open,1989,Russia,102.1,271,175,300,746,105,M,Александр Гороховский,SBD,
Raw,2,Aleksandr Levunets,Open,1985,Russia,94.1,240,222.5,272.5,735,105,M,Александр Левунец,SBD,
Raw,3,Stanislav Ivanov,Open,1984,Russia,103.9,240,180,275,695,105,M,Станислав Иванов,SBD,
Raw,4,Egor Romantsov,Open,1989,Russia,93.9,235,155,270,660,105,M,Егор Романцов,SBD,
Raw,5,Roman Sokolov,Open,1976,Russia,104,220,165,255,640,105,M,Роман Соколов,SBD,
Raw,6,Ruslan Kambulatov,Open,1986,Russia,96.5,222.5,170,225,617.5,105,M,Руслан Камбулатов,SBD,
Raw,7,Yaroslav Koltsa,Open,1988,Russia,95.6,220,165,220,605,105,M,Ярослав Кольца,SBD,
Raw,8,Aleksandr Mansurov,Open,1981,Russia,100.2,187.5,110,210,507.5,105,M,Александр Мансуров,SBD,
Raw,9,Konstantin Sviridov,Open,1986,Russia,94.3,150,120,170,440,105,M,Константин Свиридов,SBD,
Raw,DQ,Grigoriy Golyachenko,Open,1987,Russia,101.7,,,,,105,M,Григорий Голяченко,SBD,
Raw,1,Andrey Chukhin,Open,1972,Russia,117.9,255,167.5,285,707.5,120,M,Андрей Чухин,SBD,
Raw,2,Oleg Lopanov,Open,1975,Russia,115.4,237.5,165,240,642.5,120,M,Олег Лопанов,SBD,
Raw,3,Evgeniy Kikhlyarov,Open,1981,Russia,117,225,155,255,635,120,M,Евгений Кихляров,SBD,
Raw,4,Viktor Vasilkov,Open,1982,Russia,111.7,220,140,260,620,120,M,Виктор Васильков,SBD,
