Equipment,Place,Name,Division,BirthYear,Country,BodyweightKg,Squat1Kg,Squat2Kg,Squat3Kg,Best3SquatKg,Squat4Kg,WeightClassKg,Sex,CyrillicName,Bench1Kg,Bench2Kg,Bench3Kg,Best3BenchKg,Bench4Kg,Deadlift1Kg,Deadlift2Kg,Deadlift3Kg,Best3DeadliftKg,Deadlift4Kg,Event,TotalKg
Raw,1,Albina Boyko,O,1982,Ukraine,47.2,75,80,85,85,,47.5,F,Альбіна Бойко,,,,,,,,,,,S,85
Raw,1,Kateryna Myshko,O,1985,Ukraine,52.6,75,80,-85,80,,53,F,Катерина Мишко,,,,,,,,,,,S,80
Raw,1,Oxana Vlasenko,O,1976,Ukraine,53.3,75,-77.5,77.5,77.5,,55.5,F,Оксана Власенко,,,,,,,,,,,S,77.5
Raw,1,Lyudmyla Rossol,O,1975,Ukraine,56.8,95,100,-105,100,,58.5,F,Людмила Россол,,,,,,,,,,,S,100
Raw,1,Antonina Morar,J,1988,Ukraine,59.7,-70,70,80,80,,63,F,Антоніна Морарь,,,,,,,,,,,S,80
Raw,1,Antonina Morar,O,1988,Ukraine,59.7,-70,70,80,80,,63,F,Антоніна Морарь,,,,,,,,,,,S,80
Raw,2,Svitlana Kravets,O,1985,Ukraine,60,70,75,80,80,,63,F,Світлана Кравець,,,,,,,,,,,S,80
Raw,1,Oksana Dubovytska,O,1984,Ukraine,66.4,122.5,-127.5,127.5,127.5,,70,F,Оксана Дубовицька,,,,,,,,,,,S,127.5
Raw,1,Oleksandr Davidenko,T1,1997,Ukraine,53.9,60,65,-67.5,65,,56,M,Олександр Давиденко,,,,,,,,,,,S,65
Raw,1,Yevgen Bondar,J,1990,Ukraine,55.2,92.5,97.5,100,100,,56,M,Євген Бондар,,,,,,,,,,,S,100
Raw,1,Yevgen Bondar,O,1990,Ukraine,55.2,92.5,97.5,100,100,,56,M,Євген Бондар,,,,,,,,,,,S,100
Raw,2,Oleksandr Davidenko,O,1997,Ukraine,53.9,60,65,-67.5,65,,56,M,Олександр Давиденко,,,,,,,,,,,S,65
Raw,1,Yaroslav Tarasenko,T1,1997,Ukraine,59.9,90,95,-100,95,,60,M,Ярослав Тарасенко,,,,,,,,,,,S,95
Raw,2,Oleksandr Kovalenko,Y,1999,Ukraine,57.8,40,45,50,50,,60,M,Олександр Коваленко,,,,,,,,,,,S,50
Raw,1,Yaroslav Tarasenko,O,1997,Ukraine,59.9,90,95,-100,95,,60,M,Ярослав Тарасенко,,,,,,,,,,,S,95
Raw,2,Oleksandr Kovalenko,Y,1999,Ukraine,57.8,40,45,50,50,,60,M,Олександр Коваленко,,,,,,,,,,,S,50
Raw,1,Valentyn Bondar,T1,1996,Ukraine,66.9,135,140,145,145,,67.5,M,Валентин Бондар,,,,,,,,,,,S,145
Raw,1,Maxym Ivanov,T2,1995,Ukraine,62.7,135,140,145,145,,67.5,M,Максим Іванов,,,,,,,,,,,S,145
Raw,2,Andriy Sergiets,T2,1995,Ukraine,66.4,90,95,100,100,,67.5,M,Андрій Сергієць,,,,,,,,,,,S,100
Raw,1,Viktor Denysenko,T3,1993,Ukraine,66.9,130,-140,140,140,145,67.5,M,Віктор Денісенко,,,,,,,,,,,S,140
Raw,2,Igor Vityaz,T3,1992,Ukraine,62.6,-105,105,115,115,,67.5,M,Ігор Витязь,,,,,,,,,,,S,115
Raw,1,Andriy Serebrenikov,J,1991,Ukraine,63.6,135,145,150,150,,67.5,M,Андрій Серебреніков,,,,,,,,,,,S,150
Raw,2,Ruslan Subotin,J,1989,Ukraine,61.2,-100,-110,110,110,,67.5,M,Руслан Суботин,,,,,,,,,,,S,110
Raw,1,Vadym Grabar,O,1984,Ukraine,65.2,150,157.5,163,163,,67.5,M,Вадим Грабар,,,,,,,,,,,S,163
Raw,2,Andriy Serebrenikov,O,1991,Ukraine,63.6,135,145,150,150,,67.5,M,Андрій Серебреніков,,,,,,,,,,,S,150
Raw,3,Maxym Ivanov,O,1995,Ukraine,62.7,135,140,145,145,,67.5,M,Максим Іванов,,,,,,,,,,,S,145
Raw,4,Valentyn Bondar,O,1996,Ukraine,66.9,135,140,145,145,,67.5,M,Валентин Бондар,,,,,,,,,,,S,145
Raw,5,Viktor Denysenko,O,1993,Ukraine,66.9,130,-140,140,140,,67.5,M,Віктор Денісенко,,,,,,,,,,,S,140
Raw,6,Igor Vityaz,O,1992,Ukraine,62.6,-105,105,115,115,,67.5,M,Ігор Витязь,,,,,,,,,,,S,115
Raw,7,Ruslan Subotin,O,1989,Ukraine,61.2,-100,-110,110,110,,67.5,M,Руслан Суботин,,,,,,,,,,,S,110
Raw,8,Andriy Sergiets,O,1995,Ukraine,66.4,90,95,100,100,,67.5,M,Андрій Сергієць,,,,,,,,,,,S,100
Raw,DQ,Viktor Geraskevich,O,1994,Ukraine,67,-110,-110,-120,,,67.5,M,Віктор Гераскевич,,,,,,,,,,,S,
Raw,1,Ivan Pelikh,T2,1995,Ukraine,71.2,-140,-150,155,155,,75,M,Іван Пелех,,,,,,,,,,,S,155
Raw,2,Dmytro Tsymbal,T2,1994,Ukraine,72.1,140,150,-157.5,150,,75,M,Дмитро Цимбал,,,,,,,,,,,S,150
Raw,1,Sergiy Shevchenko,T3,1992,Ukraine,73.1,-150,150,160,160,,75,M,Сергій Шевченко,,,,,,,,,,,S,160
Raw,2,Roman Doroshenko,T3,1992,Ukraine,73.9,160,-170,-170,160,,75,M,Роман Дорошенко,,,,,,,,,,,S,160
Raw,1,Dmytro Lutsenko,J,1990,Ukraine,73.9,-130,-130,132.5,132.5,,75,M,Дмитро Луценко,,,,,,,,,,,S,132.5
Raw,2,Yaroslav Rudenko,J,1991,Ukraine,72,115,122.5,130,130,,75,M,Ярослав Руденко,,,,,,,,,,,S,130
Raw,DD,Andriy Gurichev,J,1991,Ukraine,73.1,185,192.5,-197.5,192.5,,75,M,Андрій Гурічев,,,,,,,,,,,S,
Raw,1,Oleksandr Narkhov,O,1985,Ukraine,74.3,-190,-200,200,200,,75,M,Олександр Нархов,,,,,,,,,,,S,200
Raw,2,Viktor Pankevych,O,1958,Ukraine,74.7,160,165,170,170,,75,M,Віктор Панькевич,,,,,,,,,,,S,170
Raw,3,Sergiy Shevchenko,O,1992,Ukraine,73.1,-150,150,160,160,,75,M,Сергій Шевченко,,,,,,,,,,,S,160
Raw,4,Roman Doroshenko,O,1992,Ukraine,73.9,160,-170,-170,160,,75,M,Роман Дорошенко,,,,,,,,,,,S,160
Raw,5,Ivan Pelikh,O,1995,Ukraine,71.2,-140,-150,155,155,,75,M,Іван Пелех,,,,,,,,,,,S,155
Raw,6,Dmytro Tsymbal,O,1994,Ukraine,72.1,140,150,-157.5,150,,75,M,Дмитро Цимбал,,,,,,,,,,,S,150
Raw,7,Viktor Yatsishin #1,O,1957,Ukraine,72.6,130,135,,135,,75,M,Віктор Яцишин,,,,,,,,,,,S,135
Raw,8,Dmytro Lutsenko,O,1990,Ukraine,73.9,-130,-130,132.5,132.5,,75,M,Дмитро Луценко,,,,,,,,,,,S,132.5
Raw,9,Yaroslav Rudenko,O,1991,Ukraine,72,115,122.5,130,130,,75,M,Ярослав Руденко,,,,,,,,,,,S,130
Raw,10,Oleksandr Loginov,O,1938,Ukraine,74.5,100,110,,110,,75,M,Олександр Логінов,,,,,,,,,,,S,110
Raw,DD,Andriy Gurichev,O,1991,Ukraine,73.1,185,192.5,-197.5,192.5,,75,M,Андрій Гурічев,,,,,,,,,,,S,
Raw,1,Viktor Pankevych,M3,1958,Ukraine,74.7,160,165,170,170,,75,M,Віктор Панькевич,,,,,,,,,,,S,170
Raw,2,Viktor Yatsishin #1,M3,1957,Ukraine,72.6,130,135,,135,,75,M,Віктор Яцишин,,,,,,,,,,,S,135
Raw,1,Oleksandr Loginov,M7,1938,Ukraine,74.5,100,110,,110,,75,M,Олександр Логінов,,,,,,,,,,,S,110
Raw,1,Volodimir Nechay,T2,1995,Ukraine,75.5,-130,135,145,145,,82.5,M,Володимир Нечай,,,,,,,,,,,S,145
Raw,1,Maxym Nemytov,T3,1993,Ukraine,79.7,-160,170,175,175,,82.5,M,Максим Немитов,,,,,,,,,,,S,175
Raw,2,Roman Senko,T3,1993,Ukraine,80.9,140,150,155,155,,82.5,M,Роман Сенько,,,,,,,,,,,S,155
Raw,3,Vladyslav Babarykin,T3,1992,Ukraine,75.3,140,147.5,-152.5,147.5,,82.5,M,Владислав Бабарикін,,,,,,,,,,,S,147.5
Raw,1,Vitaliy Kobets,J,1989,Ukraine,78.2,195,202.5,207.5,207.5,,82.5,M,Віталій Кобець,,,,,,,,,,,S,207.5
Raw,2,Andriy Parasochka,J,1989,Ukraine,82.3,140,-150,160,160,,82.5,M,Андрій Парасочка,,,,,,,,,,,S,160
Raw,1,Vitaliy Kobets,O,1989,Ukraine,78.2,195,202.5,207.5,207.5,,82.5,M,Віталій Кобець,,,,,,,,,,,S,207.5
Raw,2,Anton Alekseev #1,O,1986,Ukraine,78.8,-190,,200,200,,82.5,M,Антон Алєксєєв,,,,,,,,,,,S,200
Raw,3,Rostyslav Polonskyy,O,1977,Ukraine,82.5,185,-195,-195,185,,82.5,M,Ростислав Полонський,,,,,,,,,,,S,185
Raw,4,Maxym Nemytov,O,1993,Ukraine,79.7,-160,170,175,175,,82.5,M,Максим Немитов,,,,,,,,,,,S,175
Raw,5,Yuriy Kondratyev,O,1981,Ukraine,81.7,155,165,172.5,172.5,,82.5,M,Юрій Кондрат'єв,,,,,,,,,,,S,172.5
Raw,6,Andriy Parasochka,O,1989,Ukraine,82.3,140,-150,160,160,,82.5,M,Андрій Парасочка,,,,,,,,,,,S,160
Raw,7,Roman Senko,O,1993,Ukraine,80.9,140,150,155,155,,82.5,M,Роман Сенько,,,,,,,,,,,S,155
Raw,8,Vladyslav Babarykin,O,1992,Ukraine,75.3,140,147.5,-152.5,147.5,,82.5,M,Владислав Бабарикін,,,,,,,,,,,S,147.5
Raw,9,Volodimir Nechay,O,1995,Ukraine,75.5,-130,135,145,145,,82.5,M,Володимир Нечай,,,,,,,,,,,S,145
Raw,1,Mikhaylo Kondratyev,M4,1953,Ukraine,81.7,155,165,172.5,172.5,,82.5,M,Михайло Кондратєв,,,,,,,,,,,S,172.5
Raw,1,Mikola Krinitskiy,T3,1994,Ukraine,88.9,140,150,160,160,,90,M,Микола Криницький,,,,,,,,,,,S,160
Raw,1,Dmytro Sorokin,J,1988,Ukraine,87.4,200,205,-210,205,,90,M,Дмитро Сорокін,,,,,,,,,,,S,205
Raw,2,Leonid Andrievskyy,J,1989,Ukraine,84.8,190,200,-205,200,,90,M,Леонід Андрієвський,,,,,,,,,,,S,200
Raw,2,Evgen Portyannikov,J,1991,Ukraine,84,130,-140,-140,130,,90,M,Євген Портянніков,,,,,,,,,,,S,130
Raw,1,Yevgen Feofanov,O,1982,Ukraine,88,230,240,-245,240,,90,M,Євген Феофанов,,,,,,,,,,,S,240
Raw,2,Igor Parshin #1,O,1983,Ukraine,86.6,225,-232.5,235,235,,90,M,Игорь Паршин,,,,,,,,,,,S,235
Raw,3,Dmytro Sorokin,O,1988,Ukraine,87.4,200,205,-210,205,,90,M,Дмитро Сорокін,,,,,,,,,,,S,205
Raw,4,Dmitro Bogachonok,O,1970,Ukraine,86.4,-202.5,202.5,-212.5,202.5,,90,M,Дмитро Богачонок,,,,,,,,,,,S,202.5
Raw,5,Leonid Andrievskyy,O,1989,Ukraine,84.8,190,200,-205,200,,90,M,Леонід Андрієвський,,,,,,,,,,,S,200
Raw,6,Mikola Krinitskiy,O,1994,Ukraine,88.9,140,150,160,160,,90,M,Микола Криницький,,,,,,,,,,,S,160
Raw,7,Oleksandr Ivanov,O,1974,Ukraine,88.7,140,150,155,155,,90,M,Олександр Іванов,,,,,,,,,,,S,155
Raw,8,Evgen Portyannikov,O,1991,Ukraine,84,130,-140,-140,130,,90,M,Євген Портянніков,,,,,,,,,,,S,130
Raw,1,Dmitro Bogachonok,M1,1970,Ukraine,86.4,-202.5,202.5,-212.5,202.5,,90,M,Дмитро Богачонок,,,,,,,,,,,S,202.5
Raw,1,Oleksandr Ivanov,PFM,1974,Ukraine,88.7,140,150,155,155,,90,M,Олександр Іванов,,,,,,,,,,,S,155
Raw,1,Viktor Kuznetsov #4,J,1988,Ukraine,95.4,210,220,-240,220,,100,M,Віктор Кузнєцов,,,,,,,,,,,S,220
Raw,1,Viktor Kuznetsov #4,O,1988,Ukraine,95.4,210,220,-240,220,,100,M,Віктор Кузнєцов,,,,,,,,,,,S,220
Raw,2,Mykola Matviyenko,O,1984,Ukraine,97.1,200,205,210,210,,100,M,Микола Матвієнко,,,,,,,,,,,S,210
Raw,3,Oleksiy Greben'kov,O,1984,Ukraine,98.9,150,160,180,180,,100,M,Олексій Гребеньков,,,,,,,,,,,S,180
Raw,4,Leonid Kot,O,1950,Ukraine,94.6,-120,-120,120,120,,100,M,Леонід Кот,,,,,,,,,,,S,120
Raw,1,Leonid Kot,M5,1950,Ukraine,94.6,-120,-120,120,120,,100,M,Леонід Кот,,,,,,,,,,,S,120
Raw,1,Oleksiy Greben'kov,PFM,1984,Ukraine,98.9,150,160,180,180,,100,M,Олексій Гребеньков,,,,,,,,,,,S,180
Raw,1,Artem Kuznetsov,O,1987,Ukraine,103.1,240.5,250,-252.5,250,,110,M,Артем Кузнецов,,,,,,,,,,,S,250
Raw,2,Andriy Sobolev,O,1982,Ukraine,104.2,200,220,230,230,,110,M,Андрій Соболєв,,,,,,,,,,,S,230
Raw,3,Oleksandr Lyubchyk,O,1977,Ukraine,101.5,190,-205,210,210,,110,M,Олександр Любчик,,,,,,,,,,,S,210
Raw,4,Yaroslav Yaroslavskiy #1,O,1977,Ukraine,107.7,200,210,-215,210,,110,M,Ярослав Ярославський,,,,,,,,,,,S,210
Raw,5,Vasyl' Stelmakh,O,1972,Ukraine,109.1,190,200,210,210,,110,M,Василь Стельмах,,,,,,,,,,,S,210
Raw,6,Anatoliy Volkov #3,O,1983,Ukraine,103.3,-170,-170,170,170,,110,M,Анатолій Волков,,,,,,,,,,,S,170
Raw,1,Sergiy Galita,O,1979,Ukraine,112.8,210,215,220,220,,125,M,Сергій Галіта,,,,,,,,,,,S,220
Raw,2,Vasyl' Golivets',O,1960,Ukraine,123.5,-200,200,210,210,,125,M,Василь Голівець,,,,,,,,,,,S,210
Raw,1,Vasyl' Golivets',M3,1960,Ukraine,123.5,-200,200,210,210,,125,M,Василь Голівець,,,,,,,,,,,S,210
Raw,1,Irina Ugrin,Y,1999,Ukraine,47.5,,,,,,47.5,F,Ірина Угрин,42.5,47.5,-50,47.5,,,,,,,B,47.5
Raw,1,Irina Ugrin,Y,1999,Ukraine,47.5,,,,,,47.5,F,Ірина Угрин,42.5,47.5,-50,47.5,,,,,,,B,47.5
Raw,1,Olena Lysenko,O,1975,Ukraine,53.8,,,,,,55.5,F,Олена Лисенко,-70,-70,72.5,72.5,,,,,,,B,72.5
Raw,2,Oxana Vlasenko,O,1976,Ukraine,53.3,,,,,,55.5,F,Оксана Власенко,55,-60,-60,55,,,,,,,B,55
Raw,1,Lyudmyla Rossol,O,1975,Ukraine,56.8,,,,,,58.5,F,Людмила Россол,67.5,72.5,75,75,,,,,,,B,75
Raw,DQ,Olesya Shopa,O,1987,Ukraine,56.8,,,,,,58.5,F,Олеся Шопа,-42.5,-42.5,-42.5,,,,,,,,B,
Raw,1,Olena Tyutenko,O,1970,Ukraine,59.7,,,,,,63,F,Олена Тютенко,-37.5,37.5,40,40,,,,,,,B,40
Raw,2,Svitlana Kravets,O,1985,Ukraine,60,,,,,,63,F,Світлана Кравець,40,-50,-50,40,,,,,,,B,40
Raw,1,Olena Tyutenko,M1,1970,Ukraine,59.7,,,,,,63,F,Олена Тютенко,-37.5,37.5,40,40,,,,,,,B,40
Raw,1,Oksana Dubovytska,O,1984,Ukraine,66.4,,,,,,70,F,Оксана Дубовицька,72.5,77.5,-80,77.5,,,,,,,B,77.5
Raw,1,Anastasiya Ryabovolik,T1,1997,Ukraine,78.3,,,,,,80,F,Анастасія Рябоволик,40,-45,-45,40,,,,,,,B,40
Raw,1,Anastasiya Ryabovolik,O,1997,Ukraine,78.3,,,,,,80,F,Анастасія Рябоволик,40,-45,-45,40,,,,,,,B,40
Raw,1,Oleksandr Ermachenko,O,1981,Ukraine,48.9,,,,,,52,M,Олександр Єрмаченко,90,95,,95,,,,,,,B,95
Raw,1,Oleksandr Davidenko,T1,1997,Ukraine,53.9,,,,,,56,M,Олександр Давиденко,55,-60,-60,55,,,,,,,B,55
Raw,1,Mikita Popov,T2,1995,Ukraine,52.4,,,,,,56,M,Микита Попов,-75,75,-82.5,75,,,,,,,B,75
Raw,2,Vadim Taranik,T2,1995,Ukraine,55.7,,,,,,56,M,Вадим Таранік,62.5,-67.5,-70,62.5,,,,,,,B,62.5
Raw,1,Yevgen Bondar,J,1990,Ukraine,55.2,,,,,,56,M,Євген Бондар,72.5,77.5,-80,77.5,,,,,,,B,77.5
Raw,1,Yevgen Bondar,O,1990,Ukraine,55.2,,,,,,56,M,Євген Бондар,72.5,77.5,-80,77.5,,,,,,,B,77.5
Raw,2,Mikita Popov,O,1995,Ukraine,52.4,,,,,,56,M,Микита Попов,-75,75,-82.5,75,,,,,,,B,75
Raw,3,Vadim Taranik,O,1995,Ukraine,55.7,,,,,,56,M,Вадим Таранік,62.5,-67.5,-70,62.5,,,,,,,B,62.5
Raw,4,Oleksandr Davidenko,O,1997,Ukraine,53.9,,,,,,56,M,Олександр Давиденко,55,-60,-60,55,,,,,,,B,55
Raw,1,Arsen Ogly,T1,1997,Ukraine,56.4,,,,,,60,M,Арсен Огли,75,80,85,85,,,,,,,B,85
Raw,2,Maksim Yakuschenko,Y,2000,Ukraine,57.7,,,,,,60,M,Максим Якущенко,-62.5,62.5,65,65,,,,,,,B,65
Raw,1,Andriy Myronov,T3,1993,Ukraine,58.7,,,,,,60,M,Андрій Миронов,100,-105,105,105,,,,,,,B,105
Raw,1,Andriy Myronov,O,1993,Ukraine,58.7,,,,,,60,M,Андрій Миронов,100,-105,105,105,,,,,,,B,105
Raw,2,Arsen Ogly,O,1997,Ukraine,56.4,,,,,,60,M,Арсен Огли,75,80,85,85,,,,,,,B,85
Raw,3,Maksim Yakuschenko,Y,2000,Ukraine,57.7,,,,,,60,M,Максим Якущенко,-62.5,62.5,65,65,,,,,,,B,65
Raw,DQ,Oleksandr Kovalenko,Y,1999,Ukraine,56.9,,,,,,60,M,Олександр Коваленко,-35,-40,-40,,,,,,,,B,
Raw,1,Yaroslav Tarasenko,T1,1997,Ukraine,60.1,,,,,,67.5,M,Ярослав Тарасенко,55,-60,-60,55,,,,,,,B,55
Raw,1,Sergiy Fastov,T2,1994,Ukraine,65.9,,,,,,67.5,M,Сергій Фастов,110,-115,115,115,,,,,,,B,115
Raw,2,Maxym Ivanov,T2,1995,Ukraine,62.7,,,,,,67.5,M,Максим Іванов,85,90,92.5,92.5,,,,,,,B,92.5
Raw,3,Andriy Sergiets,T2,1995,Ukraine,66.4,,,,,,67.5,M,Андрій Сергієць,70,-75,-75,70,,,,,,,B,70
Raw,1,Mikola Rusin,T3,1993,Ukraine,65.4,,,,,,67.5,M,Микола Русин,125,130,135,135,-137.5,,,,,,B,135
Raw,2,Viktor Denysenko,T3,1993,Ukraine,66.9,,,,,,67.5,M,Віктор Денісенко,105,110,-115,110,,,,,,,B,110
Raw,3,Igor Vityaz,T3,1992,Ukraine,62.6,,,,,,67.5,M,Ігор Витязь,80,85,-90,85,,,,,,,B,85
Raw,4,Nazar Baltovskiy,T3,1992,Ukraine,66.8,,,,,,67.5,M,Назар Балтовський,67.5,,-77.5,67.5,,,,,,,B,67.5
Raw,1,Ashot Eganyan,J,1990,Ukraine,61.3,,,,,,67.5,M,Ашот Єганян,150,-152.5,-152.5,150,,,,,,,B,150
Raw,1,Ashot Eganyan,O,1990,Ukraine,61.3,,,,,,67.5,M,Ашот Єганян,150,-152.5,-152.5,150,,,,,,,B,150
Raw,2,Mikola Rusin,O,1993,Ukraine,65.4,,,,,,67.5,M,Микола Русин,125,130,135,135,,,,,,,B,135
Raw,3,Sergiy Fastov,O,1994,Ukraine,65.9,,,,,,67.5,M,Сергій Фастов,110,-115,115,115,,,,,,,B,115
Raw,4,Viktor Denysenko,O,1993,Ukraine,66.9,,,,,,67.5,M,Віктор Денісенко,105,110,-115,110,,,,,,,B,110
Raw,5,Maxym Ivanov,O,1995,Ukraine,62.7,,,,,,67.5,M,Максим Іванов,85,90,92.5,92.5,,,,,,,B,92.5
Raw,7,Igor Vityaz,O,1992,Ukraine,62.6,,,,,,67.5,M,Ігор Витязь,80,85,-90,85,,,,,,,B,85
Raw,8,Sergiy Negoda,O,1960,Ukraine,66.8,,,,,,67.5,M,Сергій Негода,85,-95,-95,85,,,,,,,B,85
Raw,9,Andriy Sergiets,O,1995,Ukraine,66.4,,,,,,67.5,M,Андрій Сергієць,70,-75,-75,70,,,,,,,B,70
Raw,10,Nazar Baltovskiy,O,1992,Ukraine,66.8,,,,,,67.5,M,Назар Балтовський,67.5,,-77.5,67.5,,,,,,,B,67.5
Raw,11,Yaroslav Tarasenko,O,1997,Ukraine,60.1,,,,,,67.5,M,Ярослав Тарасенко,55,-60,-60,55,,,,,,,B,55
Raw,DQ,Yevgen Rylov,O,1989,Ukraine,66,,,,,,67.5,M,Євген Рилов,-105,-105,-105,,,,,,,,B,
Raw,DQ,Andriy Voskoboynikov,O,1990,Ukraine,66.2,,,,,,67.5,M,Андрій Воскобойніков,-100,-100,-100,,,,,,,,B,
Raw,1,Sergiy Negoda,M3,1960,Ukraine,66.8,,,,,,67.5,M,Сергій Негода,85,-95,-95,85,,,,,,,B,85
Raw,1,Valentyn Bondar,T1,1996,Ukraine,67.7,,,,,,75,M,Валентин Бондар,85,95,-100,95,,,,,,,B,95
Raw,2,Oleksiy Kolomiets,T1,1996,Ukraine,69.8,,,,,,75,M,Олексій Коломієць,80,85,-90,85,,,,,,,B,85
Raw,1,Dmytro Galuschak,T2,1996,Ukraine,70.8,,,,,,75,M,Дмитро Галущак,130,135,137.5,137.5,-140,,,,,,B,137.5
Raw,2,Dmytro Tsymbal,T2,1994,Ukraine,72.1,,,,,,75,M,Дмитро Цимбал,110,-115,-115,110,,,,,,,B,110
Raw,3,Ivan Pelikh,T2,1995,Ukraine,71.2,,,,,,75,M,Іван Пелех,-95,-95,95,95,,,,,,,B,95
Raw,4,Oleksandr Zozulya,T2,1995,Ukraine,71.7,,,,,,75,M,Олександр Зозуля,85,90,-95,90,,,,,,,B,90
Raw,5,Volodimir Nechay,T2,1995,Ukraine,73,,,,,,75,M,Володимир Нечай,80,-85,85,85,,,,,,,B,85
Raw,6,Oleksandr Bardin,T2,1994,Ukraine,75,,,,,,75,M,Олександр Бардін,85,-95,-95,85,,,,,,,B,85
Raw,1,Nazar Golovko,T3,1992,Ukraine,72.9,,,,,,75,M,Назар Головко,-115,115,-125,115,,,,,,,B,115
Raw,2,Andriy Todika,T3,1993,Ukraine,71.9,,,,,,75,M,Андрій Тодіка,105,110,-115,110,,,,,,,B,110
Raw,3,Eduard Khimich,T3,1992,Ukraine,72.2,,,,,,75,M,Едуард Хіміч,90,-95,97.5,97.5,,,,,,,B,97.5
Raw,4,Anton Vitryakov,T3,1992,Ukraine,70.5,,,,,,75,M,Антон Вітряков,-85,85,90,90,,,,,,,B,90
Raw,1,Sergiy Pashkin,J,1990,Ukraine,73.7,,,,,,75,M,Сергій Пашкін,137.5,142.5,147.5,147.5,,,,,,,B,147.5
Raw,2,Andriy Ugrak,J,1989,Ukraine,71.7,,,,,,75,M,Андрій Уграк,-140,-140,140,140,,,,,,,B,140
Raw,3,Anton Tretyak,J,1988,Ukraine,74.1,,,,,,75,M,Антон Третяк,-130,140,-145.5,140,,,,,,,B,140
Raw,5,Andriy Donets,J,1990,Ukraine,73.1,,,,,,75,M,Андрій Донець,90,100,-110,100,,,,,,,B,100
Raw,6,Yaroslav Rudenko,J,1991,Ukraine,72,,,,,,75,M,Ярослав Руденко,90,95,-97.5,95,,,,,,,B,95
Raw,DD,Andriy Gurichev,J,1991,Ukraine,73.1,,,,,,75,M,Андрій Гурічев,130,135,-137.5,135,,,,,,,B,
Raw,1,Leonid Yuyukin,O,1981,Ukraine,73,,,,,,75,M,Леонід Ююкін,150,155,-160,155,,,,,,,B,155
Raw,2,Sergiy Pashkin,O,1990,Ukraine,73.7,,,,,,75,M,Сергій Пашкін,137.5,142.5,147.5,147.5,,,,,,,B,147.5
Raw,3,Oleg Ivanitskiy,O,1979,Ukraine,68.6,,,,,,75,M,Олег Іваніцький,-135,135,140,140,,,,,,,B,140
Raw,4,Andriy Ugrak,O,1989,Ukraine,71.7,,,,,,75,M,Андрій Уграк,-140,-140,140,140,,,,,,,B,140
Raw,5,Sergiy Zhmudenko,O,1971,Ukraine,72.5,,,,,,75,M,Сергій Жмуденко,140,-145,-145,140,,,,,,,B,140
Raw,6,Anton Tretyak,O,1988,Ukraine,74.1,,,,,,75,M,Антон Третяк,-130,140,-145.5,140,,,,,,,B,140
Raw,7,Dmytro Galuschak,O,1996,Ukraine,70.8,,,,,,75,M,Дмитро Галущак,130,135,137.5,137.5,,,,,,,B,137.5
Raw,9,Yevgen Khobta,O,1987,Ukraine,73.7,,,,,,75,M,Євген Хобта,-125,125,-135,125,,,,,,,B,125
Raw,10,Andrey Polyakov,O,1987,,73.8,,,,,,75,M,,125,-135,-135,125,,,,,,,B,125
Raw,11,Ivan Protsenko #3,O,1987,Ukraine,72.8,,,,,,75,M,Іван Проценко,115,-125,-125,115,,,,,,,B,115
Raw,12,Nazar Golovko,O,1992,Ukraine,72.9,,,,,,75,M,Назар Головко,-115,115,-125,115,,,,,,,B,115
Raw,13,Sergiy Mazur,O,1964,Ukraine,74.2,,,,,,75,M,Сергій Мазур,-105,115,-120.5,115,,,,,,,B,115
Raw,14,Andriy Todika,O,1993,Ukraine,71.9,,,,,,75,M,Андрій Тодіка,105,110,-115,110,,,,,,,B,110
Raw,15,Dmytro Tsymbal,O,1994,Ukraine,72.1,,,,,,75,M,Дмитро Цимбал,110,-115,-115,110,,,,,,,B,110
Raw,16,Viktor Yatsishin #1,O,1957,Ukraine,72.6,,,,,,75,M,Віктор Яцишин,105,-107.5,-110,105,,,,,,,B,105
Raw,17,Evgen Ositnyanko,O,1985,Ukraine,72.8,,,,,,75,M,Євген Оситнянко,100,-110,-110,100,,,,,,,B,100
Raw,18,Andriy Donets,O,1990,Ukraine,73.1,,,,,,75,M,Андрій Донець,90,100,-110,100,,,,,,,B,100
Raw,19,Eduard Khimich,O,1992,Ukraine,72.2,,,,,,75,M,Едуард Хіміч,90,-95,97.5,97.5,,,,,,,B,97.5
Raw,20,Valentyn Bondar,O,1996,Ukraine,67.7,,,,,,75,M,Валентин Бондар,85,95,-100,95,,,,,,,B,95
Raw,21,Ivan Pelikh,O,1995,Ukraine,71.2,,,,,,75,M,Іван Пелех,-95,-95,95,95,,,,,,,B,95
Raw,22,Yaroslav Rudenko,O,1991,Ukraine,72,,,,,,75,M,Ярослав Руденко,90,95,-97.5,95,,,,,,,B,95
Raw,23,Anton Vitryakov,O,1992,Ukraine,70.5,,,,,,75,M,Антон Вітряков,-85,85,90,90,,,,,,,B,90
Raw,24,Oleksandr Zozulya,O,1995,Ukraine,71.7,,,,,,75,M,Олександр Зозуля,85,90,-95,90,,,,,,,B,90
Raw,25,Oleksiy Kolomiets,O,1996,Ukraine,69.8,,,,,,75,M,Олексій Коломієць,80,85,-90,85,,,,,,,B,85
Raw,26,Volodimir Nechay,O,1995,Ukraine,73,,,,,,75,M,Володимир Нечай,80,-85,85,85,,,,,,,B,85
Raw,27,Oleksandr Bardin,O,1994,Ukraine,75,,,,,,75,M,Олександр Бардін,85,-95,-95,85,,,,,,,B,85
Raw,DQ,Yevgen Syomash,O,1992,Ukraine,72.8,,,,,,75,M,Євген Сьомаш,-115,-115,-115,,,,,,,,B,
Raw,DQ,Roman Doroshenko,O,1992,Ukraine,73.9,,,,,,75,M,Роман Дорошенко,-115,-115,-115,,,,,,,,B,
Raw,DQ,Oleksandr Narkhov,O,1985,Ukraine,74.3,,,,,,75,M,Олександр Нархов,-125,,,,,,,,,,B,
Raw,DD,Andriy Gurichev,O,1991,Ukraine,73.1,,,,,,75,M,Андрій Гурічев,130,135,-137.5,135,,,,,,,B,
Raw,1,Sergiy Zhmudenko,M1,1971,Ukraine,72.5,,,,,,75,M,Сергій Жмуденко,140,-145,-145,140,,,,,,,B,140
Raw,1,Sergiy Mazur,M2,1964,Ukraine,74.2,,,,,,75,M,Сергій Мазур,-105,115,-120.5,115,,,,,,,B,115
Raw,1,Viktor Yatsishin #1,M3,1957,Ukraine,72.6,,,,,,75,M,Віктор Яцишин,105,-107.5,-110,105,,,,,,,B,105
Raw,1,Evgen Ositnyanko,PFM,1985,Ukraine,72.8,,,,,,75,M,Євген Оситнянко,100,-110,-110,100,,,,,,,B,100
Raw,1,Oleg Timchenko #2,T1,1997,Ukraine,76.4,,,,,,82.5,M,Олег Тімченко,70,75,-80,75,,,,,,,B,75
Raw,1,Maxym Nemytov,T3,1993,Ukraine,79.7,,,,,,82.5,M,Максим Немитов,140,145,-150,145,,,,,,,B,145
Raw,2,Roman Senko,T3,1993,Ukraine,80.9,,,,,,82.5,M,Роман Сенько,110,120,-125,120,,,,,,,B,120
Raw,3,Vladyslav Babarykin,T3,1992,Ukraine,75.3,,,,,,82.5,M,Владислав Бабарикін,-90,90,-97.5,90,,,,,,,B,90
Raw,4,Artem Selivanov,T3,1993,Ukraine,79.6,,,,,,82.5,M,Артем Селіванов,90,-102.5,-102.5,90,,,,,,,B,90
Raw,1,Roman Zhironkin,J,1991,Ukraine,81.2,,,,,,82.5,M,Роман Жиронкін,160,165,-170,165,,,,,,,B,165
Raw,2,Vitaliy Kobets,J,1989,Ukraine,78.2,,,,,,82.5,M,Віталій Кобець,152.5,160,-165.5,160,,,,,,,B,160
Raw,3,Igor Germanovych,J,1989,Ukraine,79.1,,,,,,82.5,M,Ігор Германович,145,150,-152.5,150,,,,,,,B,150
Raw,4,Maxym Platonov,J,1989,Ukraine,78.4,,,,,,82.5,M,Максим Платонов,140,145,-147.5,145,,,,,,,B,145
Raw,5,Andriy Parasochka,J,1989,Ukraine,82.3,,,,,,82.5,M,Андрій Парасочка,140,145,-150,145,,,,,,,B,145
Raw,1,Roman Zhironkin,O,1991,Ukraine,81.2,,,,,,82.5,M,Роман Жиронкін,160,165,-170,165,,,,,,,B,165
Raw,2,Vitaliy Kobets,O,1989,Ukraine,78.2,,,,,,82.5,M,Віталій Кобець,152.5,160,-165.5,160,,,,,,,B,160
Raw,3,Igor Germanovych,O,1989,Ukraine,79.1,,,,,,82.5,M,Ігор Германович,145,150,-152.5,150,,,,,,,B,150
Raw,4,Maxym Platonov,O,1989,Ukraine,78.4,,,,,,82.5,M,Максим Платонов,140,145,-147.5,145,,,,,,,B,145
Raw,5,Maxym Nemytov,O,1993,Ukraine,79.7,,,,,,82.5,M,Максим Немитов,140,145,-150,145,,,,,,,B,145
Raw,6,Andriy Parasochka,O,1989,Ukraine,82.3,,,,,,82.5,M,Андрій Парасочка,140,145,-150,145,,,,,,,B,145
Raw,7,Volodimir Gopshta,O,1983,Ukraine,79.5,,,,,,82.5,M,Володимир Гопшта,132.5,140,-145,140,,,,,,,B,140
Raw,8,Sergiy Yakuschenko,O,1971,Ukraine,82.3,,,,,,82.5,M,Сергій Якущенко,125,127.5,-130,127.5,,,,,,,B,127.5
Raw,9,Vladylen Myronov,O,1970,Ukraine,79.8,,,,,,82.5,M,Владилен Миронов,110,122.5,125,125,,,,,,,B,125
Raw,10,Viktor Pankevych,O,1958,Ukraine,76.1,,,,,,82.5,M,Віктор Панькевич,115,120,-125,120,,,,,,,B,120
Raw,11,Oleksiy Melnik,O,1980,Ukraine,78.6,,,,,,82.5,M,Олексій Мельник,115,120,-125,120,,,,,,,B,120
Raw,12,Roman Senko,O,1993,Ukraine,80.9,,,,,,82.5,M,Роман Сенько,110,120,-125,120,,,,,,,B,120
Raw,13,Mykola Palamarchuk,O,1949,Ukraine,81.2,,,,,,82.5,M,Микола Паламарчук,115,120,,120,,,,,,,B,120
Raw,14,Stanislav Romashko,O,1986,Ukraine,81.2,,,,,,82.5,M,Станіслав Ромашко,-115,115,-120,115,,,,,,,B,115
Raw,15,Vladyslav Babarykin,O,1992,Ukraine,75.3,,,,,,82.5,M,Владислав Бабарикін,-90,90,-97.5,90,,,,,,,B,90
Raw,16,Artem Selivanov,O,1993,Ukraine,79.6,,,,,,82.5,M,Артем Селіванов,90,-102.5,-102.5,90,,,,,,,B,90
Raw,17,Vladislav Rudenko,O,1978,Ukraine,81,,,,,,82.5,M,Владислав Руденко,80,90,-100,90,,,,,,,B,90
Raw,18,Oleg Timchenko #2,O,1997,Ukraine,76.4,,,,,,82.5,M,Олег Тімченко,70,75,-80,75,,,,,,,B,75
Raw,1,Sergiy Yakuschenko,M1,1971,Ukraine,82.3,,,,,,82.5,M,Сергій Якущенко,125,127.5,-130,127.5,,,,,,,B,127.5
Raw,2,Vladylen Myronov,M1,1970,Ukraine,79.8,,,,,,82.5,M,Владилен Миронов,110,122.5,125,125,,,,,,,B,125
Raw,1,Viktor Pankevych,M3,1958,Ukraine,76.1,,,,,,82.5,M,Віктор Панькевич,115,120,-125,120,,,,,,,B,120
Raw,1,Mykola Palamarchuk,M5,1949,Ukraine,81.2,,,,,,82.5,M,Микола Паламарчук,115,120,,120,,,,,,,B,120
Raw,1,Andriy Zadorozhnyy,T2,1994,Ukraine,88.1,,,,,,90,M,Андрій Задорожний,115,122.5,-130,122.5,,,,,,,B,122.5
Raw,2,Vladyslav Posnyk,T2,1994,Ukraine,86.5,,,,,,90,M,Владислав Посник,105,110,-115,110,,,,,,,B,110
Raw,3,Danylo Gonyaev,T2,1994,Ukraine,88.1,,,,,,90,M,Данило Гоняєв,100,110,-115,110,,,,,,,B,110
Raw,1,Leonid Andrievskyy,J,1989,Ukraine,84.8,,,,,,90,M,Леонід Андрієвський,160,170,-172.5,170,,,,,,,B,170
Raw,2,Mar'yan Savelev,J,1990,Ukraine,89.5,,,,,,90,M,Мар'ян Савельєв,135,150,,150,,,,,,,B,150
Raw,3,Dmitro Kulikov #2,J,1991,Ukraine,85.6,,,,,,90,M,Дмитро Куліков,-120,-120,120,120,,,,,,,B,120
Raw,4,Evgen Portyannikov,J,1991,Ukraine,84,,,,,,90,M,Євген Портянніков,100,-110,110,110,,,,,,,B,110
Raw,DD,Arthur Slepushkin,J,1990,Ukraine,89.2,,,,,,90,M,Артур Слєпушкін,165,180,,180,,,,,,,B,
Raw,1,Egor Pirogov #1,O,1987,Ukraine,88.4,,,,,,90,M,Єгор Пирогов,170,180,-185,180,,,,,,,B,180
Raw,2,Igor Ivanchenko,O,1975,Ukraine,89.6,,,,,,90,M,Ігор Іванченко,165,172.5,-175,172.5,,,,,,,B,172.5
Raw,3,Leonid Andrievskyy,O,1989,Ukraine,84.8,,,,,,90,M,Леонід Андрієвський,160,170,-172.5,170,,,,,,,B,170
Raw,4,Mykhaylo Gopshta,O,1960,Ukraine,88.4,,,,,,90,M,Михайло Гопшта,-150,155,-160,155,,,,,,,B,155
Raw,5,Roman Kuznetsov #7,O,1982,Ukraine,89.4,,,,,,90,M,Роман Кузнєцов,-150,150,-155,150,,,,,,,B,150
Raw,6,Mar'yan Savelev,O,1990,Ukraine,89.5,,,,,,90,M,Мар'ян Савельєв,135,150,,150,,,,,,,B,150
Raw,7,Gennadiy Vitryakov,O,1964,Ukraine,88.2,,,,,,90,M,Геннадій Вітряков,-145,-145,145,145,,,,,,,B,145
Raw,8,Oleg Nagachevskyy,O,1959,Ukraine,87.1,,,,,,90,M,Олег Нагачевський,130,135,137.5,137.5,,,,,,,B,137.5
Raw,9,Roman Chernov,O,1981,Ukraine,87.3,,,,,,90,M,Роман Чернов,127.5,-137.5,-137.5,127.5,,,,,,,B,127.5
Raw,10,Andriy Zadorozhnyy,O,1994,Ukraine,88.1,,,,,,90,M,Андрій Задорожний,115,122.5,-130,122.5,,,,,,,B,122.5
Raw,11,Dmitro Kulikov #2,O,1991,Ukraine,85.6,,,,,,90,M,Дмитро Куліков,-120,-120,120,120,,,,,,,B,120
Raw,12,Dmitro Bogachonok,O,1970,Ukraine,86.7,,,,,,90,M,Дмитро Богачонок,110,115,-117.5,115,,,,,,,B,115
Raw,13,Mykola Yermakov,O,1954,Ukraine,87.5,,,,,,90,M,Микола Єрмаков,100,107.5,112.5,112.5,,,,,,,B,112.5
Raw,14,Evgen Portyannikov,O,1991,Ukraine,84,,,,,,90,M,Євген Портянніков,100,-110,110,110,,,,,,,B,110
Raw,15,Vladyslav Posnyk,O,1994,Ukraine,86.5,,,,,,90,M,Владислав Посник,105,110,-115,110,,,,,,,B,110
Raw,16,Oleg Kuzmenko,O,1961,Ukraine,87.9,,,,,,90,M,Олег Кузьменко,-110,-110,110,110,,,,,,,B,110
Raw,17,Danylo Gonyaev,O,1994,Ukraine,88.1,,,,,,90,M,Данило Гоняєв,100,110,-115,110,,,,,,,B,110
Raw,DQ,Pavlo Padalka,O,1987,Ukraine,87.4,,,,,,90,M,Павло Падалка,-120,-120,-120,,,,,,,,B,
Raw,DQ,Mikola Krinitskiy,O,1994,Ukraine,88.1,,,,,,90,M,Микола Криницький,-110,,-110,,,,,,,,B,
Raw,DD,Arthur Slepushkin,O,1990,Ukraine,89.2,,,,,,90,M,Артур Слєпушкін,165,180,,180,,,,,,,B,
Raw,1,Dmitro Bogachonok,M1,1970,Ukraine,86.7,,,,,,90,M,Дмитро Богачонок,110,115,-117.5,115,,,,,,,B,115
Raw,1,Gennadiy Vitryakov,M2,1964,Ukraine,88.2,,,,,,90,M,Геннадій Вітряков,-145,-145,145,145,,,,,,,B,145
Raw,1,Mykhaylo Gopshta,M3,1960,Ukraine,88.4,,,,,,90,M,Михайло Гопшта,-150,155,-160,155,,,,,,,B,155
Raw,1,Oleg Nagachevskyy,M3,1959,Ukraine,87.1,,,,,,90,M,Олег Нагачевський,130,135,137.5,137.5,,,,,,,B,137.5
Raw,3,Oleg Kuzmenko,M3,1961,Ukraine,87.9,,,,,,90,M,Олег Кузьменко,-110,-110,110,110,,,,,,,B,110
Raw,1,Mykola Yermakov,M4,1954,Ukraine,87.5,,,,,,90,M,Микола Єрмаков,100,107.5,112.5,112.5,,,,,,,B,112.5
Raw,2,Oleg Nagachevskyy,PFM,1959,Ukraine,87.1,,,,,,90,M,Олег Нагачевський,130,135,137.5,137.5,,,,,,,B,137.5
Raw,1,Bogdan Shyshkevych,T3,1992,Ukraine,95.8,,,,,,100,M,Богдан Шишкевич,160,-165,,160,,,,,,,B,160
Raw,1,Albert Enokyan,J,1988,Ukraine,97.1,,,,,,100,M,Альберт Єнокян,200,210,212.5,212.5,,,,,,,B,212.5
Raw,2,Viktor Kuznetsov #4,J,1988,Ukraine,95.4,,,,,,100,M,Віктор Кузнєцов,205,-210,-210,205,,,,,,,B,205
Raw,3,Andriy Kramarenko,J,1988,Ukraine,95.7,,,,,,100,M,Андрій Крамаренко,150,-157.5,157.5,157.5,,,,,,,B,157.5
Raw,4,Volodymyr Gaydamaka,J,1990,Ukraine,96.3,,,,,,100,M,Володимир Гайдамака,152.5,-157.5,-157.5,152.5,,,,,,,B,152.5
Raw,1,Albert Enokyan,O,1988,Ukraine,97.1,,,,,,100,M,Альберт Єнокян,200,210,212.5,212.5,,,,,,,B,212.5
Raw,1,Valeriy Babko,O,1941,Ukraine,93.7,,,,,,100,M,Валерій Бабко,100,-102.5,102.5,102.5,,,,,,,B,102.5
Raw,2,Viktor Kuznetsov #4,O,1988,Ukraine,95.4,,,,,,100,M,Віктор Кузнєцов,205,-210,-210,205,,,,,,,B,205
Raw,3,Bogdan Shyshkevych,O,1992,Ukraine,95.8,,,,,,100,M,Богдан Шишкевич,160,-165,,160,,,,,,,B,160
Raw,4,Andriy Kramarenko,O,1988,Ukraine,95.7,,,,,,100,M,Андрій Крамаренко,150,-157.5,157.5,157.5,,,,,,,B,157.5
Raw,5,Oleksandr Tolkachov,O,1970,Ukraine,97.6,,,,,,100,M,Олександр Толкачов,150,155,157.5,157.5,,,,,,,B,157.5
Raw,6,Sergiy Pilyaev,O,1969,Ukraine,95.1,,,,,,100,M,Сергій Піляєв,155,-160,-160,155,,,,,,,B,155
Raw,7,Mykola Matviyenko,O,1984,Ukraine,97.1,,,,,,100,M,Микола Матвієнко,155,-160,-160,155,,,,,,,B,155
Raw,8,Volodymyr Gaydamaka,O,1990,Ukraine,96.3,,,,,,100,M,Володимир Гайдамака,152.5,-157.5,-157.5,152.5,,,,,,,B,152.5
Raw,9,Leonid Kot,O,1950,Ukraine,94.6,,,,,,100,M,Леонід Кот,107.5,-112.5,-112.5,107.5,,,,,,,B,107.5
Raw,DQ,Oleksiy Greben'kov,O,1984,Ukraine,98.9,,,,,,100,M,Олексій Гребеньков,-170,-170,-170,,,,,,,,B,
Raw,DQ,Sergiy Chmarak,O,1982,Ukraine,93.9,,,,,,100,M,Сергій Чмарак,-165,-165,-165,,,,,,,,B,
Raw,DQ,Ruslan Syabro,O,1982,Ukraine,97.9,,,,,,100,M,Руслан Сябро,-150,-150,-150,,,,,,,,B,
Raw,1,Oleksandr Tolkachov,M1,1970,Ukraine,97.6,,,,,,100,M,Олександр Толкачов,150,155,157.5,157.5,,,,,,,B,157.5
Raw,2,Sergiy Pilyaev,M1,1969,Ukraine,95.1,,,,,,100,M,Сергій Піляєв,155,-160,-160,155,,,,,,,B,155
Raw,1,Leonid Kot,M5,1950,Ukraine,94.6,,,,,,100,M,Леонід Кот,107.5,-112.5,-112.5,107.5,,,,,,,B,107.5
Raw,1,Valeriy Babko,M7,1941,Ukraine,93.7,,,,,,100,M,Валерій Бабко,100,-102.5,102.5,102.5,,,,,,,B,102.5
Raw,1,Sergiy Dudinets,T3,1992,Ukraine,109.6,,,,,,110,M,Сергій Дудинець,145,150,155,155,,,,,,,B,155
Raw,1,Yuriy Khaynatskyy,J,1988,Ukraine,100.9,,,,,,110,M,Юрій Хайнацький,150,-157.5,157.5,157.5,,,,,,,B,157.5
Raw,2,Ivan Makarov #2,J,1991,Ukraine,101.7,,,,,,110,M,Іван Макаров,-150,150,152.5,152.5,,,,,,,B,152.5
Raw,1,Anatoliy Shyshkevich,O,1970,Ukraine,107.8,,,,,,110,M,Анатолій Шишкевич,200,-210,,200,,,,,,,B,200
Raw,2,Denys Skugorov,O,1978,Ukraine,107.5,,,,,,110,M,Денис Скугоров,170,175,-180,175,,,,,,,B,175
Raw,3,Valeriy Karmazin,O,1964,Ukraine,109.8,,,,,,110,M,Валерій Кармазін,162.5,170.5,175,175,,,,,,,B,175
Raw,4,Andriy Sobolev,O,1982,Ukraine,104.2,,,,,,110,M,Андрій Соболєв,155,162.5,170,170,,,,,,,B,170
Raw,5,Yuriy Zhepko,O,1985,Ukraine,106,,,,,,110,M,Юрій Жепко,162.5,165,-172.5,165,,,,,,,B,165
Raw,6,Vasyl' Stelmakh,O,1972,Ukraine,109.1,,,,,,110,M,Василь Стельмах,160,-165,-165,160,,,,,,,B,160
Raw,7,Yuriy Khaynatskyy,O,1988,Ukraine,100.9,,,,,,110,M,Юрій Хайнацький,150,-157.5,157.5,157.5,,,,,,,B,157.5
Raw,8,Sergiy Dudinets,O,1992,Ukraine,109.6,,,,,,110,M,Сергій Дудинець,145,150,155,155,,,,,,,B,155
Raw,9,Ivan Makarov #2,O,1991,Ukraine,101.7,,,,,,110,M,Іван Макаров,-150,150,152.5,152.5,,,,,,,B,152.5
Raw,10,Valeriy Stretskul,O,1964,Ukraine,102.2,,,,,,110,M,Валерій Стрецкул,115,120,-122.5,120,,,,,,,B,120
Raw,DQ,Evgen Kirienko,O,1979,Ukraine,106.6,,,,,,110,M,Євген Кірієнко,-112.5,-112.5,,,,,,,,,B,
Raw,1,Anatoliy Shyshkevich,M1,1970,Ukraine,107.8,,,,,,110,M,Анатолій Шишкевич,200,-210,,200,,,,,,,B,200
Raw,1,Valeriy Karmazin,M2,1964,Ukraine,109.8,,,,,,110,M,Валерій Кармазін,162.5,170.5,175,175,180,,,,,,B,175
Raw,2,Valeriy Stretskul,M2,1964,Ukraine,102.2,,,,,,110,M,Валерій Стрецкул,115,120,-122.5,120,,,,,,,B,120
Raw,1,Viktor Leusenko,J,1988,Ukraine,119.2,,,,,,125,M,Віктор Леусенко,190,-202.5,202.5,202.5,,,,,,,B,202.5
Raw,2,Yuriy Chagovets,J,1988,Ukraine,124,,,,,,125,M,Юрій Чаговець,147.5,155,160,160,,,,,,,B,160
Raw,1,Viktor Leusenko,O,1988,Ukraine,119.2,,,,,,125,M,Віктор Леусенко,190,-202.5,202.5,202.5,,,,,,,B,202.5
Raw,2,Vasyl' Golivets',O,1960,Ukraine,124.7,,,,,,125,M,Василь Голівець,175,182.5,-185,182.5,,,,,,,B,182.5
Raw,3,Sergiy Galita,O,1979,Ukraine,112.8,,,,,,125,M,Сергій Галіта,155,160,165,165,,,,,,,B,165
Raw,4,Yuriy Chagovets,O,1988,Ukraine,124,,,,,,125,M,Юрій Чаговець,147.5,155,160,160,,,,,,,B,160
Raw,5,Vadym Yakushin,O,1982,Ukraine,113.3,,,,,,125,M,Вадим Якушин,120,127.5,130,130,,,,,,,B,130
Raw,DD,Gocha Kamadadze,O,1989,Ukraine,119.7,,,,,,125,M,Гоча Камададзе,-220,-220,-220,,,,,,,,B,
Raw,1,Vasyl' Golivets',M3,1960,Ukraine,124.7,,,,,,125,M,Василь Голівець,175,182.5,-185,182.5,,,,,,,B,182.5
Raw,1,Vadym Yakushin,PFM,1982,Ukraine,113.3,,,,,,125,M,Вадим Якушин,120,127.5,130,130,,,,,,,B,130
Raw,1,Igor Gryshko,J,1989,Ukraine,129.6,,,,,,145,M,Ігор Гришко,-200,-200,200,200,,,,,,,B,200
Raw,2,Artem Petryk,J,1988,Ukraine,129.6,,,,,,145,M,Артем Петрик,-170,170,-175,170,,,,,,,B,170
Raw,1,Igor Gryshko,O,1989,Ukraine,129.6,,,,,,145,M,Ігор Гришко,-200,-200,200,200,,,,,,,B,200
Raw,2,Andriy Vorontsov,O,1980,Ukraine,133.1,,,,,,145,M,Андрій Воронцов,-195,195,-205,195,,,,,,,B,195
Raw,3,Artem Petryk,O,1988,Ukraine,129.6,,,,,,145,M,Артем Петрик,-170,170,-175,170,,,,,,,B,170
Raw,1,Albina Boyko,O,1982,Ukraine,47.2,,,,,,47.5,F,Альбіна Бойко,,,,,,95,-100,100,100,,D,100
Raw,1,Oxana Vlasenko,O,1976,Ukraine,53.3,,,,,,55.5,F,Оксана Власенко,,,,,,-95,95,-100,95,,D,95
Raw,1,Antonina Morar,J,1988,Ukraine,59.7,,,,,,63,F,Антоніна Морарь,,,,,,90,100,-110,100,,D,100
Raw,1,Antonina Morar,O,1988,Ukraine,59.7,,,,,,63,F,Антоніна Морарь,,,,,,90,100,-110,100,,D,100
Raw,2,Svitlana Kravets,O,1985,Ukraine,60,,,,,,63,F,Світлана Кравець,,,,,,75,80,85,85,-100.5,D,85
Raw,1,Oksana Dubovytska,O,1984,Ukraine,66.4,,,,,,70,F,Оксана Дубовицька,,,,,,-160,160,-170,160,,D,160
Raw,1,Oleksandr Davidenko,T1,1997,Ukraine,53.9,,,,,,56,M,Олександр Давиденко,,,,,,110,115,117.5,117.5,,D,117.5
Raw,1,Yevgen Bondar,J,1990,Ukraine,55.2,,,,,,56,M,Євген Бондар,,,,,,145,-152.5,,145,,D,145
Raw,1,Yevgen Bondar,O,1990,Ukraine,55.2,,,,,,56,M,Євген Бондар,,,,,,145,-152.5,,145,,D,145
Raw,2,Oleksandr Davidenko,O,1997,Ukraine,53.9,,,,,,56,M,Олександр Давиденко,,,,,,110,115,117.5,117.5,,D,117.5
Raw,1,Yaroslav Tarasenko,T1,1997,Ukraine,59.9,,,,,,60,M,Ярослав Тарасенко,,,,,,110,115,-117.5,115,,D,115
Raw,2,Oleksandr Kovalenko,Y,1999,Ukraine,57.8,,,,,,60,M,Олександр Коваленко,,,,,,50,60,70,70,,D,70
Raw,1,Maksim Kupchanko,T2,1995,Ukraine,57.9,,,,,,60,M,Максим Купчанко,,,,,,140,152.5,155,155,-160,D,155
Raw,2,Illya Bodnaryuk,T2,1994,Ukraine,59.5,,,,,,60,M,Ілля Боднарюк,,,,,,-140,145,152.5,152.5,-160,D,152.5
Raw,1,Oleksandr Agadzhanyan,O,1979,Ukraine,59,,,,,,60,M,Олександр Агаджанян,,,,,,130,152.5,165,165,,D,165
Raw,2,Maksim Kupchanko,O,1995,Ukraine,57.9,,,,,,60,M,Максим Купчанко,,,,,,140,152.5,155,155,,D,155
Raw,3,Illya Bodnaryuk,O,1994,Ukraine,59.5,,,,,,60,M,Ілля Боднарюк,,,,,,-140,145,152.5,152.5,,D,152.5
Raw,4,Yaroslav Tarasenko,O,1997,Ukraine,59.9,,,,,,60,M,Ярослав Тарасенко,,,,,,110,115,-117.5,115,,D,115
Raw,5,Oleksandr Kovalenko,Y,1999,Ukraine,57.8,,,,,,60,M,Олександр Коваленко,,,,,,50,60,70,70,,D,70
Raw,1,Valentyn Bondar,T1,1996,Ukraine,66.9,,,,,,67.5,M,Валентин Бондар,,,,,,180,190,-200,190,,D,190
Raw,1,Sergiy Pokalyuk,T2,1996,Ukraine,61.8,,,,,,67.5,M,Сергій Покалюк,,,,,,160,182.5,,182.5,,D,182.5
Raw,2,Maxym Ivanov,T2,1995,Ukraine,62.7,,,,,,67.5,M,Максим Іванов,,,,,,155,162.5,-170,162.5,,D,162.5
Raw,3,Andriy Sergiets,T2,1995,Ukraine,66.4,,,,,,67.5,M,Андрій Сергієць,,,,,,120,-125,-125,120,,D,120
Raw,1,Erik Kupriev,T3,1992,Ukraine,65.2,,,,,,67.5,M,Ерік Купрієв,,,,,,200,-205,-205,200,,D,200
Raw,2,Viktor Denysenko,T3,1993,Ukraine,66.9,,,,,,67.5,M,Віктор Денісенко,,,,,,170,182.5,190,190,,D,190
Raw,3,Igor Vityaz,T3,1992,Ukraine,62.6,,,,,,67.5,M,Ігор Витязь,,,,,,160,175,182.5,182.5,,D,182.5
Raw,1,Sergiy Lukashov,J,1989,Ukraine,65.2,,,,,,67.5,M,Сергій Лукашов,,,,,,-182.5,182.5,,182.5,,D,182.5
Raw,2,Andriy Voskoboynikov,J,1990,Ukraine,66.2,,,,,,67.5,M,Андрій Воскобойніков,,,,,,170,175,,175,,D,175
Raw,3,Ruslan Subotin,J,1989,Ukraine,61.2,,,,,,67.5,M,Руслан Суботин,,,,,,140,152.5,160,160,,D,160
Raw,1,Anton Zlobin,O,1987,Ukraine,65.4,,,,,,67.5,M,Антон Злобін,,,,,,205,215,-220,215,,D,215
Raw,2,Erik Kupriev,O,1992,Ukraine,65.2,,,,,,67.5,M,Ерік Купрієв,,,,,,200,-205,-205,200,,D,200
Raw,3,Vadym Grabar,O,1984,Ukraine,65.2,,,,,,67.5,M,Вадим Грабар,,,,,,180,190,-197.5,190,,D,190
Raw,4,Viktor Denysenko,O,1993,Ukraine,66.9,,,,,,67.5,M,Віктор Денісенко,,,,,,170,182.5,190,190,,D,190
Raw,4,Valentyn Bondar,O,1996,Ukraine,66.9,,,,,,67.5,M,Валентин Бондар,,,,,,180,190,-200,190,,D,190
Raw,5,Sergiy Pokalyuk,O,1996,Ukraine,61.8,,,,,,67.5,M,Сергій Покалюк,,,,,,160,182.5,,182.5,,D,182.5
Raw,6,Igor Vityaz,O,1992,Ukraine,62.6,,,,,,67.5,M,Ігор Витязь,,,,,,160,175,182.5,182.5,,D,182.5
Raw,7,Sergiy Lukashov,O,1989,Ukraine,65.2,,,,,,67.5,M,Сергій Лукашов,,,,,,-182.5,182.5,,182.5,,D,182.5
Raw,8,Andriy Voskoboynikov,O,1990,Ukraine,66.2,,,,,,67.5,M,Андрій Воскобойніков,,,,,,170,175,,175,,D,175
Raw,9,Maxym Ivanov,O,1995,Ukraine,62.7,,,,,,67.5,M,Максим Іванов,,,,,,155,162.5,-170,162.5,,D,162.5
Raw,10,Ruslan Subotin,O,1989,Ukraine,61.2,,,,,,67.5,M,Руслан Суботин,,,,,,140,152.5,160,160,,D,160
Raw,11,Andriy Sergiets,O,1995,Ukraine,66.4,,,,,,67.5,M,Андрій Сергієць,,,,,,120,-125,-125,120,,D,120
Raw,DQ,Yevgen Rylov,O,1989,Ukraine,66,,,,,,67.5,M,Євген Рилов,,,,,,-182.5,-182.5,,,,D,
Raw,1,Ivan Pelikh,T2,1995,Ukraine,71.2,,,,,,75,M,Іван Пелех,,,,,,185,200,-205,200,,D,200
Raw,2,Illya Kovtun,T2,1995,Ukraine,72,,,,,,75,M,Ілля Ковтун,,,,,,185,-200,-200,185,,D,185
Raw,3,Dmytro Tsymbal,T2,1994,Ukraine,72.1,,,,,,75,M,Дмитро Цимбал,,,,,,150,160,172.5,172.5,,D,172.5
Raw,4,Igor Kozinets,T2,1994,Ukraine,71,,,,,,75,M,Ігор Козінець,,,,,,130,-140,-140,130,,D,130
Raw,5,Dmitro Strogonov,T2,1994,Ukraine,73.4,,,,,,75,M,Дмитро Строгонов,,,,,,-120,-130,130,130,,D,130
Raw,1,Sergiy Shevchenko,T3,1992,Ukraine,73.1,,,,,,75,M,Сергій Шевченко,,,,,,190,200,205,205,,D,205
Raw,2,Yevgen Begalyuk,T3,1992,Ukraine,72.3,,,,,,75,M,Євген Бегалюк,,,,,,185,200,-215,200,,D,200
Raw,3,Kirilo Zdir,T3,1993,Ukraine,74.3,,,,,,75,M,Кирило Здир,,,,,,160,175,-185,175,,D,175
Raw,1,Sergiy Pashkin,J,1990,Ukraine,73.7,,,,,,75,M,Сергій Пашкін,,,,,,205,215,222.5,222.5,,D,222.5
Raw,3,Dmytro Lutsenko,J,1990,Ukraine,73.9,,,,,,75,M,Дмитро Луценко,,,,,,190,-200,-200,190,,D,190
Raw,4,Vadim Kharitonov,J,1990,Ukraine,73,,,,,,75,M,Вадим Харитонов,,,,,,185,-200,-200,185,,D,185
Raw,5,Yaroslav Rudenko,J,1991,Ukraine,72,,,,,,75,M,Ярослав Руденко,,,,,,150,160,170,170,,D,170
Raw,6,Kostyantin Logvinenko,J,1991,Ukraine,72.6,,,,,,75,M,Костянтин Логвіненко,,,,,,140,150,-160,150,,D,150
Raw,DD,Andriy Gurichev,J,1991,Ukraine,73.1,,,,,,75,M,Андрій Гурічев,,,,,,210,-222.5,-222.5,210,,D,
Raw,1,Oleksandr Narkhov,O,1985,Ukraine,74.3,,,,,,75,M,Олександр Нархов,,,,,,225,235.5,240,240,,D,240
Raw,2,Sergiy Pashkin,O,1990,Ukraine,73.7,,,,,,75,M,Сергій Пашкін,,,,,,205,215,222.5,222.5,,D,222.5
Raw,3,Yevgen Khobta,O,1987,Ukraine,73.7,,,,,,75,M,Євген Хобта,,,,,,200,215,-222.5,215,,D,215
Raw,4,Viktor Pankevych,O,1958,Ukraine,74.7,,,,,,75,M,Віктор Панькевич,,,,,,200,210,215,215,,D,215
Raw,6,Sergiy Shevchenko,O,1992,Ukraine,73.1,,,,,,75,M,Сергій Шевченко,,,,,,190,200,205,205,,D,205
Raw,7,Ivan Pelikh,O,1995,Ukraine,71.2,,,,,,75,M,Іван Пелех,,,,,,185,200,-205,200,,D,200
Raw,8,Yevgen Begalyuk,O,1992,Ukraine,72.3,,,,,,75,M,Євген Бегалюк,,,,,,185,200,-215,200,,D,200
Raw,9,Zakir-Ogly Aliev Gidayat,O,1981,Ukraine,74.8,,,,,,75,M,Закір-Огли Алієв Гідаят,,,,,,185,195,200,200,,D,200
Raw,10,Dmytro Lutsenko,O,1990,Ukraine,73.9,,,,,,75,M,Дмитро Луценко,,,,,,190,-200,-200,190,,D,190
Raw,11,Illya Kovtun,O,1995,Ukraine,72,,,,,,75,M,Ілля Ковтун,,,,,,185,-200,-200,185,,D,185
Raw,12,Vadim Kharitonov,O,1990,Ukraine,73,,,,,,75,M,Вадим Харитонов,,,,,,185,-200,-200,185,,D,185
Raw,13,Ivan Protsenko #3,O,1987,Ukraine,72.8,,,,,,75,M,Іван Проценко,,,,,,160,177.5,-200,177.5,,D,177.5
Raw,14,Kirilo Zdir,O,1993,Ukraine,74.3,,,,,,75,M,Кирило Здир,,,,,,160,175,-185,175,,D,175
Raw,15,Dmytro Tsymbal,O,1994,Ukraine,72.1,,,,,,75,M,Дмитро Цимбал,,,,,,150,160,172.5,172.5,,D,172.5
Raw,16,Yaroslav Rudenko,O,1991,Ukraine,72,,,,,,75,M,Ярослав Руденко,,,,,,150,160,170,170,,D,170
Raw,17,Viktor Yatsishin #1,O,1957,Ukraine,72.6,,,,,,75,M,Віктор Яцишин,,,,,,150,155,160,160,,D,160
Raw,18,Kostyantin Logvinenko,O,1991,Ukraine,72.6,,,,,,75,M,Костянтин Логвіненко,,,,,,140,150,-160,150,,D,150
Raw,19,Oleksandr Loginov,O,1938,Ukraine,74.5,,,,,,75,M,Олександр Логінов,,,,,,130,140,145,145,,D,145
Raw,20,Igor Kozinets,O,1994,Ukraine,71,,,,,,75,M,Ігор Козінець,,,,,,130,-140,-140,130,,D,130
Raw,21,Dmitro Strogonov,O,1994,Ukraine,73.4,,,,,,75,M,Дмитро Строгонов,,,,,,-120,-130,130,130,,D,130
Raw,DQ,Roman Doroshenko,O,1992,Ukraine,73.9,,,,,,75,M,Роман Дорошенко,,,,,,-140,,,,,D,
Raw,DD,Andriy Gurichev,O,1991,Ukraine,73.1,,,,,,75,M,Андрій Гурічев,,,,,,210,-222.5,-222.5,210,,D,
Raw,1,Viktor Pankevych,M3,1958,Ukraine,74.7,,,,,,75,M,Віктор Панькевич,,,,,,200,210,215,215,,D,215
Raw,2,Viktor Yatsishin #1,M3,1957,Ukraine,72.6,,,,,,75,M,Віктор Яцишин,,,,,,150,155,160,160,,D,160
Raw,1,Oleksandr Loginov,M7,1938,Ukraine,74.5,,,,,,75,M,Олександр Логінов,,,,,,130,140,145,145,,D,145
Raw,1,Roman Shishkevich,T2,1995,Ukraine,76.2,,,,,,82.5,M,Роман Шишкевич,,,,,,180,200,,200,,D,200
Raw,2,Volodimir Nechay,T2,1995,Ukraine,75.5,,,,,,82.5,M,Володимир Нечай,,,,,,150,170,-190,170,,D,170
Raw,1,Maxym Nemytov,T3,1993,Ukraine,79.7,,,,,,82.5,M,Максим Немитов,,,,,,200,210,-220,210,,D,210
Raw,2,Roman Senko,T3,1993,Ukraine,80.9,,,,,,82.5,M,Роман Сенько,,,,,,160,170,180,180,,D,180
Raw,3,Artur Golubev,T3,1992,Ukraine,80.2,,,,,,82.5,M,Артур Голубєв,,,,,,172.5,-182.5,-182.5,172.5,,D,172.5
Raw,4,Vladyslav Babarykin,T3,1992,Ukraine,75.3,,,,,,82.5,M,Владислав Бабарикін,,,,,,155,162.5,-170,162.5,,D,162.5
Raw,1,Vitaliy Kobets,J,1989,Ukraine,78.2,,,,,,82.5,M,Віталій Кобець,,,,,,237.5,245,-250,245,,D,245
Raw,2,Dmitro Deryabkin,J,1991,Ukraine,80.8,,,,,,82.5,M,Дмитро Дерябкін,,,,,,217.5,232.5,245,245,,D,245
Raw,3,Roman Orekhov,J,1992,Ukraine,77.6,,,,,,82.5,M,Роман Орєхов,,,,,,165,180,190,190,,D,190
Raw,1,Vitaliy Kobets,O,1989,Ukraine,78.2,,,,,,82.5,M,Віталій Кобець,,,,,,237.5,245,-250,245,,D,245
Raw,2,Dmitro Deryabkin,O,1991,Ukraine,80.8,,,,,,82.5,M,Дмитро Дерябкін,,,,,,217.5,232.5,245,245,,D,245
Raw,3,Anton Alekseev #1,O,1986,Ukraine,78.8,,,,,,82.5,M,Антон Алєксєєв,,,,,,230,240,-245,240,,D,240
Raw,4,Maxym Ivaschenko,O,1987,Ukraine,82.2,,,,,,82.5,M,Максим Іващенко,,,,,,220,232.5,235,235,,D,235
Raw,5,Rostyslav Polonskyy,O,1977,Ukraine,82.5,,,,,,82.5,M,Ростислав Полонський,,,,,,235,-245,-245,235,,D,235
Raw,6,Oleksandr Bandura,O,1985,Ukraine,80.9,,,,,,82.5,M,Олександр Бандура,,,,,,205,217.5,-220,217.5,,D,217.5
Raw,7,Yevgen Yelyseyev,O,1987,Ukraine,81.5,,,,,,82.5,M,Євген Єлисєєв,,,,,,-210,210,-232.5,210,,D,210
Raw,8,Maxym Nemytov,O,1993,Ukraine,79.7,,,,,,82.5,M,Максим Немитов,,,,,,200,210,-220,210,,D,210
Raw,9,Sergiy Kuznetsov #3,O,1986,Ukraine,79.2,,,,,,82.5,M,Сергій Кузнєцов,,,,,,180,200,-225,200,,D,200
Raw,10,Roman Shishkevich,O,1995,Ukraine,76.2,,,,,,82.5,M,Роман Шишкевич,,,,,,180,200,,200,,D,200
Raw,11,Roman Orekhov,O,1992,Ukraine,77.6,,,,,,82.5,M,Роман Орєхов,,,,,,165,180,190,190,,D,190
Raw,12,Vladylen Myronov,O,1970,Ukraine,79.8,,,,,,82.5,M,Владилен Миронов,,,,,,170,190,,190,,D,190
Raw,13,Roman Senko,O,1993,Ukraine,80.9,,,,,,82.5,M,Роман Сенько,,,,,,160,170,180,180,,D,180
Raw,14,Artur Golubev,O,1992,Ukraine,80.2,,,,,,82.5,M,Артур Голубєв,,,,,,172.5,-182.5,-182.5,172.5,,D,172.5
Raw,15,Volodimir Nechay,O,1995,Ukraine,75.5,,,,,,82.5,M,Володимир Нечай,,,,,,150,170,-190,170,,D,170
Raw,16,Vladyslav Babarykin,O,1992,Ukraine,75.3,,,,,,82.5,M,Владислав Бабарикін,,,,,,155,162.5,-170,162.5,,D,162.5
Raw,17,Vladislav Rudenko,O,1978,Ukraine,81,,,,,,82.5,M,Владислав Руденко,,,,,,110,120,130,130,,D,130
Raw,1,Vladylen Myronov,M1,1970,Ukraine,79.8,,,,,,82.5,M,Владилен Миронов,,,,,,170,190,,190,,D,190
Raw,1,Maxym Ivaschenko,PFM,1987,Ukraine,82.2,,,,,,82.5,M,Максим Іващенко,,,,,,220,232.5,235,235,,D,235
Raw,1,Vladyslav Posnyk,T2,1994,Ukraine,86.5,,,,,,90,M,Владислав Посник,,,,,,180,190,-200.5,190,,D,190
Raw,2,Danylo Gonyaev,T2,1994,Ukraine,88.1,,,,,,90,M,Данило Гоняєв,,,,,,130,140,165,165,,D,165
Raw,1,Leonid Andrievskyy,J,1989,Ukraine,84.8,,,,,,90,M,Леонід Андрієвський,,,,,,255,-265,-265,255,,D,255
Raw,2,Volodimir Volinets,J,1990,Ukraine,85.3,,,,,,90,M,Володимир Волинець,,,,,,230,245,-250,245,,D,245
Raw,3,Dmytro Sorokin,J,1988,Ukraine,87.4,,,,,,90,M,Дмитро Сорокін,,,,,,210,220,-227.5,220,,D,220
Raw,1,Yevgen Feofanov,O,1982,Ukraine,88,,,,,,90,M,Євген Феофанов,,,,,,265,275,-282.5,275,,D,275
Raw,2,Igor Parshin #1,O,1983,Ukraine,86.6,,,,,,90,M,Игорь Паршин,,,,,,-260,262.5,267.5,267.5,,D,267.5
Raw,3,Leonid Andrievskyy,O,1989,Ukraine,84.8,,,,,,90,M,Леонід Андрієвський,,,,,,255,-265,-265,255,,D,255
Raw,4,Volodimir Volinets,O,1990,Ukraine,85.3,,,,,,90,M,Володимир Волинець,,,,,,230,245,-250,245,,D,245
Raw,5,Dmytro Negoda,O,1985,Ukraine,89.7,,,,,,90,M,Дмитро Негода,,,,,,210,227.5,235,235,,D,235
Raw,6,Dmitro Bogachonok,O,1970,Ukraine,86.4,,,,,,90,M,Дмитро Богачонок,,,,,,210,220,230,230,,D,230
Raw,7,Dmytro Sorokin,O,1988,Ukraine,87.4,,,,,,90,M,Дмитро Сорокін,,,,,,210,220,-227.5,220,,D,220
Raw,8,Oleksandr Puga,O,1985,Ukraine,88.8,,,,,,90,M,Олександр Пуга,,,,,,180,190,210,210,,D,210
Raw,9,Oleksandr Ivanov,O,1974,Ukraine,88.7,,,,,,90,M,Олександр Іванов,,,,,,190,200,-210,200,,D,200
Raw,10,Vladyslav Posnyk,O,1994,Ukraine,86.5,,,,,,90,M,Владислав Посник,,,,,,180,190,-200.5,190,,D,190
Raw,11,Danylo Gonyaev,O,1994,Ukraine,88.1,,,,,,90,M,Данило Гоняєв,,,,,,130,140,165,165,,D,165
Raw,1,Dmitro Bogachonok,M1,1970,Ukraine,86.4,,,,,,90,M,Дмитро Богачонок,,,,,,210,220,230,230,,D,230
Raw,1,Oleksandr Puga,PFM,1985,Ukraine,88.8,,,,,,90,M,Олександр Пуга,,,,,,180,190,210,210,,D,210
Raw,2,Oleksandr Ivanov,PFM,1974,Ukraine,88.7,,,,,,90,M,Олександр Іванов,,,,,,190,200,-210,200,,D,200
Raw,1,Artem Kozak,T2,1994,Ukraine,91.2,,,,,,100,M,Артем Козак,,,,,,170,182.5,190,190,,D,190
Raw,2,Ruslan Findyuk,T2,1995,Ukraine,96.1,,,,,,100,M,Руслан Фіндюк,,,,,,165,175,-185,175,,D,175
Raw,1,Viktor Kuznetsov #4,J,1988,Ukraine,95.4,,,,,,100,M,Віктор Кузнєцов,,,,,,270,280,285,285,,D,285
Raw,2,Fedir Zaremba,J,1990,Ukraine,98.1,,,,,,100,M,Федір Заремба,,,,,,240,260,,260,,D,260
Raw,3,Ivan Makoviy,J,1991,Ukraine,92.6,,,,,,100,M,Іван Маковій,,,,,,222.5,230,-240,230,,D,230
Raw,4,Sergiy Grunskiy,J,1988,Ukraine,95.6,,,,,,100,M,Сергій Грунський,,,,,,202.5,-222.5,-222.5,202.5,,D,202.5
Raw,1,Viktor Kuznetsov #4,O,1988,Ukraine,95.4,,,,,,100,M,Віктор Кузнєцов,,,,,,270,280,285,285,,D,285
Raw,2,Fedir Zaremba,O,1990,Ukraine,98.1,,,,,,100,M,Федір Заремба,,,,,,240,260,,260,,D,260
Raw,3,Anatoliy Chernenko,O,1968,Ukraine,91.8,,,,,,100,M,Анатолий Черненко,,,,,,200,220,232.5,232.5,,D,232.5
Raw,4,Ivan Makoviy,O,1991,Ukraine,92.6,,,,,,100,M,Іван Маковій,,,,,,222.5,230,-240,230,,D,230
Raw,5,Oleksandr Tolkachov,O,1970,Ukraine,97.6,,,,,,100,M,Олександр Толкачов,,,,,,210,222.5,230,230,,D,230
Raw,6,Mykola Matviyenko,O,1984,Ukraine,97.1,,,,,,100,M,Микола Матвієнко,,,,,,220,-230,-230,220,,D,220
Raw,7,Sergiy Grunskiy,O,1988,Ukraine,95.6,,,,,,100,M,Сергій Грунський,,,,,,202.5,-222.5,-222.5,202.5,,D,202.5
Raw,8,Artem Kozak,O,1994,Ukraine,91.2,,,,,,100,M,Артем Козак,,,,,,170,182.5,190,190,,D,190
Raw,9,Vadim Dodonov,O,1987,Ukraine,94.5,,,,,,100,M,Вадим Додонов,,,,,,180,-202.5,-202.5,180,,D,180
Raw,10,Leonid Kot,O,1950,Ukraine,94.6,,,,,,100,M,Леонід Кот,,,,,,165,180,-185,180,,D,180
Raw,11,Ruslan Findyuk,O,1995,Ukraine,96.1,,,,,,100,M,Руслан Фіндюк,,,,,,165,175,-185,175,,D,175
Raw,1,Anatoliy Chernenko,M1,1968,Ukraine,91.8,,,,,,100,M,Анатолий Черненко,,,,,,200,220,232.5,232.5,235,D,232.5
Raw,2,Oleksandr Tolkachov,M1,1970,Ukraine,97.6,,,,,,100,M,Олександр Толкачов,,,,,,210,222.5,230,230,-235,D,230
Raw,1,Leonid Kot,M5,1950,Ukraine,94.6,,,,,,100,M,Леонід Кот,,,,,,165,180,-185,180,,D,180
Raw,1,Vitaliy Erapart,J,1991,Ukraine,109.2,,,,,,110,M,Віталій Ерапарт,,,,,,267.5,280,-285,280,,D,280
Raw,2,Anatoliy Khrabrov,J,1990,Ukraine,104,,,,,,110,M,Анатолій Храбров,,,,,,260,270,-275,270,,D,270
Raw,3,Ivan Makarov #2,J,1991,Ukraine,110,,,,,,110,M,Іван Макаров,,,,,,250,-267.5,-267.5,250,,D,250
Raw,1,Mikhaylo Anisimov,O,1985,Ukraine,108.7,,,,,,110,M,Михайло Анісімов,,,,,,250,267.5,280.5,280.5,,D,280.5
Raw,2,Vitaliy Erapart,O,1991,Ukraine,109.2,,,,,,110,M,Віталій Ерапарт,,,,,,267.5,280,-285,280,,D,280
Raw,3,Anatoliy Khrabrov,O,1990,Ukraine,104,,,,,,110,M,Анатолій Храбров,,,,,,260,270,-275,270,,D,270
Raw,4,Yuriy Zhepko,O,1985,Ukraine,106.3,,,,,,110,M,Юрій Жепко,,,,,,247.5,267.5,270,270,,D,270
Raw,5,Yaroslav Yaroslavskiy #1,O,1977,Ukraine,107.7,,,,,,110,M,Ярослав Ярославський,,,,,,245,250,-255,250,,D,250
Raw,6,Ivan Makarov #2,O,1991,Ukraine,110,,,,,,110,M,Іван Макаров,,,,,,250,-267.5,-267.5,250,,D,250
Raw,7,Vasyl' Stelmakh,O,1972,Ukraine,109.1,,,,,,110,M,Василь Стельмах,,,,,,240,245,-250,245,,D,245
Raw,8,Sergiy Bardak,O,1977,Ukraine,104.7,,,,,,110,M,Сергій Бардак,,,,,,210,227.5,-235,227.5,,D,227.5
Raw,9,Andriy Sobolev,O,1982,Ukraine,104.2,,,,,,110,M,Андрій Соболєв,,,,,,200,225,-235,225,,D,225
Raw,1,Yuriy Chagovets,J,1988,Ukraine,124,,,,,,125,M,Юрій Чаговець,,,,,,247.5,255,260,260,,D,260
Raw,1,Andriy Smolnikov,O,1978,Ukraine,115.2,,,,,,125,M,Андрій Смольников,,,,,,255,265,-272.5,265,,D,265
Raw,2,Yuriy Chagovets,O,1988,Ukraine,124,,,,,,125,M,Юрій Чаговець,,,,,,247.5,255,260,260,,D,260
Raw,3,Sergiy Galita,O,1979,Ukraine,112.8,,,,,,125,M,Сергій Галіта,,,,,,230,240,-255,240,,D,240
Raw,4,Vadym Yakushin,O,1982,Ukraine,113.3,,,,,,125,M,Вадим Якушин,,,,,,192.5,210,220,220,,D,220
Raw,1,Vadym Yakushin,PFM,1982,Ukraine,113.3,,,,,,125,M,Вадим Якушин,,,,,,192.5,210,220,220,,D,220
