Equipment,Tested,Place,Name,Division,BirthYear,Country,BodyweightKg,Squat1Kg,Squat2Kg,Squat3Kg,Best3SquatKg,Bench1Kg,Bench2Kg,Bench3Kg,Best3BenchKg,Bench4Kg,Deadlift1Kg,Deadlift2Kg,Deadlift3Kg,Best3DeadliftKg,Deadlift4Kg,TotalKg,WeightClassKg,Sex,CyrillicName,Event
Wraps,Yes,1,Margarita Fomko,Amateur Juniors 20-23,1995,Russia,47.5,70,75,80,80,40,-42.5,-42.5,40,,90,100,105,105,,225,48,F,Маргарита Фомко,SBD
Wraps,Yes,1,Kseniya Chevelenko,Amateur Open,1984,Russia,45.4,82.5,87.5,90,90,47.5,50,52.5,52.5,,112.5,120,,120,,262.5,48,F,Ксения Чевеленко,SBD
Wraps,Yes,1,Vladislava Myslovskaya,Amateur Teen 14-15,2001,Russia,51.8,-100,105,-107.5,105,-50,55,-57.5,55,,95,102.5,-110,102.5,,262.5,52,F,Владислава Мысловская,SBD
Wraps,Yes,1,Tatyana Eremina,Amateur Open,1983,Russia,50.5,-65,65,70,70,45,47.5,-50,47.5,,85,97.5,-102.5,97.5,,215,52,F,Татьяна Еремина,SBD
Wraps,Yes,2,Natalya Kustrya,Amateur Open,1981,Russia,51.7,75,-80,-80,75,40,42.5,-45,42.5,,85,92.5,97.5,97.5,,215,52,F,Наталья Кустря,SBD
Wraps,Yes,1,Alena Akhtyamova,Amateur Juniors 20-23,1993,Russia,55.1,85,90,95,95,52.5,55,57.5,57.5,,127.5,132.5,137.5,137.5,,290,56,F,Алена Ахтямова,SBD
Wraps,Yes,1,Olga Bessonova,Amateur Open,1980,Russia,54.9,100,110,115,115,57.5,60,-65,60,,130,-140,140,140,,315,56,F,Ольга Бессонова,SBD
Wraps,Yes,2,Tatyana Neustroeva,Amateur Open,1990,Russia,54.2,80,-90,90,90,42.5,47.5,52.5,52.5,,105,115,125,125,,267.5,56,F,Татьяна Неустроева,SBD
Wraps,Yes,1,Liliya Davletkireeva,Amateur Open,1982,Russia,59.4,70,-75,-75,70,40,42.5,45,45,,90,100,-105,100,,215,60,F,Лилия Давлеткиреева,SBD
Wraps,Yes,1,Ekaterina Parkhomenko,Amateur Open,1985,Russia,64.1,95,100,-110,100,45,50,55,55,,100,110,120,120,,275,67.5,F,Екатерина Пархоменко,SBD
Wraps,Yes,2,Anastasiya Samsonova,Amateur Open,1990,Russia,61.1,-80,80,90,90,45,50,55,55,,100,110,120,120,,265,67.5,F,Анастасия Самсонова,SBD
Wraps,Yes,3,Anastasiya Pasechnik,Amateur Open,1989,Russia,60.6,-85,85,-90,85,70,72.5,-75,72.5,,132.5,140,145,145,,302.5,67.5,F,Анастасия Пасечник,SBD
Wraps,Yes,DQ,Nikita Zayts,Amateur Teen 16-17,1998,Russia,56.8,80,-90,100,100,-70,-70,,,,,,,,,,60,M,Никита Зайц,SBD
Wraps,Yes,1,Maksim Nikandrov,Amateur Open,1990,Russia,59.5,115,122.5,-132.5,122.5,82.5,-87.5,-87.5,82.5,,152.5,162.5,167.5,167.5,,372.5,60,M,Максим Никандров,SBD
Wraps,Yes,1,Vladimir Fedorov,Amateur Teen 16-17,1998,Russia,65.7,135,-142.5,-150,135,95,100,102.5,102.5,,170,180,-190,180,,417.5,67.5,M,Владимир Федоров,SBD
Wraps,Yes,2,Vladimir Kalimbetov,Amateur Teen 16-17,2000,Russia,64.5,75,-92.5,92.5,92.5,65,70,-75,70,,125,140,-150,140,,302.5,67.5,M,Владимир Калимбетов,SBD
Wraps,Yes,3,Aleksandr Pomorin,Amateur Teen 16-17,2000,Russia,66.2,72.5,-82.5,85,85,60,-65,-65,60,,110,125,-137.5,125,,270,67.5,M,Александр Поморин,SBD
Wraps,Yes,1,Sergey Zakharchenko,Amateur Open,1987,Russia,62.2,90,95,105,105,67.5,72.5,-77.5,72.5,,125,135,145,145,,322.5,67.5,M,Сергей Захарченко,SBD
Wraps,Yes,2,Vladimir Motkov,Amateur Open,1997,Russia,65.1,170,-180,-180,170,130,-140,-142.5,130,,-210,-210,-210,,,300,67.5,M,Владимир Мотков,SBD
Wraps,Yes,1,Vardan Petrosyan,Amateur Teen 18-19,1997,Russia,71.7,170,180,185,185,107.5,112.5,-120,112.5,,-230,230,240,240,,537.5,75,M,Вардан Петросян,SBD
Wraps,Yes,1,Taras Dotsenko,Amateur Open,1983,Russia,72.8,175,185,-195,185,130,-135,,130,,235,245,,245,,560,75,M,Тарас Доценко,SBD
Wraps,Yes,2,Evgeniy Belykh,Amateur Open,1985,Russia,73.6,175,182.5,187.5,187.5,125,130,132.5,132.5,,205,217.5,-222.5,217.5,,537.5,75,M,Евгений Белых,SBD
Wraps,Yes,1,Dmitriy Maslennikov,Amateur Teen 14-15,2000,Russia,79.1,130,142.5,150,150,90,100,-102.5,100,,150,-162.5,170,170,,420,82.5,M,Дмитрий Масленников,SBD
Wraps,Yes,1,Artur Yusupov,Amateur Open,1982,Russia,81.5,160,170,175,175,110,115,-120,115,,190,200,-210,200,,490,82.5,M,Артур Юсупов,SBD
Wraps,Yes,2,Andrey Zhavoronkov,Amateur Open,1988,Russia,82.1,135,145,-155,145,100,110,115,115,,160,170,185,185,,445,82.5,M,Андрей Жаворонков,SBD
Wraps,Yes,1,Aleksey Konakov,Amateur Open,1977,Russia,88.3,215,222.5,-227.5,222.5,117.5,-122.5,-122.5,117.5,,225,240,-257.5,240,,580,90,M,Алексей Конаков,SBD
Wraps,Yes,2,Timur Gololobov,Amateur Open,1991,Russia,93,210,215,-220,215,120,-130,-130,120,,210,215,-220,215,,550,100,M,Тимур Гололобов,SBD
Wraps,Yes,1,Kirill Simonov,Amateur Teen 16-17,1999,Russia,104,100,127.5,130,130,75,85,-90,85,,165,185,-200,185,,400,110,M,Кирилл Симонов,SBD
Wraps,Yes,3,Aleksandr Marfitsyn,Amateur Open,1982,Russia,108.8,250,257.5,262.5,262.5,145,152.5,157.5,157.5,,280,295,302.5,302.5,,722.5,110,M,Александр Марфицын,SBD
Wraps,Yes,4,Ivan Buldygerov,Amateur Open,1980,Russia,104.8,180,-190,200,200,110,120,125,125,,190,205,220,220,,545,110,M,Иван Булдыгеров,SBD
Multi-ply,Yes,1,Darya Dzina,Amateur Teen 13,2006,Russia,39,25,30,35,35,20,25,-30,25,,45,55,60,60,,120,44,F,Дарья Дзина,SBD
Multi-ply,Yes,1,Yuliya Emelyanova,Amateur Teen 16-17,1998,Russia,81.5,220,240,250,250,117.5,125,130,130,,180,190,-200,190,,570,82.5,F,Юлия Емельянова,SBD
Multi-ply,Yes,1,Yan Kuznetsov,Amateur Teen 16-17,1999,Russia,79.5,150,-155,155,155,90,95,-100,95,,160,170,-180,170,,420,82.5,M,Ян Кузнецов,SBD
Multi-ply,Yes,DQ,Dinar Shamsiev,Amateur Open,1990,Russia,98.8,260,-280,-280,260,-170,-175,-175,,,,,,,,,100,M,Динар Шамсиев,SBD
Multi-ply,Yes,1,Aleksandr Zmitrevich,Amateur Juniors 20-23,1995,Russia,114.9,230,-250,260,260,207.5,217.5,225,225,,210,230,242.5,242.5,,727.5,125,M,Александр Змитревич,SBD
Multi-ply,Yes,1,Vladimir Blinkov,Amateur Open,1978,Russia,113.5,340,360,380,380,190,-200,200,200,,290,310,320,320,,900,125,M,Владимир Блинков,SBD
Wraps,No,1,Evgeniy Gibadullin,Pro Teen 16-17,1998,Russia,62.8,110,-120,-120,110,80,90,-95,90,,120,130,140,140,,340,67.5,M,Евгений Гибадуллин,SBD
Wraps,No,1,Ivan Kiselev,Pro Open,1991,Russia,66.8,200,210,220,220,130,140,-145,140,,200,,,200,,560,67.5,M,Иван Киселев,SBD
Wraps,No,1,Yuriy Ilin,Pro Open,1988,Russia,99,190,200,210,210,130,140,-150,140,,240,255,270,270,,620,100,M,Юрий Ильин,SBD
Wraps,No,1,Sergey Aldoshkin,Pro Open,1988,Russia,106.3,240,250,-260,250,155,162.5,-170,162.5,,230,240,250,250,,662.5,110,M,Сергей Алдошкин,SBD
Wraps,No,1,Anton Terentyev #2,Pro Juniors 20-23,1994,Russia,116.6,200,210,220,220,130,140,-150,140,,230,250,262.5,262.5,,622.5,125,M,Антон Терентьев,SBD
Wraps,No,DQ,Andrey Kryuchkov,Pro Open,1980,Russia,115.7,270,-285,285,285,-160,-160,,,,275,,,275,,,125,M,Андрей Крючков,SBD
Multi-ply,No,1,Anastasiya Kuruleva,Pro Teen 16-17,1998,Russia,45.8,70,80,-100,80,30,35,-37.5,35,,80,90,95,95,,210,48,F,Анастасия Курулева,SBD
Multi-ply,No,1,Aliya Karimova,Pro Juniors 20-23,1994,Russia,46.3,75,85,-95,85,45,47.5,-50,47.5,,75,85,-95,85,,217.5,48,F,Алия Каримова,SBD
Multi-ply,No,1,Bulat Gabdrakhmanov,Pro Open,1990,Russia,94.3,340,355,363,363,205,212.5,217.5,217.5,,315,-330,-330,315,,895.5,100,M,Булат Габдрахманов,SBD
Multi-ply,No,1,Alik Ganiev,Pro Open,1985,Russia,104.2,-200,200,220,220,170,177.5,-182.5,177.5,,200,220,235,235,,632.5,110,M,Алик Ганиев,SBD
Wraps,Yes,1,Natalya Kustrya,Amateur Open,1981,Russia,51.7,75,-80,-80,75,,,,,,,,,,,75,52,F,Наталья Кустря,S
Wraps,Yes,1,Aleksey Konakov,Amateur Open,1977,Russia,88.3,215,222.5,-227.5,222.5,,,,,,,,,,,222.5,90,M,Алексей Конаков,S
Raw,Yes,1,Kseniya Chevelenko,Amateur Open,1984,Russia,45.4,,,,,,,,,,112.5,120,,120,,120,48,F,Ксения Чевеленко,D
Raw,Yes,1,Darya Romanovskaya,Amateur Open,1990,Russia,51.2,,,,,,,,,,110,120,130,130,,130,52,F,Дарья Романовская,D
Raw,Yes,2,Tatyana Eremina,Amateur Open,1983,Russia,50.5,,,,,,,,,,85,97.5,-102.5,97.5,,97.5,52,F,Татьяна Еремина,D
Raw,Yes,3,Natalya Kustrya,Amateur Open,1981,Russia,51.7,,,,,,,,,,85,92.5,97.5,97.5,,97.5,52,F,Наталья Кустря,D
Raw,Yes,1,Alena Akhtyamova,Amateur Juniors 20-23,1993,Russia,55.1,,,,,,,,,,127.5,132.5,137.5,137.5,140,137.5,56,F,Алена Ахтямова,D
Raw,Yes,1,Olga Bessonova,Amateur Open,1980,Russia,55.9,,,,,,,,,,130,-140,140,140,,140,56,F,Ольга Бессонова,D
Raw,Yes,2,Lyubov Podlipetskaya,Amateur Open,1978,Russia,55.55,,,,,,,,,,-115,115,122.5,122.5,,122.5,56,F,Любовь Подлипецкая,D
Raw,Yes,1,Liliya Davletkireeva,Amateur Open,1982,Russia,59.4,,,,,,,,,,90,100,-105,100,,100,60,F,Лилия Давлеткиреева,D
Raw,Yes,1,Anastasiya Pasechnik,Amateur Open,1989,Russia,60.6,,,,,,,,,,132.5,140,145,145,,145,67.5,F,Анастасия Пасечник,D
Raw,Yes,2,Anastasiya Samsonova,Amateur Open,1990,Russia,61.1,,,,,,,,,,100,110,120,120,,120,67.5,F,Анастасия Самсонова,D
Raw,Yes,3,Ekaterina Parkhomenko,Amateur Open,1985,Russia,64.1,,,,,,,,,,100,110,120,120,,120,67.5,F,Екатерина Пархоменко,D
Raw,Yes,1,Maksim Nikandrov,Amateur Open,1990,Russia,59.5,,,,,,,,,,152.5,162.5,167.5,167.5,,167.5,60,M,Максим Никандров,D
Raw,Yes,1,Nikita Abzaev,Amateur Teen 18-19,1998,Russia,73.2,,,,,,,,,,-160,170,-180,170,,170,75,M,Никита Абзаев,D
Raw,Yes,1,Andrey Plasteev,Amateur Open,1982,Russia,73.6,,,,,,,,,,-190,190,-200,190,,190,75,M,Андрей Пластеев,D
Raw,Yes,1,Aleksandr Cherkasov,Amateur Open,1988,Russia,80,,,,,,,,,,190,200,-217.5,200,,200,82.5,M,Александр Черкасов,D
Raw,Yes,1,Aleksey Orlov,Amateur Open,1990,Russia,90,,,,,,,,,,-280,280,-290,280,,280,90,M,Алексей Орлов,D
Raw,Yes,2,Aleksey Konakov,Amateur Open,1977,Russia,88.3,,,,,,,,,,225,240,-257.5,240,,240,90,M,Алексей Конаков,D
Raw,Yes,1,Timur Gololobov,Amateur Open,1991,Russia,93,,,,,,,,,,210,215,-220,215,,215,100,M,Тимур Гололобов,D
Raw,Yes,1,Mikhail Tolmachev,Amateur Masters 40-44,1975,Russia,99.2,,,,,,,,,,220,235,250,250,,250,100,M,Михаил Толмачев,D
Raw,Yes,1,Aleksandr Marfitsyn,Amateur Open,1982,Russia,108.8,,,,,,,,,,280,295,302.5,302.5,-311,302.5,110,M,Александр Марфицын,D
Multi-ply,Yes,1,Aleksandr Zapolskiy,Amateur Teen 16-17,1999,Russia,95.7,,,,,,,,,,215,-222.5,222.5,222.5,,222.5,100,M,Александр Запольский,D
Multi-ply,Yes,1,Aleksandr Zapolskiy,Amateur Open,1999,Russia,95.7,,,,,,,,,,215,-222.5,222.5,222.5,,222.5,100,M,Александр Запольский,D
Wraps,No,1,Sergey Aldoshkin,Pro Open,1988,Russia,106.3,240,250,-260,250,,,,,,,,,,,250,110,M,Сергей Алдошкин,S
Raw,No,1,Bulat Gabdrakhmanov,Pro Open,1990,Russia,94.3,,,,,,,,,,315,-330,-330,315,,315,100,M,Булат Габдрахманов,D
Raw,No,1,Egor Golubkin,Pro Juniors 20-23,1992,Russia,120.6,,,,,,,,,,245,255,,255,,255,125,M,Егор Голубкин,D
Raw,No,1,Dmitriy Kolomeytsev,Pro Open,1976,Russia,122.5,,,,,,,,,,270,285,-293,285,,285,125,M,Дмитрий Коломейцев,D
Raw,No,1,Andrey Bogatyrev,Pro Masters 55-59,1960,Russia,113.9,,,,,,,,,,210,-230,-230,210,,210,125,M,Андрей Богатырев,D
Raw,Yes,1,Mariya Gurzhey,Amateur Teen 14-15,2000,Russia,48,,,,,45,-55,55,55,,,,,,,55,48,F,Мария Гуржей,B
Raw,Yes,1,Marina Antonova,Amateur Juniors 20-23,1994,Russia,48,,,,,42.5,45,-47.5,45,,,,,,,45,48,F,Марина Антонова,B
Raw,Yes,1,Tatyana Dmitrenko,Amateur Teen 16-17,2000,Russia,49.3,,,,,45,-50,50,50,,,,,,,50,52,F,Татьяна Дмитренко,B
Raw,Yes,1,Ekaterina Yartseva,Amateur Open,1988,Russia,51.4,,,,,55,57.5,60,60,,,,,,,60,52,F,Екатерина Ярцева,B
Raw,Yes,2,Elvira Vakilova,Amateur Open,1988,Russia,52,,,,,-47.5,47.5,-52.5,47.5,,,,,,,47.5,52,F,Эльвира Вакилова,B
Raw,Yes,1,Elena Gafina,Amateur Masters 50-54,1964,Russia,50.8,,,,,-55,-55,55,55,,,,,,,55,52,F,Елена Гафина,B
Raw,Yes,1,Ulyana Frolova,Amateur Teen 14-15,2001,Russia,57.1,,,,,35,-37.5,-37.5,35,,,,,,,35,60,F,Ульяна Фролова,B
Raw,Yes,1,Alena Lutkova,Amateur Juniors 20-23,1994,Russia,59.2,,,,,40,-45,-45,40,,,,,,,40,60,F,Алена Луткова,B
Raw,Yes,1,Natalya Gomaleeva,Amateur Open,1985,Russia,58.5,,,,,85,92.5,-95.5,92.5,,,,,,,92.5,60,F,Наталья Гомалеева,B
Raw,Yes,1,Gulnara Surikova,Amateur Masters 45-49,1967,Russia,58,,,,,60,-65,-65,60,,,,,,,60,60,F,Гульнара Сурикова,B
Raw,Yes,1,Anastasiya Korableva,Amateur Juniors 20-23,1995,Russia,64.9,,,,,80,-85,-85,80,,,,,,,80,67.5,F,Анастасия Кораблева,B
Raw,Yes,2,Anzhela Postovalova,Amateur Juniors 20-23,1994,Russia,66,,,,,67.5,72.5,-75,72.5,,,,,,,72.5,67.5,F,Анжела Постовалова,B
Raw,Yes,1,Olga Bal,Amateur Open,1986,Russia,62.5,,,,,45,47.5,-50,47.5,,,,,,,47.5,67.5,F,Ольга Баль,B
Raw,Yes,1,Elena Vadyunina,Amateur Open,1968,Russia,68.8,,,,,80,85,90,90,-95,,,,,,90,75,F,Елена Вадюнина,B
Raw,Yes,1,Tatyana Matsura,Amateur Open,1989,Russia,79.2,,,,,50,-55,55,55,,,,,,,55,82.5,F,Татьяна Мацура,B
Raw,Yes,1,Gulbanu Shaymardanova,Amateur Masters 45-49,1970,Russia,87.5,,,,,60,65,-70,65,,,,,,,65,90,F,Гульбану Шаймарданова,B
Raw,Yes,1,Evgeniy Rukin,Amateur Teen 14-15,2000,Russia,60,,,,,75,-82.5,-82.5,75,,,,,,,75,60,M,Евгений Рукин,B
Raw,Yes,1,Ivan Fedyaev,Amateur Teen 18-19,1996,Russia,60,,,,,100,105,110,110,,,,,,,110,60,M,Иван Федяев,B
Raw,Yes,1,Ivan Dorofeev,Amateur Teen 14-15,2001,Russia,67.2,,,,,80,85,87.5,87.5,,,,,,,87.5,67.5,M,Иван Дорофеев,B
Raw,Yes,2,Mikhail Solomonov,Amateur Teen 14-15,2000,Russia,61.3,,,,,77.5,-82.5,82.5,82.5,,,,,,,82.5,67.5,M,Михаил Соломонов,B
Raw,Yes,1,Vladislav Ryshkov,Amateur Juniors 20-23,1992,Russia,64.4,,,,,85,90,95,95,,,,,,,95,67.5,M,Владислав Рышков,B
Raw,Yes,2,Ivan Krasovskiy,Amateur Juniors 20-23,1993,Russia,65.8,,,,,85,90,-97.5,90,,,,,,,90,67.5,M,Иван Красовский,B
Raw,Yes,1,Aleksey Maklakov,Amateur Open,1992,Russia,66.4,,,,,167.5,-173,-173,167.5,,,,,,,167.5,67.5,M,Алексей Маклаков,B
Raw,Yes,2,Rustam Amashaev,Amateur Open,1985,Russia,67,,,,,127.5,135,,135,,,,,,,135,67.5,M,Рустам Амашаев,B
Raw,Yes,3,Pavel Grekov,Amateur Open,1987,Russia,65.8,,,,,90,100,-105,100,,,,,,,100,67.5,M,Павел Греков,B
Raw,Yes,1,Kirill Chernoshvets,Amateur Teen 16-17,1998,Russia,71.7,,,,,90,95,-100,95,,,,,,,95,75,M,Кирилл Черношвец,B
Raw,Yes,1,Artem Skoptsov,Amateur Teen 18-19,1996,Russia,74.3,,,,,125,132.5,137.5,137.5,,,,,,,137.5,75,M,Артем Скопцов,B
Raw,Yes,2,Vladislav Samoylov,Amateur Teen 18-19,1997,Russia,74.5,,,,,120,-125,-132.5,120,,,,,,,120,75,M,Владислав Самойлов,B
Raw,Yes,3,Nikita Abzaev,Amateur Teen 18-19,1998,Russia,73.2,,,,,102.5,107.5,110,110,,,,,,,110,75,M,Никита Абзаев,B
Raw,Yes,1,Aleksey Dolgovyazov,Amateur Juniors 20-23,1995,Russia,73.8,,,,,125,132.5,137.5,137.5,-140,,,,,,137.5,75,M,Алексей Долговязов,B
Raw,Yes,2,Igor Marina,Amateur Juniors 20-23,1992,Russia,70.4,,,,,130,-137.5,-137.5,130,,,,,,,130,75,M,Игорь Марина,B
Raw,Yes,3,Aleksey Bublich,Amateur Juniors 20-23,1996,Russia,70.2,,,,,115,120,-125,120,,,,,,,120,75,M,Алексей Бублич,B
Raw,Yes,1,Sergey Ilyushin,Amateur Open,1977,Russia,73.4,,,,,130,137.5,-140,137.5,,,,,,,137.5,75,M,Сергей Илюшин,B
Raw,Yes,2,Yuriy Timofeev,Amateur Open,1989,Russia,74.9,,,,,125,130,-137.5,130,,,,,,,130,75,M,Юрий Тимофеев,B
Raw,Yes,DQ,Sergey Kharitonov,Amateur Open,1985,Russia,74.9,,,,,-152.5,-152.5,-152.5,,,,,,,,,75,M,Сергей Харитонов,B
Raw,Yes,DQ,Oleg Schegolikhin,Amateur Masters 45-49,1967,Russia,73.8,,,,,-137.5,-137.5,-137.5,,,,,,,,,75,M,Олег Щеголихин,B
Raw,Yes,1,Valentin Makarov,Amateur Masters 50-54,1963,Russia,72,,,,,120,-125,,120,,,,,,,120,75,M,Валентин Макаров,B
Raw,Yes,1,Andrey Gilev,Amateur Teen 18-19,1997,Russia,77.5,,,,,130,140,-147.5,140,,,,,,,140,82.5,M,Андрей Гилев,B
Raw,Yes,1,Kirill Mikhnyuk,Amateur Juniors 20-23,1994,Russia,80.9,,,,,162.5,-170,,162.5,,,,,,,162.5,82.5,M,Кирилл Михнюк,B
Raw,Yes,2,Kirill Borisevich,Amateur Juniors 20-23,1994,Russia,80.6,,,,,130,137.5,-140,137.5,,,,,,,137.5,82.5,M,Кирилл Борисевич,B
Raw,Yes,1,Aleksandr Alyaev,Amateur Open,1984,Russia,81.9,,,,,180,182.5,-185,182.5,,,,,,,182.5,82.5,M,Александр Аляев,B
Raw,Yes,2,Maksim Vasin,Amateur Open,1991,Russia,82.4,,,,,170,175,177.5,177.5,,,,,,,177.5,82.5,M,Максим Васин,B
Raw,Yes,3,Konstantin Kobyzov,Amateur Open,1985,Russia,79.6,,,,,170,175,-180,175,,,,,,,175,82.5,M,Константин Кобызов,B
Raw,Yes,4,Timofey Chernyavskiy,Amateur Open,1985,Russia,80.7,,,,,165,175,-180,175,,,,,,,175,82.5,M,Тимофей Чернявский,B
Raw,Yes,5,Aleksandr Kaysin,Amateur Open,1983,Russia,81.2,,,,,140,-147.5,147.5,147.5,,,,,,,147.5,82.5,M,Александр Кайсин,B
Raw,Yes,6,Roman Nechkin,Amateur Open,1984,Russia,81.4,,,,,137.5,145,-150,145,,,,,,,145,82.5,M,Роман Нечкин,B
Raw,Yes,7,Vadim Nikulin,Amateur Open,1990,Russia,82.5,,,,,142.5,-147.5,-147.5,142.5,,,,,,,142.5,82.5,M,Вадим Никулин,B
Raw,Yes,1,Baurzhan Dusenbaev,Amateur Masters 40-44,1975,Russia,79.6,,,,,-125,-125,125,125,,,,,,,125,82.5,M,Бауржан Дусенбаев,B
Raw,Yes,1,Dmitriy Vtorygin,Amateur Open,1979,Russia,87.5,,,,,152.5,160,-165,160,,,,,,,160,90,M,Дмитрий Вторыгин,B
Raw,Yes,2,Shamil Magomedov,Amateur Open,1981,Russia,88.2,,,,,140,155,160,160,,,,,,,160,90,M,Шамиль Магомедов,B
Raw,Yes,3,Ivan Kunaev,Amateur Open,1991,Russia,84.1,,,,,145,150,155,155,,,,,,,155,90,M,Иван Кунаев,B
Raw,Yes,4,Rodion Cayfutdinov,Amateur Open,1978,Russia,85.4,,,,,152.5,155,-160,155,,,,,,,155,90,M,Родион Сайфутдинов,B
Raw,Yes,5,Arkadiy Litvin,Amateur Open,1985,Russia,89.4,,,,,150,155,-160,155,,,,,,,155,90,M,Аркадий Литвин,B
Raw,Yes,1,Valeriy Romanov,Amateur Masters 55-59,1961,Russia,89.6,,,,,140,150,,150,,,,,,,150,90,M,Валерий Романов,B
Raw,Yes,1,Konstantin Tikhomirov,Amateur Masters 60-64,1952,Russia,85.1,,,,,140,142.5,147.5,147.5,,,,,,,147.5,90,M,Константин Тихомиров,B
Raw,Yes,1,Aleksandr Suvorin,Amateur Open,1986,Russia,99.9,,,,,200,205,210,210,,,,,,,210,100,M,Александр Суворин,B
Raw,Yes,2,Konstantin Kudashev,Amateur Open,1981,Russia,98.5,,,,,182.5,-187.5,-187.5,182.5,,,,,,,182.5,100,M,Константин Кудашев,B
Raw,Yes,3,Dmitriy Kuzeev,Amateur Open,1975,Russia,99.5,,,,,165,170,172.5,172.5,,,,,,,172.5,100,M,Дмитрий Кузеев,B
Raw,Yes,4,Vladislav Shuvalov,Amateur Open,1985,Russia,98.6,,,,,155,162.5,-170,162.5,,,,,,,162.5,100,M,Владислав Шувалов,B
Raw,Yes,1,Dmitriy Kuzeev,Amateur Masters 40-44,1975,Russia,99.5,,,,,165,170,172.5,172.5,,,,,,,172.5,100,M,Дмитрий Кузеев,B
Raw,Yes,1,Aleksandr Iglin,Amateur Masters 45-49,1969,Russia,99.9,,,,,150,155,,155,,,,,,,155,100,M,Александр Иглин,B
Raw,Yes,1,Vitaliy Gladkov,Amateur Open,1963,Russia,102.8,,,,,162.5,170,175,175,,,,,,,175,110,M,Виталий Гладков,B
Raw,Yes,2,Sergey Alekseev,Amateur Open,1970,Russia,102.3,,,,,170,-180,-180,170,,,,,,,170,110,M,Сергей Алексеев,B
Raw,Yes,3,Aleksandr Baratov,Amateur Open,1986,Russia,109.1,,,,,170,-190,-190,170,,,,,,,170,110,M,Александр Баратов,B
Raw,Yes,1,Evgeniy Antonov,Amateur Masters 40-44,1975,Russia,102,,,,,175,180,-182.5,180,,,,,,,180,110,M,Евгений Антонов,B
Raw,Yes,1,Andrey Burlachko,Amateur Masters 45-49,1969,Russia,105.9,,,,,135,145,-150,145,,,,,,,145,110,M,Андрей Бурлачко,B
Raw,Yes,1,Vitaliy Gladkov,Amateur Masters 50-54,1963,Russia,101.8,,,,,162.5,170,175,175,,,,,,,175,110,M,Виталий Гладков,B
Raw,Yes,1,Anton Apukhtin,Amateur Open,1987,Russia,123.3,,,,,175,-185,185,185,,,,,,,185,125,M,Антон Апухтин,B
Raw,Yes,2,Ilya Zhidkov,Amateur Open,1987,Russia,124.3,,,,,150,160,-175,160,,,,,,,160,125,M,Илья Жидков,B
Raw,Yes,3,Aleksey Dyachenko,Amateur Open,1986,Russia,115.6,,,,,150,155,-160,155,,,,,,,155,125,M,Алексей Дьяченко,B
Raw,Yes,4,Pavel Karamalak,Amateur Open,1973,Russia,129.9,,,,,180,190,-200,190,,,,,,,190,140,M,Павел Карамалак,B
Raw,Yes,1,Pavel Karamalak,Amateur Masters 40-44,1973,Russia,129.9,,,,,180,190,-200,190,,,,,,,190,140,M,Павел Карамалак,B
Multi-ply,Yes,1,Olesya Braslavets,Amateur Open,1981,Russia,61.9,,,,,-80,80,90,90,,,,,,,90,67.5,F,Олеся Браславец,B
Multi-ply,Yes,2,Tatyana Korelina,Amateur Open,1983,Russia,66.6,,,,,60,-75,-75,60,,,,,,,60,67.5,F,Татьяна Корелина,B
Multi-ply,Yes,1,Ilya Dunaev,Amateur Teen 16-17,1998,Russia,66.4,,,,,120,125,-135,125,,,,,,,125,67.5,M,Илья Дунаев,B
Multi-ply,Yes,1,Nikolay Semenov,Amateur Juniors 20-23,1995,Russia,63.5,,,,,155,162.5,165,165,,,,,,,165,67.5,M,Николай Семенов,B
Multi-ply,Yes,1,Aynur Gallyamov,Amateur Open,1976,Russia,73.2,,,,,185,195,200,200,,,,,,,200,75,M,Айнур Галлямов,B
Multi-ply,Yes,1,Nikita Kuvaldin,Amateur Open,1992,Russia,87,,,,,180,-207.5,-207.5,180,,,,,,,180,90,M,Никита Кувалдин,B
Multi-ply,Yes,1,Egor Kuznetsov,Amateur Juniors 20-23,1995,Russia,97.5,,,,,160,-170,-170,160,,,,,,,160,100,M,Егор Кузнецов,B
Multi-ply,Yes,1,Nikolay Drozhzhilov,Amateur Open,1986,Russia,110,,,,,250,260,-270,260,,,,,,,260,110,M,Николай Дрожжилов,B
Multi-ply,Yes,2,Aleksey Vasilenko,Amateur Open,1989,Russia,105.5,,,,,175,185,192.5,192.5,,,,,,,192.5,110,M,Алексей Василенко,B
Multi-ply,Yes,DQ,Maksim Maksimenko,Amateur Open,1984,Russia,109.7,,,,,-165,-165,-165,,,,,,,,,110,M,Максим Максименко,B
Multi-ply,Yes,DQ,Yuriy Kadikov,Amateur Open,1981,Russia,107.7,,,,,-170,-170,-170,,,,,,,,,110,M,Юрий Кадиков,B
Multi-ply,Yes,1,Aleksey Dyachenko,Amateur Open,1986,Russia,115.6,,,,,202.5,212.5,220,220,,,,,,,220,125,M,Алексей Дьяченко,B
Raw,No,1,Ekaterina Zaytseva,Pro Open,1987,Russia,75,,,,,95,-100,-100,95,,,,,,,95,75,F,Екатерина Зайцева,B
Raw,No,1,Artem Paley,Pro Teen 13,2006,Russia,24.1,,,,,30,32.5,-35,32.5,,,,,,,32.5,44,M,Артем Палей,B
Raw,No,1,Georgiy Shalgin,Pro Open,1982,Russia,66.4,,,,,90,95,-100,95,,,,,,,95,67.5,M,Георгий Шалгин,B
Raw,No,1,Daniil Vadyunin,Pro Teen 14-15,2001,Russia,73.3,,,,,85,90,-92.5,90,,,,,,,90,75,M,Даниил Вадюнин,B
Raw,No,1,Roman Khamidulin,Pro Open,1983,Russia,73.3,,,,,-160,160,-170,160,,,,,,,160,75,M,Роман Хамидулин,B
Raw,No,1,Sergey Kozhokin,Pro Masters 45-49,1969,Russia,73.3,,,,,135,-145,145,145,,,,,,,145,75,M,Сергей Кожокин,B
Raw,No,1,Artem Popov,Pro Teen 18-19,1997,Russia,83.3,,,,,122.5,130,-135,130,,,,,,,130,90,M,Артем Попов,B
Raw,No,1,Mishel Garros,Pro Open,1990,Russia,89.3,,,,,120,130,-140,130,,,,,,,130,90,M,Мишель Гаррос,B
Raw,No,1,Dmitriy Ivanov #18,Pro Juniors 20-23,1993,Russia,97,,,,,160,170,-175,170,,,,,,,170,100,M,Дмитрий Иванов,B
Raw,No,2,Denis Ivanov,Pro Juniors 20-23,1993,Russia,98.6,,,,,160,165,-170,165,,,,,,,165,100,M,Денис Иванов,B
Raw,No,1,Kirill Cherepenkin,Pro Open,1981,Russia,99.1,,,,,195,200,-202.5,200,,,,,,,200,100,M,Кирилл Черепенькин,B
Raw,No,2,Konstantin Serovaev,Pro Open,1985,Russia,98.7,,,,,175,180,-182.5,180,,,,,,,180,100,M,Константин Сероваев,B
Raw,No,1,Gamlet Byazrov,Pro Masters 45-49,1969,Russia,98.8,,,,,160,170,175,175,,,,,,,175,100,M,Гамлет Бязров,B
Raw,No,1,Evgeniy Leonidov,Pro Open,1982,Russia,109.2,,,,,190,195,202.5,202.5,,,,,,,202.5,110,M,Евгений Леонидов,B
Raw,No,2,Evgeniy Mironov,Pro Open,1980,Russia,108.1,,,,,180,190,195,195,,,,,,,195,110,M,Евгений Миронов,B
Raw,No,1,Aleksey Chernyshev,Pro Masters 40-44,1975,Russia,106.6,,,,,172.5,180,185,185,,,,,,,185,110,M,Алексей Чернышев,B
Raw,No,1,Aleksey Chernysh,Pro Masters 45-49,1967,Russia,108.8,,,,,185,195,-202.5,195,,,,,,,195,110,M,Алексей Черныш,B
Raw,No,1,Egor Golubkin,Pro Juniors 20-23,1992,Russia,120.6,,,,,180,185,-190,185,,,,,,,185,125,M,Егор Голубкин,B
Raw,No,1,Igor Babushkin,Pro Open,1963,Russia,114.9,,,,,185,190,195,195,,,,,,,195,125,M,Игорь Бабушкин,B
Raw,No,2,Dmitriy Bal,Pro Open,1974,Russia,117.8,,,,,180,190,-200,190,,,,,,,190,125,M,Дмитрий Баль,B
Raw,No,3,Dmitriy Kolomeytsev,Pro Open,1976,Russia,122.5,,,,,170,177.5,185,185,,,,,,,185,125,M,Дмитрий Коломейцев,B
Raw,No,1,Dmitriy Bal,Pro Masters 40-44,1974,Russia,117.8,,,,,180,190,-200,190,,,,,,,190,125,M,Дмитрий Баль,B
Raw,No,1,Aleksandr Kryukov,Pro Masters 45-49,1970,Russia,121.1,,,,,175,185,195,195,,,,,,,195,125,M,Александр Крюков,B
Raw,No,1,Igor Babushkin,Pro Masters 50-54,1963,Russia,114.9,,,,,185,190,195,195,,,,,,,195,125,M,Игорь Бабушкин,B
Raw,No,1,Aleksandr Nikiforov,Pro Open,1973,Russia,145.3,,,,,225,-230,230,230,,,,,,,230,140+,M,Александр Никифоров,B
Raw,No,1,Aleksandr Nikiforov,Pro Masters 40-44,1973,Russia,145.3,,,,,225,-230,230,230,,,,,,,230,140+,M,Александр Никифоров,B
Raw,No,1,Sergey Lazarev,Pro Masters 55-59,1960,Russia,150.3,,,,,140,-147.5,-150,140,,,,,,,140,140+,M,Сергей Лазарев,B
Multi-ply,No,1,Ekaterina Zaytseva,Pro Open,1987,Russia,75,,,,,135,145,155,155,-165,,,,,,155,75,F,Екатерина Зайцева,B
Multi-ply,No,1,Aleksey Shvetsov,Pro Open,1981,Russia,82.2,,,,,230,240,-245,240,,,,,,,240,82.5,M,Алексей Швецов,B
Multi-ply,No,2,Denis Aptiev,Pro Open,1992,Russia,82.3,,,,,140,150,-160,150,,,,,,,150,82.5,M,Денис Аптиев,B
Multi-ply,No,1,Semen Paley,Pro Teen 16-17,1999,Russia,83.1,,,,,135,150,-160,150,,,,,,,150,90,M,Семен Палей,B
Multi-ply,No,1,Mikhail Sevostyanov,Pro Open,1987,Russia,83.4,,,,,160,170,-180,170,,,,,,,170,90,M,Михаил Севостьянов,B
Multi-ply,No,1,Sergey Sevostyanov,Pro Open,1980,Russia,105.2,,,,,232.5,-240,-240,232.5,,,,,,,232.5,110,M,Сергей Севостьянов,B
Multi-ply,No,1,Aleksandr Ponomarev,Pro Masters 45-49,1967,Russia,110,,,,,225,230,235,235,,,,,,,235,110,M,Александр Пономарев,B
Multi-ply,No,1,Mikhail Makarov,Pro Open,1991,Russia,121,,,,,-265,265,275,275,-290,,,,,,275,125,M,Михаил Макаров,B
Multi-ply,No,1,Dmitriy Khanykov,Pro Open,1983,Russia,125.5,,,,,300,310,325,325,,,,,,,325,140,M,Дмитрий Ханыков,B
