Equipment,Place,WeightClassKg,Name,Country,Age,Division,BodyweightKg,Best3SquatKg,Best3BenchKg,Best3DeadliftKg,TotalKg,Sex,Event
Raw,1,50.5,Maruska Bertoli,Italy,32,F-O,50.3,100,65,130,295,F,SBD
Raw,1,53,Susy Varesi,Italy,33,F-O,52.5,80,55,95,230,F,SBD
Raw,1,63,Manuela Marano,Italy,37,F-O,61,85,70,120,275,F,SBD
Raw,1,70,Angela Sturla,Italy,15,F-T1,63.7,50,30,60,140,F,SBD
Raw,1,80,Susana Perrone,Italy,48,F-M2,78.9,102.5,77.5,130,310,F,SBD
Raw,1,80,Loredana Frassati,Italy,53,F-M3,74.9,70,62.5,127.5,260,F,SBD
Raw,1,90+,Emanuela Tornese,Italy,40,F-M1,103.4,70,50,110,230,F,SBD
Raw,DQ,90+,Elisabetta Pellegrino,Italy,36,F-O,114.2,,,,,F,SBD
Raw,1,52,Mattia Miraglia,Italy,17,M-T2,50.4,107.5,82.5,130,320,M,SBD
Raw,1,60,Domenico Catricala,Italy,75,M-M8,57.9,80,60,145,285,M,SBD
Raw,1,67.5,Guiseppe Sangregorio,Italy,31,M-O,67.5,132.5,87.5,162.5,382.5,M,SBD
Raw,1,67.5,Paolo Petrongari,Italy,46,M-M2,63.5,120,92.5,160,372.5,M,SBD
Raw,1,67.5,Alessandro Volo,Italy,18,M-T3,65.7,135,60,165,360,M,SBD
Raw,DQ,67.5,Antonio Casciaro,Italy,15,M-T1,66.5,,,,,M,SBD
Raw,1,75,Indra Sudarminto,Belgium,21,M-JR,74.8,230,140,250,620,M,SBD
Raw,2,75,Francesco Marinosci,Italy,22,M-JR,74.8,200,130,240,570,M,SBD
Raw,1,75,John Favey,Switzerland,24,M-O,72.9,182.5,157.5,220,560,M,SBD
Raw,2,75,Charles Degiorgo,Malta,32,M-O,72.6,190,115,230,535,M,SBD
Raw,3,75,Ivan Milanesi,Italy,28,M-O,73.1,150,135,235,520,M,SBD
Raw,4,75,Francesco Cavallo,Italy,28,M-O,73.4,160,147.5,200,507.5,M,SBD
Raw,1,75,Enzo Dumont,France,18,M-T3,75,157.5,110,190,457.5,M,SBD
Raw,2,75,Bruno Vez,Switzerland,18,M-T3,71.8,145,102.5,205,452.5,M,SBD
Raw,5,75,Vita De,Italy,29,M-O,69,130,90,165,385,M,SBD
Raw,1,75,Biase De,Italy,66,M-M6,74.5,90,85,130,305,M,SBD
Raw,DQ,75,Fuoco Donato,Italy,24,M-O,71.5,,,,,M,SBD
Raw,1,82.5,Alberto Ermoli,Italy,35,M-O,80.4,205,145,252.5,602.5,M,SBD
Raw,1,82.5,Francesco Morese,Italy,50,M-M3,81.6,210,135,240,585,M,SBD
Raw,2,82.5,Massimiliano De Constazo,Italy,35,M-O,82.4,200,125,215,540,M,SBD
Raw,2,82.5,Riccardo Brancato,Switzerland,52,M-M3,79.7,180,110,200,490,M,SBD
Raw,1,82.5,Alessio Trullo,Italy,20,M-JR,75.6,160,80,215,455,M,SBD
Raw,1,82.5,Carlo Mulatero,Italy,56,M-M4,77,150,110,190,450,M,SBD
Raw,1,82.5,Luigi Crispino,Italy,40,M-M1,82.2,135,120,175,430,M,SBD
Raw,1,82.5,Francis Spiteri,Malta,62,M-M5,80.5,155,75,190,420,M,SBD
Raw,2,82.5,Jimmy D'Ascenzo,Italy,22,M-JR,82.5,135,97.5,180,412.5,M,SBD
Raw,1,82.5,Hermes Rosafio,Italy,19,M-T3,79.3,150,95,165,410,M,SBD
Raw,3,82.5,Pasquale Castaldo,Italy,23,M-JR,78.9,135,95,165,395,M,SBD
Raw,3,82.5,Luca Settembre,Italy,38,M-O,80.2,132.5,95,165,392.5,M,SBD
Raw,1,82.5,Carmine Russo,Italy,46,M-M2,80.5,80,70,110,260,M,SBD
Raw,1,90,Cyrille Vaillant,France,39,M-O,89,230,177.5,252.5,660,M,SBD
Raw,2,90,Davide De Giovanni,Italy,31,M-O,87.3,210,165,250,625,M,SBD
Raw,3,90,Joanathan Mogford,UK,33,M-O,89.5,205,140,250,595,M,SBD
Raw,1,90,Fabio Tricomi,Italy,23,M-JR,85,200,137.5,240,577.5,M,SBD
Raw,4,90,Enrico Chiri,Italy,30,M-O,86.3,180,135,220,535,M,SBD
Raw,5,90,Vito Terranova,Italy,33,M-O,84.7,170,120,215,505,M,SBD
Raw,6,90,Valerio Di,Italy,33,M-O,84.7,180,122.5,190,492.5,M,SBD
Raw,7,90,Nicola Delle Cave,Italy,27,M-O,86.3,150,132.5,190,472.5,M,SBD
Raw,1,90,Roberto Masiello,Italy,41,M-M1,87.9,100,105,170,375,M,SBD
Raw,1,100,Andrea Ravasi,Italy,43,M-M1,97.1,232.5,177.5,250,660,M,SBD
Raw,1,100,Ramon Gysin,Switzerland,28,M-O,97,245,150,262.5,657.5,M,SBD
Raw,2,100,Corrado Siragusa,Italy,28,M-O,95.6,245,140,270,655,M,SBD
Raw,3,100,Austin Hickey,Ireland,31,M-O,99.1,200,175,265,640,M,SBD
Raw,1,100,Orlando Cosimo,Italy,56,M-M4,91.5,225,180,230,635,M,SBD
Raw,1,100,Evgeniy Tverdovskiy,Russia,62,M-M5,94.2,150,92.5,170,412.5,M,SBD
Raw,1,100,Lafayette Carrabba,Italy,14,M-T1,95.8,125,90,170,385,M,SBD
Raw,1,100,Cioffi Pasquale,Italy,18,M-T3,91.9,130,97.5,150,377.5,M,SBD
Raw,DQ,100,Alessandro Queirolo,Italy,54,M-M3,96,130,,,,M,SBD
Raw,1,110,Roland Gongarad,Switzerland,37,M-O,103.3,230,210,290,730,M,SBD
Raw,1,110,Alexander Elezi,Italy,15,M-T1,108.4,160,112.5,200,472.5,M,SBD
Raw,1,125,Mario Mifsud,Malta,28,M-O,121.3,260,177.5,330,767.5,M,SBD
Raw,2,125,Albertto Taddia,Italy,39,M-O,110.6,200,170,245,615,M,SBD
Raw,1,125,Tomas Cuddihy,Ireland,41,M-M1,111.2,205,155,240,600,M,SBD
Raw,1,125,Giulio Cattivera,Italy,23,M-JR,113.1,155,132.5,212.5,500,M,SBD
Raw,1,125,Salvatore Panico,Italy,51,M-M3,113.9,80,75,120,275,M,SBD
Single-ply,1,67.5,Antonio Colella,Italy,65,M-M6,64.4,145,85,180,410,M,SBD
Single-ply,1,67.5,Paolo Petrongari,Italy,46,M-M2,63.7,130,87.5,160,377.5,M,SBD
Single-ply,1,75,Simone Caterino,Italy,22,M-JR,71.6,185,140,195,520,M,SBD
Single-ply,1,82.5,Francesco Morese,Italy,50,M-M3,81.9,240,140,260,640,M,SBD
Single-ply,1,90,Cyrille Vaillant,France,39,M-O,89.2,265,192.5,280,737.5,M,SBD
Single-ply,2,90,Kristian Mintoff,Malta,33,M-O,88.3,260,150,275,685,M,SBD
Single-ply,1,90,Giovanni Colella,Italy,47,M-M2,88.1,245,167.5,230,642.5,M,SBD
Single-ply,DQ,90,Nicola Delle Cave,Italy,27,M-O,87,,,,,M,SBD
Single-ply,1,110,Alexey Kashirin,Russia,38,M-O,104.2,320,247.5,290,857.5,M,SBD
Single-ply,1,125,Francesco Natalizi,Italy,32,M-O,120.1,260,100,220,580,M,SBD
