Equipment,Tested,Place,Name,Division,BirthYear,Country,BodyweightKg,Squat1Kg,Squat2Kg,Squat3Kg,Best3SquatKg,Bench1Kg,Bench2Kg,Bench3Kg,Best3BenchKg,Deadlift1Kg,Deadlift2Kg,Deadlift3Kg,Best3DeadliftKg,TotalKg,WeightClassKg,Sex,CyrillicName,Event
Raw,Yes,1,Vitaliy Tereschenko #2,Youth,2007,Ukraine,50.72,-45,-50,55,55,35,37.5,40,40,80,85,90,90,185,52,M,Віталій Терещенко,SBD
Raw,Yes,2,Konstyantin Datsenyuk,Youth,2009,Ukraine,44.24,35,40,45,45,25,27.5,-30,27.5,60,70,-72.5,70,142.5,52,M,Констянтин Даценюк,SBD
Raw,Yes,DQ,Volodimir Tsiganok,Youth,2007,Ukraine,41.94,-35,-35,-35,,,,,,,,,,,52,M,Володимир Циганок,SBD
Raw,Yes,1,Sergiy Kurinniy,Teen,2003,Ukraine,54.45,95,100,105,105,65,-70,-70,65,130,135,140,140,310,56,M,Сергій Курінний,SBD
Raw,Yes,1,Artem Tereschenko,Youth,2007,Ukraine,54.62,45,50,-57.5,50,35,40,-45,40,75,77.5,82.5,82.5,172.5,56,M,Артем Терещенко,SBD
Raw,Yes,2,Daniїl Kharchenko,Youth,2007,Ukraine,52.55,45,50,-52.5,50,35,-40,-40,35,75,-80,80,80,165,56,M,Даніїл Харченко,SBD
Raw,Yes,1,Ivan Bugay,Juniors 20-23,1996,Ukraine,58.74,165,175,-180,175,100,105,107.5,107.5,180,195,-205,195,477.5,60,M,Іван Бугай,SBD
Raw,Yes,1,Pavlo Pidobid,Teen,2000,Ukraine,74.15,165,172.5,175,175,100,105,-107.5,105,185,200,207.5,207.5,487.5,75,M,Павло Підобід,SBD
Raw,Yes,2,Mikhaylo Kozachko,Teen,2002,Ukraine,70.9,160,170,180,180,100,105,110,110,150,160,-165,160,450,75,M,Михайло Козачко,SBD
Raw,Yes,3,Roman Bardis,Teen,2000,Ukraine,73.35,145,155,-165,155,90,95,100,100,170,180,190,190,445,75,M,Роман Бардис,SBD
Raw,Yes,DQ,Ruslan Ivanchik,Juniors 20-23,1999,Ukraine,74.25,-195,-195,-195,,,,,,,,,,,75,M,Руслан Іванчик,SBD
Raw,Yes,1,Valentin Gontar,Open,1987,Ukraine,73.9,240,-260,-260,240,140,145,147.5,147.5,250,260,-267.5,260,647.5,75,M,Валентин Гонтар,SBD
Raw,Yes,2,Ruslan Abbasov,Open,1992,Ukraine,75,-160,170,180,180,107.5,112.5,-115,112.5,215,225,230,230,522.5,75,M,Руслан Аббасов,SBD
Raw,Yes,DQ,Kostyantin Akhremenko,Open,1995,Ukraine,71.75,-160,-170,-170,,,,,,,,,,,75,M,Костянтин Ахременко,SBD
Raw,Yes,1,Oleksandr Lukyanenko #1,Teen,2001,Ukraine,76.85,175,185,-195,185,85,90,-92.5,90,190,200,207.5,207.5,482.5,82.5,M,Олександр Лукяненко,SBD
Raw,Yes,1,Danilo Mayorenko,Juniors 20-23,1999,Ukraine,79.1,175,185,-190,185,105,115,-122.5,115,185,200,-210,200,500,82.5,M,Данило Майоренко,SBD
Raw,Yes,2,Evgeniy Bezugliy,Juniors 20-23,1997,Ukraine,80.85,155,160,170,170,95,100,-105,100,135,145,-160,145,415,82.5,M,Євгеній Безуглий,SBD
Raw,Yes,1,Stanislav Sapon,Open,1990,Ukraine,79.9,175,185,195,195,160,165,-167.5,165,200,212.5,222.5,222.5,582.5,82.5,M,Станіслав Сапон,SBD
Raw,Yes,2,Volodimir Voronov,Open,1983,Ukraine,80.9,190,200,-210,200,145,152.5,-155,152.5,210,220,230,230,582.5,82.5,M,Володимир Воронов,SBD
Raw,Yes,3,Yaroslav Malyuga,Open,1995,Ukraine,80.75,190,200,210,210,110,120,-130,120,200,220,230,230,560,82.5,M,Ярослав Малюга,SBD
Raw,Yes,4,Oleksandr Pilipenko,Open,1994,Ukraine,80.9,160,175,182.5,182.5,110,-120,-120,110,160,175,185,185,477.5,82.5,M,Олександр Пилипенко,SBD
Raw,Yes,1,Volodimir Galiga,Juniors 20-23,1997,Ukraine,86,195,205,215,215,120,130,135,135,230,245,-260,245,595,90,M,Володимир Галига,SBD
Raw,Yes,2,Aleksandr Sizonenko,Juniors 20-23,1997,Ukraine,88.3,185,205,-225,205,135,145,155,155,195,215,230,230,590,90,M,Александр Сизоненко,SBD
Raw,Yes,1,Volodimir Ryazanov,Open,1993,Ukraine,87.65,190,-205,205,205,160,167.5,172.5,172.5,210,222.5,235,235,612.5,90,M,Володимир Рязанов,SBD
Raw,Yes,2,Viacheslav Soroka,Open,1990,Ukraine,84.6,-145,150,155,155,95,100,-105,100,140,152.5,157.5,157.5,412.5,90,M,В'ячеслав Сорока,SBD
Raw,Yes,1,Oleksandr Oliynik,Open,1983,Ukraine,98.75,220,240,,240,135,145,150,150,220,235,-255,235,625,100,M,Олександр Олійник,SBD
Raw,Yes,2,Volodimir Plyuta,Open,1992,Ukraine,92.55,225,-240,240,240,130,140,-145,140,225,240,-250,240,620,100,M,Володимир Плюта,SBD
Raw,Yes,1,Sergiy Pashko,Masters,1973,Ukraine,97.4,190,200,210,210,130,137.5,140,140,200,210,220,220,570,100,M,Сергій Пашко,SBD
Raw,Yes,DQ,Sergiy Danilenko,Masters,1977,Ukraine,99.25,-150,-160,-160,,,,,,,,,,,100,M,Сергій Даниленко,SBD
Raw,Yes,DQ,Oleksandr Artemyuk,Juniors 20-23,,Ukraine,103.8,180,-190,-200,180,-120,-120,-120,,,,,,,110,M,Олександр Артемюк,SBD
Raw,Yes,1,Sergiy Punda,Masters,1974,Ukraine,111.7,180,200,210,210,-130,140,150,150,-190,200,220,220,580,125,M,Сергій Пунда,SBD
Raw,Yes,1,Tetyana Scherbanyuk,Juniors 20-23,1996,Ukraine,52.48,35,40,45,45,20,25,-27.5,25,35,40,42.5,42.5,112.5,56,F,Тетяна Щербанюк,SBD
Raw,Yes,1,Tora Goldman,Open,1991,Ukraine,50.4,100,110,112.5,112.5,55,57.5,60,60,100,110,112.5,112.5,285,56,F,Тора Гольдман,SBD
Raw,Yes,1,Svitlana Kravchenko,Masters,1971,Ukraine,55.58,100,105,107.5,107.5,45,47.5,50,50,105,120,-127.5,120,277.5,56,F,Світлана Кравченко,SBD
Raw,Yes,1,Anastasiya Alekseenko,Juniors 20-23,1999,Ukraine,57.5,75,80,-85,80,50,57.5,-62.5,57.5,75,80,87.5,87.5,225,56+,F,Анастасія Алєксєєнко,SBD
Raw,Yes,2,Kameliya Pokrovska,Juniors 20-23,1998,Ukraine,85.5,-105,105,-110,105,55,-62.5,-62.5,55,-115,115,120,120,280,56+,F,Камелія Покровська,SBD
Raw,Yes,1,Marina Matvienko,Open,1989,Ukraine,59.1,115,120,-125,120,75,-77.5,-77.5,75,150,155,-160,155,350,56+,F,Марина Матвієнко,SBD
Raw,Yes,2,Katerina Filipova,Open,1984,Ukraine,64.9,110,120,125,125,57.5,62.5,65,65,110,125,130,130,320,56+,F,Катерина Філіпова,SBD
Raw,Yes,3,Olena Kirilova,Open,1984,Ukraine,65.2,-75,75,-85,75,40,45,-47.5,45,80,90,-100,90,210,56+,F,Олена Кирилова,SBD
Raw,Yes,1,Nataliya Kolyada,Masters,1976,Ukraine,60.9,85,-95,-100,85,50,-52.5,52.5,52.5,105,115,-120,115,252.5,56+,F,Наталія Коляда,SBD
Raw,No,1,Mathur Rohit,Juniors 20-23,1997,India,62.5,120,130,-132.5,130,85,95,-100,95,-120,120,-130,120,345,67.5,M,,SBD
Raw,No,1,Mikhaylo Zhelyazkov,Open,1980,Ukraine,98,-270,270,-290,270,170,175,180,180,280,300,-335,300,750,100,M,Михайло Желязков,SBD
Raw,No,2,Artem Skaletskiy,Open,1989,Ukraine,98.55,260,275,-285,275,160,170,-175,170,275,-285,292.5,292.5,737.5,100,M,Артем Скалецький,SBD
Raw,No,3,Oleksandr Skachkov,Open,1995,Ukraine,98,235,245,-255,245,152.5,160,-165,160,255,270,282.5,282.5,687.5,100,M,Олександр Скачков,SBD
Raw,No,4,Yuriy Kostenko,Open,1971,Ukraine,96.1,240,255,-265,255,160,-167.5,-167.5,160,255,270,-282.5,270,685,100,M,Юрій Костенко,SBD
Raw,No,5,Oleg Lungu,Open,1972,Ukraine,95.6,235,245,250,250,115,120,125,125,220,232.5,-242.5,232.5,607.5,100,M,Олег Лунгу,SBD
Raw,No,DQ,Kostyantyn Shatalin,Open,1991,Ukraine,97.45,-230,-230,,,,,,,,,,,,100,M,Костянтин Шаталін,SBD
Raw,No,1,Yuriy Kostenko,Masters,1971,Ukraine,96.1,240,255,-265,255,160,-167.5,-167.5,160,255,270,-282.5,270,685,100,M,Юрій Костенко,SBD
Raw,No,2,Oleg Lungu,Masters,1972,Ukraine,95.6,235,245,250,250,115,120,125,125,220,232.5,-242.5,232.5,607.5,100,M,Олег Лунгу,SBD
Raw,No,1,Maksim Samoylenko,Juniors 20-23,1998,Ukraine,106.8,295,310,-320,310,180,190,-195,190,290,310,325,325,825,110,M,Максим Самойленко,SBD
Raw,No,1,Maksim Samoylenko,Open,1998,Ukraine,106.8,295,310,-320,310,180,190,-195,190,290,310,325,325,825,110,M,Максим Самойленко,SBD
Wraps,Yes,DQ,Oleksandr Akhtirskiy,Open,1992,Ukraine,74.2,-170,-180,-180,,,,,,,,,,,75,M,Олександр Ахтирський,SBD
Wraps,Yes,1,Oleksiy Babich,Juniors 20-23,1996,Ukraine,81.85,-100,100,110,110,-80,82.5,90,90,115,130,135,135,335,82.5,M,Олексій Бабіч,SBD
Wraps,Yes,1,Andriy Verbenets,Open,1993,Ukraine,79.4,-165,165,170,170,137.5,145,-147.5,145,165,170,177.5,177.5,492.5,82.5,M,Андрій Вербенець,SBD
Wraps,Yes,1,Sergiy Kravchenko,Open,1970,Ukraine,85,155,165,175,175,-95,95,-105,95,140,160,170,170,440,90,M,Сергій Кравченко,SBD
Wraps,Yes,DQ,Viktor Kurachik,Open,1995,Ukraine,89.8,-190,-190,,,,,,,,,,,,90,M,Віктор Курачик,SBD
Wraps,Yes,1,Viktoriya Pomazun,Teen,2002,Ukraine,52.56,50,55,57.5,57.5,-40,40,-42.5,40,90,100,105,105,202.5,56,F,Вікторія Помазун,SBD
Wraps,Yes,DQ,Ivanna Onisko,Juniors 20-23,1997,Ukraine,46.68,-82.5,-82.5,-82.5,,,,,,,,,,,56,F,Іванна Онисько,SBD
Wraps,Yes,1,Anastasiya Prokopenko,Juniors 20-23,1996,Ukraine,58,75,82.5,-87.5,82.5,50,-55,-55,50,90,95,-100,95,227.5,56+,F,Анастасія Прокопенко,SBD
Wraps,Yes,2,Nataliya Salogor,Juniors 20-23,1999,Ukraine,66.5,85,90,95,95,-50,52.5,-57.5,52.5,85,92.5,100,100,247.5,56+,F,Наталія Салогор,SBD
Wraps,Yes,1,Irina Bugrova,Open,1981,Ukraine,59,80,-87.5,90,90,47.5,50,52.5,52.5,107.5,-112.5,-112.5,107.5,250,56+,F,Ірина Бугрова,SBD
Wraps,No,1,Eduard Kachur,Open,1992,Ukraine,100.85,-210,210,225,225,155,170,-175,170,240,260,-265,260,655,110,M,Едуард Качур,SBD
Raw,Yes,1,Oleksandr Shevchenko #5,Teen,2005,Ukraine,43.5,,,,,25,-27.5,-30,25,60,65,67.5,67.5,92.5,52,M,Олександр Шевченко,BD
Raw,Yes,2,Vadim Litvin,Teen,2004,Ukraine,45.3,,,,,25,27.5,30,30,55,60,65,65,95,52,M,Вадим Литвин,BD
Raw,Yes,1,Oleksiy Kharchenko,Youth,2010,Ukraine,37.04,,,,,20,-25,25,25,60,65,67.5,67.5,92.5,52,M,Олексій Харченко,BD
Raw,Yes,2,Timofiy Kharchenko,Youth,2012,Ukraine,36.9,,,,,-20,20,-22.5,20,50,55,60,60,80,52,M,Тимофій Харченко,BD
Raw,Yes,3,Daniil Drozdov,Youth,2010,Ukraine,44.56,,,,,20,-25,25,25,55,60,65,65,90,52,M,Данііл Дроздов,BD
Raw,Yes,1,Taras Sheremet,Teen,2005,Ukraine,55.9,,,,,40,45,-50,45,80,90,-92.5,90,135,56,M,Тарас Шеремет,BD
Raw,Yes,1,Oleksandr Plyuta,Teen,2006,Ukraine,63.7,,,,,50,55,-60,55,110,115,117.5,117.5,172.5,67.5,M,Олександр Плюта,BD
Raw,Yes,1,Oleksandr Matvienko,Teen,2004,Ukraine,67.9,,,,,55,60,-62.5,60,-110,110,115,115,175,75,M,Олександр Матвієнко,BD
Raw,Yes,1,Valentin Gontar,Open,1987,Ukraine,73.9,,,,,140,145,147.5,147.5,250,260,-267.5,260,407.5,75,M,Валентин Гонтар,BD
Raw,Yes,2,Ruslan Abbasov,Open,1992,Ukraine,75,,,,,107.5,112.5,-115,112.5,215,225,230,230,342.5,75,M,Руслан Аббасов,BD
Raw,Yes,3,Oleksandr Akhtirskiy,Open,1992,Ukraine,74.2,,,,,125,-130,-130,125,170,185,-195,185,310,75,M,Олександр Ахтирський,BD
Raw,Yes,1,Oleksandr Gorban,Teen,2000,Ukraine,79.55,,,,,110,120,-130,120,-210,210,-220,210,330,82.5,M,Олександр Горбань,BD
Raw,Yes,1,Oleksandr Pilipenko,Open,1994,Ukraine,80.9,,,,,110,-120,-120,110,160,175,185,185,295,82.5,M,Олександр Пилипенко,BD
Raw,Yes,1,Taras Kolyada,Masters,1976,Ukraine,81.5,,,,,117.5,122.5,-127.5,122.5,155,160,170,170,292.5,82.5,M,Тарас Коляда,BD
Raw,Yes,1,Oleksandr Aldoshin,Juniors 20-23,1998,Ukraine,88.7,,,,,115,120,125,125,180,192.5,205,205,330,90,M,Олександр Алдошин,BD
Raw,Yes,1,Volodimir Plyuta,Open,1992,Ukraine,92.55,,,,,130,140,-145,140,225,240,-250,240,380,100,M,Володимир Плюта,BD
Raw,Yes,2,Dmitro Beresten,Open,1987,Ukraine,97.75,,,,,140,142.5,-145,142.5,-200,200,-210,200,342.5,100,M,Дмитро Берестень,BD
Raw,Yes,DQ,Sergiy Danilenko,Masters,1977,Ukraine,99.25,,,,,-145,-145,-145,,,,,,,100,M,Сергій Даниленко,BD
Raw,Yes,1,Roman Radchuk,Open,1989,Ukraine,111.2,,,,,150,160,-162.5,160,220,240,,240,400,125,M,Роман Радчук,BD
Raw,Yes,1,Marina Matvienko,Open,1989,Ukraine,59.1,,,,,75,-77.5,-77.5,75,150,155,-160,155,230,56+,F,Марина Матвієнко,BD
Raw,Yes,2,Katerina Filipova,Open,1984,Ukraine,64.9,,,,,57.5,62.5,65,65,110,125,130,130,195,56+,F,Катерина Філіпова,BD
Raw,Yes,3,Tetyana Kochetkova,Open,1986,Ukraine,61,,,,,47.5,-52.5,-52.5,47.5,-110,110,-120,110,157.5,56+,F,Тетяна Кочеткова,BD
Raw,Yes,1,Inga Chaykovska,Masters,1964,Ukraine,60.65,,,,,30,35,-37.5,35,60,70,80,80,115,56+,F,Інга Чайковська,BD
Raw,No,1,Oleg Lungu,Open,1972,Ukraine,95.6,235,245,250,250,,,,,,,,,250,100,M,Олег Лунгу,S
Raw,No,1,Oleg Lungu,Masters,1972,Ukraine,95.6,235,245,250,250,,,,,,,,,250,100,M,Олег Лунгу,S
Raw,Yes,1,Evgeniy Kurinniy,Youth,2008,Ukraine,34.86,,,,,25,30,32.5,32.5,,,,,32.5,52,M,Євгеній Курінний,B
Raw,Yes,2,Daniil Matvienko,Youth,2007,Ukraine,39.2,,,,,30,35,-37.5,35,,,,,35,52,M,Данііл Матвієнко,B
Raw,Yes,1,Andriy Karpenko,Teen,2000,Ukraine,55.76,,,,,80,85,-90,85,,,,,85,56,M,Андрій Карпенко,B
Raw,Yes,1,Maksim Mischuk,Juniors 20-23,1998,Ukraine,62.85,,,,,105,110,115,115,,,,,115,67.5,M,Максим Міщук,B
Raw,Yes,1,Volodimir Dolinovskiy,Open,1988,Ukraine,62.9,,,,,105,107.5,-110,107.5,,,,,107.5,67.5,M,Володимир Доліновський,B
Raw,Yes,2,Maksim Parfemchuk,Open,1984,Ukraine,65.6,,,,,-90,90,-92.5,90,,,,,90,67.5,M,Максим Парфемчук,B
Raw,Yes,1,Gleb Zhikharev,Teen,2004,Ukraine,70.7,,,,,100,-105,105,105,,,,,105,75,M,Глеб Жихарев,B
Raw,Yes,1,Oleg Kurinniy,Juniors 20-23,1997,Ukraine,72.7,,,,,-117.5,-117.5,117.5,117.5,,,,,117.5,75,M,Олег Курінний,B
Raw,Yes,1,Yakiv Goldenberg,Open,1964,Ukraine,75,,,,,145,150,155,155,,,,,155,75,M,Яків Гольденберг,B
Raw,Yes,2,Dmitro Brusin,Open,1993,Ukraine,73.7,,,,,140,142.5,145,145,,,,,145,75,M,Дмитро Брусін,B
Raw,Yes,3,Artur Brusin,Open,1993,Ukraine,74,,,,,142.5,145,-147.5,145,,,,,145,75,M,Артур Брусін,B
Raw,Yes,4,Oleksandr Slipchenko,Open,1985,Ukraine,73.2,,,,,130,-135,-135,130,,,,,130,75,M,Олександр Сліпченко,B
Raw,Yes,5,Yuriy Kotelko,Open,1985,Ukraine,74.7,,,,,110,-120,127.5,127.5,,,,,127.5,75,M,Юрій Котелко,B
Raw,Yes,6,Oleksandr Akhtirskiy,Open,1992,Ukraine,74.2,,,,,125,-130,-130,125,,,,,125,75,M,Олександр Ахтирський,B
Raw,Yes,DQ,Artur Zarudniy,Open,1992,Ukraine,72.25,,,,,-125,-125,-125,,,,,,,75,M,Артур Зарудній,B
Raw,Yes,1,Yakiv Goldenberg,Masters,1964,Ukraine,75,,,,,145,150,155,155,,,,,155,75,M,Яків Гольденберг,B
Raw,Yes,2,Evgeniy Rudenko,Masters,1978,Ukraine,74.65,,,,,125,-127.5,-127.5,125,,,,,125,75,M,Евгений Руденко,B
Raw,Yes,1,Artem Martinchuk,Teen,2001,Ukraine,80.9,,,,,135,145,150,150,,,,,150,82.5,M,Артем Мартинчук,B
Raw,Yes,2,Mikola Volodko,Teen,2006,Ukraine,75.38,,,,,80,85,90,90,,,,,90,82.5,M,Микола Володько,B
Raw,Yes,1,Evgeniy Boloban,Juniors 20-23,1996,Ukraine,80,,,,,180,195,,195,,,,,195,82.5,M,Євгеній Болобан,B
Raw,Yes,1,Volodimir Getman,Open,1995,Ukraine,80.9,,,,,155,160,167.5,167.5,,,,,167.5,82.5,M,Володимир Гетьман,B
Raw,Yes,2,Stanislav Sapon,Open,1990,Ukraine,79.9,,,,,160,165,-167.5,165,,,,,165,82.5,M,Станіслав Сапон,B
Raw,Yes,3,Andriy Verbenets,Open,1993,Ukraine,79.4,,,,,137.5,145,-147.5,145,,,,,145,82.5,M,Андрій Вербенець,B
Raw,Yes,4,Petro Bomikhov,Open,1989,Ukraine,80.85,,,,,120,127.5,-130,127.5,,,,,127.5,82.5,M,Петро Боміхов,B
Raw,Yes,5,Oleksandr Pilipenko,Open,1994,Ukraine,80.9,,,,,110,-120,-120,110,,,,,110,82.5,M,Олександр Пилипенко,B
Raw,Yes,6,Timur Dovzhenko,Open,1989,Ukraine,81.5,,,,,-110,-110,110,110,,,,,110,82.5,M,Тимур Довженко,B
Raw,Yes,DQ,Illya Melnik-Golovatyuk,Open,1995,Ukraine,81.3,,,,,-125,-130,-130,,,,,,,82.5,M,Ілля Мельник-Головатюк,B
Raw,Yes,1,Kostyantin Kostyuk,Juniors 20-23,1996,Ukraine,88.65,,,,,145,150,152.5,152.5,,,,,152.5,90,M,Костянтин Костюк,B
Raw,Yes,2,Roman Lukin,Juniors 20-23,1999,Ukraine,88.1,,,,,132.5,-152.5,-152.5,132.5,,,,,132.5,90,M,Роман Лукін,B
Raw,Yes,DQ,Viktor Veselkov,Juniors 20-23,1995,Ukraine,88.35,,,,,-152.5,-152.5,-152.5,,,,,,,90,M,Віктор Веселков,B
Raw,Yes,1,Oleksandr Borisevich,Open,1993,Ukraine,88,,,,,160,165,-170,165,,,,,165,90,M,Олександр Борисевич,B
Raw,Yes,2,Ogli Gadzhiev Vyugar Rovshan,Open,1985,Ukraine,86.1,,,,,147.5,155,157.5,157.5,,,,,157.5,90,M,Огли Гаджієв Вюгар Ровшан,B
Raw,Yes,3,Evgeniy Gorbatiy,Open,1993,Ukraine,89.9,,,,,152.5,155,-157.5,155,,,,,155,90,M,Євгеній Горбатий,B
Raw,Yes,4,Roman Aleksandrov,Open,1993,Ukraine,88.1,,,,,-152.5,152.5,-155,152.5,,,,,152.5,90,M,Роман Александров,B
Raw,Yes,5,Sergiy Ulyanenko,Open,1995,Ukraine,84.7,,,,,115,120,125,125,,,,,125,90,M,Сергій Ульяненко,B
Raw,Yes,6,Oleksandr Ponomarenko,Open,1994,Ukraine,83,,,,,115,120,-122.5,120,,,,,120,90,M,Олександр Пономаренко,B
Raw,Yes,7,Andriy Vinogradov,Open,1986,Ukraine,88.65,,,,,120,-125,-125,120,,,,,120,90,M,Андрій Виноградов,B
Raw,Yes,1,Oleksiy Shaboltas,Masters,1976,Ukraine,86.1,,,,,110,-120,-125,110,,,,,110,90,M,Олексій Шаболтас,B
Raw,Yes,1,Pavlo Sirchin,Juniors 20-23,1996,Ukraine,91.35,,,,,135,145,-152.5,145,,,,,145,100,M,Павло Сирчін,B
Raw,Yes,1,Yaroslav Kuziv,Open,1991,Ukraine,96.4,,,,,180,185,192.5,192.5,,,,,192.5,100,M,Ярослав Кузів,B
Raw,Yes,2,Sergiy Shepel,Open,1983,Ukraine,97.7,,,,,175,185,192.5,192.5,,,,,192.5,100,M,Сергій Шепель,B
Raw,Yes,3,Dmitro Pronevich,Open,1975,Ukraine,92.8,,,,,170,175,-177.5,175,,,,,175,100,M,Дмитро Проневич,B
Raw,Yes,4,Vitaliy Drozd,Open,1988,Ukraine,94,,,,,155,160,167.5,167.5,,,,,167.5,100,M,Віталій Дрозд,B
Raw,Yes,5,Aleksandr Soloshenko,Open,1986,Ukraine,97.8,,,,,150,155,162.5,162.5,,,,,162.5,100,M,Олександр Солошенко,B
Raw,Yes,6,Illya Korzh,Open,1995,Ukraine,98.1,,,,,155,-162.5,,155,,,,,155,100,M,Ілля Корж,B
Raw,Yes,7,Volodimir Plyuta,Open,1992,Ukraine,92.55,,,,,130,140,-145,140,,,,,140,100,M,Володимир Плюта,B
Raw,Yes,8,Maksim Bastun,Open,1986,Ukraine,96.6,,,,,130,140,-150,140,,,,,140,100,M,Максим Бастун,B
Raw,Yes,DQ,Sergiy Bilik,Open,1985,Ukraine,95.55,,,,,-145,-150,-152.5,,,,,,,100,M,Сергій Білик,B
Raw,Yes,1,Dmitro Pronevich,Masters,1975,Ukraine,92.8,,,,,170,175,-177.5,175,,,,,175,100,M,Дмитро Проневич,B
Raw,Yes,DQ,Sergiy Danilenko,Masters,1977,Ukraine,99.25,,,,,-145,-145,-145,,,,,,,100,M,Сергій Даниленко,B
Raw,Yes,1,Oleksandr Zozulya,Juniors 20-23,1995,Ukraine,102.5,,,,,130,135,140,140,,,,,140,110,M,Олександр Зозуля,B
Raw,Yes,1,Sergiy Gorbatenko,Open,1990,Ukraine,106.9,,,,,140,147.5,152.5,152.5,,,,,152.5,110,M,Сергій Горбатенко,B
Raw,Yes,1,Anatoliy Gavrish,Masters,1973,Ukraine,114.2,,,,,135,140,145,145,,,,,145,125,M,Анатолій Гавриш,B
Raw,Yes,1,Renata Ignatova,Teen,2004,Ukraine,67.4,,,,,52.5,57.5,-60,57.5,,,,,57.5,56+,F,Рената Ігнатова,B
Raw,Yes,1,Anastasiya Prokopenko,Juniors 20-23,1996,Ukraine,58,,,,,47.5,52.5,-55,52.5,,,,,52.5,56+,F,Анастасія Прокопенко,B
Raw,Yes,1,Marina Matvienko,Open,1989,Ukraine,59.1,,,,,75,-77.5,-77.5,75,,,,,75,56+,F,Марина Матвієнко,B
Raw,Yes,2,Katerina Filipova,Open,1984,Ukraine,64.9,,,,,57.5,62.5,65,65,,,,,65,56+,F,Катерина Філіпова,B
Raw,Yes,1,Margarita Didenko,Open,1993,Ukraine,52.64,,,,,50,52.5,-55,52.5,,,,,52.5,56,F,Маргарита Діденко,B
Raw,No,1,Vitaliy Samborskiy,Open,1991,Ukraine,80.35,,,,,-157.5,157.5,-165,157.5,,,,,157.5,82.5,M,Виталий Самборский,B
Raw,No,1,Dmitriy Shigimaga,Juniors 20-23,1999,Ukraine,89.9,,,,,180,190,,190,,,,,190,90,M,Дмитрий Шигимага,B
Raw,No,1,Dmitriy Shigimaga,Open,1999,Ukraine,89.9,,,,,180,190,,190,,,,,190,90,M,Дмитрий Шигимага,B
Raw,No,2,Yuriy Gladkovskiy,Open,1983,Ukraine,83.6,,,,,-155,155,-165,155,,,,,155,90,M,Юрій Гладковський,B
Raw,No,1,Maksim Elskiy,Open,1985,Ukraine,97.95,,,,,190,205,217.5,217.5,,,,,217.5,100,M,Максим Єльський,B
Raw,No,2,Roman Doroshenko,Open,1992,Ukraine,97.3,,,,,187.5,-195,,187.5,,,,,187.5,100,M,Роман Дорошенко,B
Raw,No,1,Volodymyr Kosobrodov,Masters,1978,Ukraine,98.6,,,,,-175,175,180,180,,,,,180,100,M,Володимир Кособродов,B
Raw,No,1,Eduard Kachur,Open,1992,Ukraine,100.85,,,,,155,170,-175,170,,,,,170,110,M,Едуард Качур,B
Raw,No,1,Artem Ushenko,Open,1992,Ukraine,160,,,,,210,225,245,245,,,,,245,110+,M,Артем Ушенко,B
Raw,No,2,Pavlo Breslavskiy,Open,1991,Ukraine,114.4,,,,,175,-187.5,187.5,187.5,,,,,187.5,110+,M,Павло Бреславський,B
Unlimited,Yes,1,Katerina Filipova,Open,1984,Ukraine,64.9,,,,,80,87.5,-90,87.5,,,,,87.5,67.5,F,Катерина Філіпова,B
Raw,Yes,1,Evgeniy Kurinniy,Youth,2008,Ukraine,34.86,,,,,,,,,80,85,87.5,87.5,87.5,52,M,Євгеній Курінний,D
Raw,Yes,2,Daniil Matvienko,Youth,2007,Ukraine,39.2,,,,,,,,,77.5,82.5,-87.5,82.5,82.5,52,M,Данііл Матвієнко,D
Raw,Yes,3,Illya Kolesniy,Youth,2007,Ukraine,44.44,,,,,,,,,75,82.5,87.5,87.5,87.5,52,M,Ілля Колесний,D
Raw,Yes,1,Dmitro Repetukha,Teen,2006,Ukraine,47.85,,,,,,,,,95,100,105,105,105,60,M,Дмитро Репетуха,D
Raw,Yes,1,Oleksandr Onischenko #2,Juniors 20-23,1996,Ukraine,63.5,,,,,,,,,145,155,-165,155,155,67.5,M,Олександр Оніщенко,D
Raw,Yes,1,Grigoriy Omelyanenko,Open,1994,Ukraine,65.5,,,,,,,,,170,185,-200,185,185,67.5,M,Григорій Омельяненко,D
Raw,Yes,2,Evgeniy Kamenev #1,Open,1992,Ukraine,62.5,,,,,,,,,160,170,-180,170,170,67.5,M,Євгеній Каменев,D
Raw,Yes,1,Pavlo Pidobid,Teen,2000,Ukraine,74.15,,,,,,,,,185,200,207.5,207.5,207.5,75,M,Павло Підобід,D
Raw,Yes,2,Valentin Bobrovitskiy,Teen,2002,Ukraine,68.15,,,,,,,,,140,147.5,152.5,152.5,152.5,75,M,Валентин Бобровіцький,D
Raw,Yes,1,Oleg Zhuchkov,Open,1994,Ukraine,73.1,,,,,,,,,252.5,260,,260,260,75,M,Олег Жучков,D
Raw,Yes,2,Valentin Gontar,Open,1987,Ukraine,73.9,,,,,,,,,250,260,-267.5,260,260,75,M,Валентин Гонтар,D
Raw,Yes,3,Ruslan Abbasov,Open,1992,Ukraine,75,,,,,,,,,215,225,230,230,230,75,M,Руслан Аббасов,D
Raw,Yes,4,Oleksiy Voronkin,Open,1985,Ukraine,73.9,,,,,,,,,197.5,207.5,212.5,212.5,212.5,75,M,Олексій Воронкін,D
Raw,Yes,5,Eduard Karaush,Open,1993,Ukraine,72.35,,,,,,,,,192.5,-202.5,202.5,202.5,202.5,75,M,Едуард Карауш,D
Raw,Yes,6,Igor Falkivskiy,Open,1988,Ukraine,70.1,,,,,,,,,160,-175,175,175,175,75,M,Ігор Фальківський,D
Raw,Yes,1,Illya Chaban,Teen,1999,Ukraine,80.55,,,,,,,,,180,190,-200,190,190,82.5,M,Ілля Чабан,D
Raw,Yes,2,Andriy Chernakov,Teen,2000,Ukraine,79.9,,,,,,,,,165,175,-177.5,175,175,82.5,M,Андрій Чернаков,D
Raw,Yes,1,Mikhaylo Voloshin,Juniors 20-23,1997,Ukraine,78.7,,,,,,,,,190,200,205,205,205,82.5,M,Михайло Волошин,D
Raw,Yes,1,Yuriy Kovalenko,Open,1994,Ukraine,78.55,,,,,,,,,180,195,205,205,205,82.5,M,Юрій Коваленко,D
Raw,Yes,2,Oleksandr Pilipenko,Open,1994,Ukraine,80.9,,,,,,,,,160,175,185,185,185,82.5,M,Олександр Пилипенко,D
Raw,Yes,1,Dmitro Dovbush,Open,1988,Ukraine,88.7,,,,,,,,,215,232.5,240,240,240,90,M,Дмитро Довбиш,D
Raw,Yes,2,Sergiy Timchenko,Open,1989,Ukraine,88.8,,,,,,,,,210,220,-230,220,220,90,M,Сергій Тимченко,D
Raw,Yes,1,Volodimir Plyuta,Open,1992,Ukraine,92.55,,,,,,,,,225,240,-250,240,240,100,M,Володимир Плюта,D
Raw,Yes,1,Sergiy Danilenko,Masters,1977,Ukraine,99.25,,,,,,,,,210,,,210,210,100,M,Сергій Даниленко,D
Raw,Yes,1,Mikolay Andrienko,Teen,2002,Ukraine,105.4,,,,,,,,,-185,195,205,205,205,110,M,Миколай Андрієнко,D
Raw,Yes,1,Anatoliy Koval #2,Juniors 20-23,1996,Ukraine,108.75,,,,,,,,,235,250,-255,250,250,110,M,Анатолій Коваль,D
Raw,Yes,1,Anatoliy Koval #2,Open,1996,Ukraine,108.75,,,,,,,,,235,250,-255,250,250,110,M,Анатолій Коваль,D
Raw,Yes,1,Kameliya Pokrovska,Juniors 20-23,1998,Ukraine,85.5,,,,,,,,,-115,115,120,120,120,56+,F,Камелія Покровська,D
Raw,Yes,1,Marina Matvienko,Open,1989,Ukraine,59.1,,,,,,,,,150,155,-160,155,155,56+,F,Марина Матвієнко,D
Raw,Yes,2,Katerina Filipova,Open,1984,Ukraine,64.9,,,,,,,,,110,125,130,130,130,56+,F,Катерина Філіпова,D
Raw,Yes,3,Tetyana Kochetkova,Open,1986,Ukraine,61,,,,,,,,,-110,110,-120,110,110,56+,F,Тетяна Кочеткова,D
Raw,Yes,1,Yuliya Ponomarenko,Open,1987,Ukraine,47.1,,,,,,,,,90,95,100,100,100,56,F,Юлія Пономаренко,D
Raw,Yes,2,Marina Makarova,Open,1981,Ukraine,55.12,,,,,,,,,95,105,110,110,110,56,F,Марина Макарова,D
Raw,Yes,1,Nataliya Vakhniy,Masters,1979,Ukraine,52.8,,,,,,,,,-60,62.5,65,65,65,56,F,Наталія Вахній,D
Raw,No,1,Denis Bettyar,Masters,1979,Ukraine,89.7,,,,,,,,,250,270,-280,270,270,90,M,Денис Беттяр,D
Raw,No,1,Kostyantyn Shatalin,Open,1991,Ukraine,97.45,,,,,,,,,230,-245,245,245,245,100,M,Костянтин Шаталін,D
Raw,No,2,Oleg Lungu,Open,1972,Ukraine,95.6,,,,,,,,,220,232.5,-242.5,232.5,232.5,100,M,Олег Лунгу,D
Raw,No,1,Oleg Lungu,Masters,1972,Ukraine,95.6,,,,,,,,,220,232.5,-242.5,232.5,232.5,100,M,Олег Лунгу,D
Raw,No,1,Eduard Kachur,Open,1992,Ukraine,100.85,,,,,,,,,240,260,-265,260,260,110,M,Едуард Качур,D
