Equipment,Place,WeightClassKg,Name,Sex,Country,Age,Division,BodyweightKg,Squat1Kg,Squat2Kg,Squat3Kg,Squat4Kg,Best3SquatKg,Bench1Kg,Bench2Kg,Bench3Kg,Bench4Kg,Best3BenchKg,Deadlift1Kg,Deadlift2Kg,Deadlift3Kg,Deadlift4Kg,Best3DeadliftKg,TotalKg,Event
Raw,1,50.5,Maruska Bertoli,F,Italy,35,F-O,49.7,102.5,105,,,105,,,,,,,,,,,105,S
Raw,2,50.5,Sari Redican,F,Ireland,39,F-O,49,72.5,80,85,,85,,,,,,,,,,,85,S
Raw,3,50.5,Georgina Hodson,F,UK,27,F-O,49.1,70,75,82.5,,82.5,,,,,,,,,,,82.5,S
Raw,1,50.5,Jessica Preiss,F,Switzerland,21,F-JR,48.7,70,75,80,,80,,,,,,,,,,,80,S
Raw,1,50.5,Marzia Girardi,F,Italy,51,F-M3,49.2,65,75,-80,,75,,,,,,,,,,,75,S
Raw,1,53,Fabienne Richoz,F,Switzerland,50,F-M3,51.1,80,90,100,,100,,,,,,,,,,,100,S
Raw,1,53,Louise Bane,F,Ireland,21,F-JR,51.8,87.5,92.5,-95,,92.5,,,,,,,,,,,92.5,S
Raw,1,53,Tamara Mishenko,F,Russia,25,F-O,52.4,82.5,87.5,-90,,87.5,,,,,,,,,,,87.5,S
Raw,1,53,Nadejda Surujiu,F,Moldova,17,F-T2,51.3,52.5,55,57.5,,57.5,,,,,,,,,,,57.5,S
Raw,DD,55.5,Olga Savrickaja,F,Russia,34,F-O,54.2,90,100,102.5,,102.5,,,,,,,,,,,,S
Raw,1,55.5,Anna Wyss,F,Switzerland,37,F-O,55,95,100,-105,,100,,,,,,,,,,,100,S
Raw,1,55.5,Medb Murtagh,F,Ireland,21,F-JR,54.3,85,-90,-90,,85,,,,,,,,,,,85,S
Raw,2,55.5,Laura O'Riordan,F,Ireland,22,F-JR,53.6,70,75,-80,,75,,,,,,,,,,,75,S
Raw,1,58.5,Martina Higgings,F,Ireland,30,F-O,57.3,115,-125,-125,,115,,,,,,,,,,,115,S
Raw,1,58.5,Aimee O'Driscoll,F,Ireland,22,F-JR,56.5,100,105,110,,110,,,,,,,,,,,110,S
Raw,2,58.5,Deirdre Langford,F,Ireland,22,F-JR,57.5,82.5,-87.5,-87.5,,82.5,,,,,,,,,,,82.5,S
Raw,1,63,Mihaela Buia,F,Moldova,19,F-T3,61.9,90,95,-100,,95,,,,,,,,,,,95,S
Raw,1,63,Louise Quinlivan-Nolan,F,Ireland,35,F-O,60.3,82.5,-87.5,87.5,,87.5,,,,,,,,,,,87.5,S
Raw,1,63,Helen Kostadinos,F,Australia,70,F-M7,60.5,70,80,85,,85,,,,,,,,,,,85,S
Raw,1,70,Assumpta Feeney,F,Ireland,37,F-O,68.8,-115,115,117.5,,117.5,,,,,,,,,,,117.5,S
Raw,1,70,Teresa Loi,F,Italy,52,F-M3,65.1,100,110,115,,115,,,,,,,,,,,115,S
Raw,2,70,Clare Patterson,F,Ireland,29,F-O,68.2,100,107.5,-110,,107.5,,,,,,,,,,,107.5,S
Raw,3,70,Nicola Leavy,F,Ireland,25,F-O,68.8,90,100,-102.5,,100,,,,,,,,,,,100,S
Raw,4,70,Kseniia Liapunova,F,Russia,28,F-O,66.3,-90,90,-92.5,,90,,,,,,,,,,,90,S
Raw,1,90+,Ayshea Ullah,F,Ireland,37,F-O,95,130,140,-150,,140,,,,,,,,,,,140,S
Raw,1,67.5,Tim Van den Abbeele,M,Belgium,26,M-O,65.2,-150,155,165,,165,,,,,,,,,,,165,S
Raw,2,67.5,Kim Houbracken,M,Belgium,30,M-O,67.5,150,157.5,162.5,,162.5,,,,,,,,,,,162.5,S
Raw,3,67.5,Nathan Leach,M,UK,25,M-O,66.3,150,-160,-162.5,,150,,,,,,,,,,,150,S
Raw,1,67.5,Richard Burke,M,Ireland,19,M-T3,66.7,140,150,-155,,150,,,,,,,,,,,150,S
Raw,1,67.5,Robert Ferguson,M,UK,16,M-T2,60.7,125,132.5,-137.5,,132.5,,,,,,,,,,,132.5,S
Raw,2,67.5,Allesandro Boe,M,Italy,23,M-JR,60.9,-132.5,132.5,-142.5,,132.5,,,,,,,,,,,132.5,S
Raw,1,67.5,Kelvin Moynihan,M,Ireland,22,M-JR,66.3,140,-152.5,-152.5,,140,,,,,,,,,,,140,S
Raw,2,67.5,Mihail Olaru,M,Moldova,19,M-T3,65.6,120,-130,130,,130,,,,,,,,,,,130,S
Raw,2,67.5,Adrian Ungureanu,M,Moldova,17,M-T2,66,115,-125,-125,,115,,,,,,,,,,,115,S
Raw,1,75,Steven Gaughan,M,Ireland,23,M-JR,73,170,182.5,187.5,,187.5,,,,,,,,,,,187.5,S
Raw,1,75,Andrei Cojucari,M,Moldova,28,M-O,72.9,175,-185,185,,185,,,,,,,,,,,185,S
Raw,2,75,Serghei Glava,M,Moldova,20,M-JR,74.8,180,-187.5,-187.5,,180,,,,,,,,,,,180,S
Raw,1,75,Riccardo Brancato,M,Switzerland,54,M-M3,73.2,160,170,-175,,170,,,,,,,,,,,170,S
Raw,3,75,Kenneth Malone,M,Ireland,23,M-JR,73.7,160,-170,170,,170,,,,,,,,,,,170,S
Raw,2,75,Jérôme Boucher,M,France,37,M-O,71.4,162.5,-172.5,-172.5,,162.5,,,,,,,,,,,162.5,S
Raw,1,75,Ivan Smyth,M,Ireland,17,M-T2,71.5,140,156,160,,160,,,,,,,,,,,160,S
Raw,1,75,Eamon Roche,M,Ireland,19,M-T3,73.5,145,155,-162.5,,155,,,,,,,,,,,155,S
Raw,1,75,Tony Pierce,M,Ireland,55,M-M4,74.2,140,150,155,,155,,,,,,,,,,,155,S
Raw,2,75,Darren Fehilly,M,Ireland,17,M-T2,71.6,140,150,-160,,150,,,,,,,,,,,150,S
Raw,3,75,Robert O'Connor,M,Ireland,16,M-T2,75,135,-140,-140,,135,,,,,,,,,,,135,S
Raw,1,82.5,Vitalie Ursu,M,Moldova,31,M-O,82.1,200,220,,,220,,,,,,,,,,,220,S
Raw,1,82.5,Barry Pigott,M,Ireland,22,M-JR,81,205,-215,-215,,205,,,,,,,,,,,205,S
Raw,2,82.5,Anatoli Lisii,M,Moldova,21,M-JR,81.2,187.5,195,202.5,,202.5,,,,,,,,,,,202.5,S
Raw,2,82.5,Benjamin Cannessant,M,France,26,M-O,81.2,190,200,202.5,,202.5,,,,,,,,,,,202.5,S
Raw,3,82.5,Daniel Ebert,M,Germany,26,M-O,82.3,185,200,-210,,200,,,,,,,,,,,200,S
Raw,1,82.5,William Clarke,M,Ireland,19,M-T3,77.4,187.5,190,195,,195,,,,,,,,,,,195,S
Raw,3,82.5,Carlos Pereyra,M,Italy,23,M-JR,82.2,195,-205,-205,,195,,,,,,,,,,,195,S
Raw,4,82.5,David Heath,M,UK,34,M-O,81.4,190,-205,-210,,190,,,,,,,,,,,190,S
Raw,1,82.5,Sergey Dermelev,M,Estonia,54,M-M3,81.4,185,-212.5,-212.5,,185,,,,,,,,,,,185,S
Raw,5,82.5,Frank Forner,M,Germany,30,M-O,81.4,175,180,-185,,180,,,,,,,,,,,180,S
Raw,4,82.5,John Donovan,M,Ireland,22,M-JR,80.7,-165,-170,170,,170,,,,,,,,,,,170,S
Raw,1,82.5,Lorenzo Dore,M,Italy,48,M-M2,78.6,-160,160,-165,,160,,,,,,,,,,,160,S
Raw,1,82.5,José Fleury,M,Switzerland,55,M-M4,79.7,145,155,-160,,155,,,,,,,,,,,155,S
Raw,1,82.5,Ian Farrell,M,Ireland,17,M-T2,78.7,140,150,-160,,150,,,,,,,,,,,150,S
Raw,1,82.5,Francis Spiteri,M,Malta,65,M-M6,81.2,-140,140,-151,,140,,,,,,,,,,,140,S
Raw,1,82.5,Georgiy Lazaridi,M,Russia,80,M-M9,81.7,105,120,,,120,,,,,,,,,,,120,S
Raw,1,90,Jonathan Valentin,M,France,22,M-JR,88.6,210,220,-225,,220,,,,,,,,,,,220,S
Raw,1,90,Vladimir Gruia,M,Moldova,24,M-O,89.5,210,220,-230,,220,,,,,,,,,,,220,S
Raw,2,90,Ivan Lynch,M,Ireland,35,M-O,88.6,205,-215,215,,215,,,,,,,,,,,215,S
Raw,3,90,Markus Peschel,M,Germany,27,M-O,86.7,-185,195,205,,205,,,,,,,,,,,205,S
Raw,2,90,Mark Cleary,M,Ireland,21,M-JR,89.4,190,-205,205,,205,,,,,,,,,,,205,S
Raw,1,90,Patrick Valfrey,M,France,49,M-M2,87.2,175,192.5,-200,,192.5,,,,,,,,,,,192.5,S
Raw,3,90,Dorian Beldjord,M,France,20,M-JR,87.8,167.5,175,-190,,175,,,,,,,,,,,175,S
Raw,1,100,Ramon Gysin,M,Switzerland,30,M-O,99.2,245,260,270.5,,270.5,,,,,,,,,,,270.5,S
Raw,2,100,Austin Hickey,M,Ireland,34,M-O,99.3,220,230,-240,,230,,,,,,,,,,,230,S
Raw,3,100,Fabien Pollet,M,France,29,M-O,97.9,215,225,-232.5,,225,,,,,,,,,,,225,S
Raw,1,100,Yiannis Verenakis,M,UK,21,M-JR,98.1,187.5,200,205,,205,,,,,,,,,,,205,S
Raw,1,100,Serge Bustreel,M,France,68,M-M6,96.2,185,195,202.5,,202.5,,,,,,,,,,,202.5,S
Raw,1,110,Dumitru Sacaliuc,M,Moldova,26,M-O,109.6,-250,250,270,,270,,,,,,,,,,,270,S
Raw,1,110,John McMenamin,M,Ireland,50,M-M3,107.8,170,180,-190,,180,,,,,,,,,,,180,S
Raw,1,125,James Hickey,M,Ireland,37,M-O,118.5,250,-260,,,250,,,,,,,,,,,250,S
Raw,1,125,Tomas Cuddihy,M,Ireland,43,M-M1,118.3,210,220,,,220,,,,,,,,,,,220,S
Raw,1,125,Eoin O'Leary,M,Ireland,22,M-JR,120.5,195,205,215,,215,,,,,,,,,,,215,S
Raw,1,125,Andre Du Plessis,M,Ireland,49,M-M2,123.2,200,210,-215,,210,,,,,,,,,,,210,S
Raw,2,125,Valentin Danilov,M,Moldova,23,M-JR,113.8,187.5,200,-210,,200,,,,,,,,,,,200,S
Raw,2,125,Klaus Winkler,M,Germany,46,M-M2,120.8,187.5,190,200,,200,,,,,,,,,,,200,S
Raw,DQ,125,Aleksandr Smirnov,M,Russia,42,M-M1,117.9,-197.5,-197.5,,,,,,,,,,,,,,,S
Single-ply,1,63,Helen Kostadinos,F,Australia,70,F-M7,60.5,70,80,92.5,,92.5,,,,,,,,,,,92.5,S
Single-ply,1,80,Mary Anderson,F,Scotland,46,F-M2,76.9,180,-190,-190,,180,,,,,,,,,,,180,S
Single-ply,1,67.5,Kim Houbracken,M,Belgium,30,M-O,67.5,182.5,-190,190,,190,,,,,,,,,,,190,S
Single-ply,2,67.5,Mirko Calisai,M,Italy,34,M-O,61.6,162.5,-170,175,,175,,,,,,,,,,,175,S
Single-ply,3,67.5,Tim Van den Abbeele,M,Belgium,26,M-O,65.2,165,175,-185,,175,,,,,,,,,,,175,S
Single-ply,1,75,Indra Sudarminto,M,Belgium,23,M-JR,74.7,270,290,300,,300,,,,,,,,,,,300,S
Single-ply,1,75,Andrea Pes,M,Italy,19,M-T3,73,-240,240,-260,,240,,,,,,,,,,,240,S
Single-ply,1,75,Giovannino Pinna,M,Italy,26,M-O,73.6,200,210,-220,,210,,,,,,,,,,,210,S
Single-ply,2,75,Andrei Cojucari,M,Moldova,28,M-O,72.9,180,200,,,200,,,,,,,,,,,200,S
Single-ply,2,75,Serghei Glava,M,Moldova,20,M-JR,74.8,180,-200,200,,200,,,,,,,,,,,200,S
Single-ply,1,75,Christophe Cherel,M,France,47,M-M2,72.6,180,191,196,,196,,,,,,,,,,,196,S
Single-ply,1,75,Tony Pierce,M,Ireland,55,M-M4,74.2,160,170,175,,175,,,,,,,,,,,175,S
Single-ply,1,82.5,Kenneth Taaffe,M,Ireland,40,M-M1,81.3,-230,230,245,,245,,,,,,,,,,,245,S
Single-ply,1,82.5,Massimo Carpo,M,Italy,36,M-O,82.4,200,220,240,,240,,,,,,,,,,,240,S
Single-ply,1,82.5,James Minaer,M,UK,19,M-T3,80.8,210,-220,232.5,,232.5,,,,,,,,,,,232.5,S
Single-ply,2,82.5,Rob Duncan,M,Ireland,32,M-O,80.8,-205,205,220,,220,,,,,,,,,,,220,S
Single-ply,1,82.5,Anatoli Lisii,M,Moldova,21,M-JR,81.2,190,,,,190,,,,,,,,,,,190,S
Single-ply,1,82.5,Sergey Dermelev,M,Estonia,54,M-M3,81.4,180,-221,-221,,180,,,,,,,,,,,180,S
Single-ply,1,90,Ivan Lynch,M,Ireland,35,M-O,88.6,250,265,277.5,,277.5,,,,,,,,,,,277.5,S
Single-ply,1,90,David Twomey,M,Ireland,22,M-JR,87.7,235,245,,,245,,,,,,,,,,,245,S
Single-ply,1,90,Angelo Pasqualino,M,Italy,50,M-M3,87.7,-170,170,-180,,170,,,,,,,,,,,170,S
Single-ply,DQ,90,Jimmy D'Ascenzo,M,Italy,24,M-O,83.3,-200,,,,,,,,,,,,,,,,S
Single-ply,1,100,Vjatseslav Kudrjavtsev,M,Estonia,75,M-M8,100,120,130,135,,135,,,,,,,,,,,135,S
Single-ply,DQ,100,Jagir Singh,M,UK,55,M-M4,99.7,-180,-180,-180,,,,,,,,,,,,,,S
Single-ply,1,110,John Walker #6,M,UK,74,M-M7,102.2,185,195,200,,200,,,,,,,,,,,200,S
Single-ply,1,125,Francesco Natalizi,M,Italy,35,M-O,122.2,240,255,267.5,,267.5,,,,,,,,,,,267.5,S
Single-ply,1,125,Tomas Cuddihy,M,Ireland,43,M-M1,118.3,215,,,,215,,,,,,,,,,,215,S
Single-ply,1,125,Valentin Danilov,M,Moldova,23,M-JR,113.8,202.5,,,,202.5,,,,,,,,,,,202.5,S
Single-ply,DQ,125,James Hickey,M,Ireland,37,M-O,118.5,-250,,,,,,,,,,,,,,,,S
Single-ply,1,145,Maxim Tikhonov,M,Russia,46,M-M2,129.5,-320,320,-340,,320,,,,,,,,,,,320,S
Raw,1,47.5,Nicole Debail,F,France,53,F-M3,45.7,,,,,,55,57.5,60,,60,,,,,,60,B
Raw,1,50.5,Maruska Bertoli,F,Italy,35,F-O,50,,,,,,65,70,72.5,,72.5,,,,,,72.5,B
Raw,1,50.5,Marzia Girardi,F,Italy,51,F-M3,49.5,,,,,,55,57.5,60,,60,,,,,,60,B
Raw,1,50.5,Jessica Preiss,F,Switzerland,21,F-JR,49.8,,,,,,50,-55,55,,55,,,,,,55,B
Raw,1,53,Katie Cooke,F,Scotland,45,F-M2,52.2,,,,,,57.5,60,62.5,,62.5,,,,,,62.5,B
Raw,1,53,Sara Vero,F,Ireland,25,F-O,51.7,,,,,,55,-60,60,,60,,,,,,60,B
Raw,1,53,Fabienne Richoz,F,Switzerland,50,F-M3,52.6,,,,,,50,55,60,,60,,,,,,60,B
Raw,2,53,Geneviéve Alt,F,Switzerland,51,F-M3,51.4,,,,,,42.5,45,47.5,,47.5,,,,,,47.5,B
Raw,2,53,Tamara Mishenko,F,Russia,25,F-O,52.8,,,,,,40,42.5,,,42.5,,,,,,42.5,B
Raw,1,55.5,Laurence Follin,F,France,39,F-O,54.4,,,,,,77.5,82.5,,,82.5,,,,,,82.5,B
Raw,1,55.5,Silvia Corsi,F,Italy,44,F-M1,54.3,,,,,,65,67.5,,,67.5,,,,,,67.5,B
Raw,1,55.5,Corinne Larée,F,France,46,F-M2,53.2,,,,,,52.5,57.5,,,57.5,,,,,,57.5,B
Raw,DD,55.5,Olga Savrickaja,F,Russia,34,F-O,55,,,,,,50,55,67.5,,67.5,,,,,,,B
Raw,1,58.5,Sophie Hebert,F,France,24,F-O,56.4,,,,,,57.5,62.5,65,,65,,,,,,65,B
Raw,2,58.5,Aimee O'Driscoll,F,Ireland,22,F-JR,56.7,,,,,,-62.5,,62.5,,62.5,,,,,,62.5,B
Raw,3,58.5,Anna Wyss,F,Switzerland,37,F-O,57.5,,,,,,,,55,,55,,,,,,55,B
Raw,2,58.5,Martina Brezigar,F,Italy,34,F-O,56.3,,,,,,50,52.5,55,,55,,,,,,55,B
Raw,4,58.5,Sandra Carroll,F,Ireland,32,F-O,57.7,,,,,,52.5,-55,55,,55,,,,,,55,B
Raw,5,58.5,Sarah Scallan,F,Ireland,28,F-O,57.9,,,,,,50,52.5,55,,55,,,,,,55,B
Raw,1,58.5,Mariljn Vezzosi,F,Italy,23,F-JR,56.9,,,,,,50,55,77.5,,77.5,,,,,,77.5,B
Raw,1,63,Véronique Bourdon,F,France,56,F-M4,62.3,,,,,,70,75,,,75,,,,,,75,B
Raw,1,63,Helen Kostadinos,F,Australia,70,F-M7,61,,,,,,-50,,50,,50,,,,,,50,B
Raw,1,63,Mihaela Buia,F,Moldova,19,F-T3,61.4,,,,,,40,45,82.5,,82.5,,,,,,82.5,B
Raw,1,70,Clare Patterson,F,Ireland,29,F-O,68.4,,,,,,72.5,77.5,85,,85,,,,,,85,B
Raw,1,70,Anna Rotondi,F,Italy,43,F-M1,70,,,,,,-80,,80,,80,,,,,,80,B
Raw,2,70,Irina Romasenko,F,Russia,38,F-O,63.2,,,,,,-75,,75,,75,,,,,,75,B
Raw,1,70,Teresa Loi,F,Italy,52,F-M3,65.2,,,,,,65,-70,70,,70,,,,,,70,B
Raw,3,70,Sylwia Majszyk,F,Ireland,36,F-O,66,,,,,,65,67.5,72.5,,72.5,,,,,,72.5,B
Raw,2,70,Valérie Goicoechea,F,France,43,F-M1,67.8,,,,,,65,-70,70,,70,,,,,,70,B
Raw,4,70,Assumpta Feeney,F,Ireland,37,F-O,69.4,,,,,,,,60,,60,,,,,,60,B
Raw,1,70,Nicola Elding,F,UK,46,F-M2,63.7,,,,,,45,55,57.5,,57.5,,,,,,57.5,B
Raw,1,70,Colette Corno,F,France,71,F-M7,64.1,,,,,,50,55,87.5,,87.5,,,,,,87.5,B
Raw,1,80,Mary Anderson,F,Scotland,46,F-M2,77.5,,,,,,80,85,,,85,,,,,,85,B
Raw,1,80,Paola Ferrari,F,Italy,53,F-M3,73.2,,,,,,62.5,67.5,72.5,,72.5,,,,,,72.5,B
Raw,2,80,Christine Laree,F,France,45,F-M2,79.4,,,,,,65,70,,,70,,,,,,70,B
Raw,1,52,Marco Feggi,M,Italy,37,M-O,50.8,,,,,,,65,,,65,,,,,,65,B
Raw,1,56,Mattia Miraglia,M,Italy,19,M-T3,55.5,,,,,,,82.5,,,82.5,,,,,,82.5,B
Raw,1,56,Antonio Garau,M,Italy,28,M-O,54.9,,,,,,90,110.5,,,110.5,,,,,,110.5,B
Raw,1,67.5,Vasiiii Legkii,M,Russia,30,M-O,65.8,,,,,,135,140,,,140,,,,,,140,B
Raw,1,67.5,Ludovic Carmasol,M,France,20,M-JR,66.4,,,,,,-127.5,127.5,133,,133,,,,,,133,B
Raw,2,67.5,Tim Van den Abbeele,M,Belgium,26,M-O,65.7,,,,,,120,125,127.5,,127.5,,,,,,127.5,B
Raw,3,67.5,Guillaume Bougon,M,France,24,M-O,67.3,,,,,,120,-125,125,,125,,,,,,125,B
Raw,2,67.5,Oleg Bernevec,M,Moldova,20,M-JR,66.3,,,,,,117.5,-125,125,,125,,,,,,125,B
Raw,4,67.5,Onufrei Dorinel,M,Italy,25,M-O,66.8,,,,,,110,117.5,120,,120,,,,,,120,B
Raw,3,67.5,Tom Roels,M,Belgium,23,M-JR,67.3,,,,,,110,115,117.5,,117.5,,,,,,117.5,B
Raw,5,67.5,Yuri Kohmo,M,UK,27,M-O,65.3,,,,,,112.5,-117.5,117.5,,117.5,,,,,,117.5,B
Raw,4,67.5,Dylan Lebatteu,M,France,20,M-JR,67,,,,,,110,-115,115,,115,,,,,,115,B
Raw,1,67.5,Mihail Olaru,M,Moldova,19,M-T3,65.9,,,,,,100,110,112.5,,112.5,,,,,,112.5,B
Raw,1,67.5,Dominique Loquet,M,France,51,M-M3,66.7,,,,,,95,100,105,,105,,,,,,105,B
Raw,5,67.5,Allesandro Boe,M,Italy,23,M-JR,61,,,,,,90,-92.5,92.5,,92.5,,,,,,92.5,B
Raw,1,67.5,Gennadii Lykhin,M,Russia,59,M-M4,64.5,,,,,,90,92.5,95,,95,,,,,,95,B
Raw,1,67.5,Adrian Ungureanu,M,Moldova,17,M-T2,66.7,,,,,,87.5,-90,90,,90,,,,,,90,B
Raw,2,67.5,Robert Ferguson,M,UK,16,M-T2,61.5,,,,,,72.5,77.5,82.5,,82.5,,,,,,82.5,B
Raw,2,67.5,Roberto Gianello,M,Italy,59,M-M4,66.4,,,,,,80,-82.5,82.5,,82.5,,,,,,82.5,B
Raw,1,75,Evghenii Medoni,M,Moldova,24,M-O,74.2,,,,,,165,170,180.5,,180.5,,,,,,180.5,B
Raw,1,75,Andrea Pes,M,Italy,19,M-T3,73,,,,,,143,-157.5,157.5,,157.5,,,,,,157.5,B
Raw,1,75,Patrick Premazzi,M,Italy,21,M-JR,74,,,,,,140,145,150,,150,,,,,,150,B
Raw,1,75,Emmanuel Cadieu,M,France,45,M-M2,74.1,,,,,,140,142.5,145,,145,,,,,,145,B
Raw,4,75,Emmerik Vanhee,M,Belgium,24,M-O,71.2,,,,,,130,135,142.5,,142.5,,,,,,142.5,B
Raw,2,75,Giovannino Pinna,M,Italy,26,M-O,73.3,,,,,,135,142.5,147.5,,147.5,,,,,,147.5,B
Raw,3,75,Frédéric Saunois,M,France,49,M-M2,73.4,,,,,,130,135,140,,140,,,,,,140,B
Raw,1,75,Antonello Dessalvi,M,Italy,60,M-M5,74.5,,,,,,130,135,140,,140,,,,,,140,B
Raw,2,75,Michel Trévisan,M,Switzerland,45,M-M2,68.8,,,,,,127.5,137.5,140,,140,,,,,,140,B
Raw,5,75,Vincent Escoto,M,France,29,M-O,73.1,,,,,,130,135,140,,140,,,,,,140,B
Raw,1,75,Victor Schipani,M,France,53,M-M3,74.3,,,,,,127.5,132.5,135,,135,,,,,,135,B
Raw,2,75,Quentin Voisin,M,France,21,M-JR,73.2,,,,,,-130,130,137.5,,137.5,,,,,,137.5,B
Raw,1,75,Daniele Galieti,M,Italy,43,M-M1,73.5,,,,,,130,-140,140,,140,,,,,,140,B
Raw,4,75,Pascal Costa,M,France,47,M-M2,74.7,,,,,,122.5,130,140,,140,,,,,,140,B
Raw,6,75,Kim Houbracken,M,Belgium,30,M-O,69.3,,,,,,120,125,130,,130,,,,,,130,B
Raw,7,75,Michele Marras,M,Italy,33,M-O,70.3,,,,,,112.5,120,125,,125,,,,,,125,B
Raw,1,75,Marco Galvagno,M,Italy,55,M-M4,72.2,,,,,,117.5,122.5,125,,125,,,,,,125,B
Raw,2,75,Laurent Constantin,M,UK,50,M-M3,74.8,,,,,,115,122.5,125,,125,,,,,,125,B
Raw,2,75,Didier Debail,M,France,57,M-M4,72.3,,,,,,112.5,117.5,120,,120,,,,,,120,B
Raw,2,75,André Roucou,M,France,61,M-M5,74.3,,,,,,112.5,120,127.5,,127.5,,,,,,127.5,B
Raw,3,75,Serghei Glava,M,Moldova,20,M-JR,75,,,,,,120,-125,125,,125,,,,,,125,B
Raw,4,75,Ian McBride,M,Ireland,23,M-JR,73.1,,,,,,112.5,117.5,122.5,,122.5,,,,,,122.5,B
Raw,3,75,Pascal Bizon,M,France,56,M-M4,74,,,,,,112.5,117.5,120,,120,,,,,,120,B
Raw,2,75,Bryan Follin,M,France,19,M-T3,74.6,,,,,,112.5,117.5,120,,120,,,,,,120,B
Raw,3,75,Riccardo Brancato,M,Switzerland,54,M-M3,74,,,,,,115,120,122.5,,122.5,,,,,,122.5,B
Raw,8,75,Chris Burns,M,Ireland,32,M-O,74.3,,,,,,115,-120,120,,120,,,,,,120,B
Raw,5,75,Florian Brandt,M,Germany,21,M-JR,74.5,,,,,,107.5,112.5,120,,120,,,,,,120,B
Raw,6,75,Andrea Gianello,M,Italy,20,M-JR,68.9,,,,,,107.5,-117.5,117.5,,117.5,,,,,,117.5,B
Raw,7,75,Jamie Sullivan,M,Ireland,20,M-JR,73.6,,,,,,107.5,112.5,115,,115,,,,,,115,B
Raw,1,75,Daniel Delaporte,M,France,66,M-M6,73,,,,,,95,100,105,,105,,,,,,105,B
Raw,3,75,Simon Geiger,M,Germany,18,M-T3,70.9,,,,,,95,100,105,,105,,,,,,105,B
Raw,4,75,Eamon Roche,M,Ireland,19,M-T3,74.1,,,,,,-92.5,92.5,97.5,,97.5,,,,,,97.5,B
Raw,1,75,Gren Elmore,M,UK,88,M-M10,71.6,,,,,,55,60,61,,61,,,,,,61,B
Raw,3,75,Mathieu Coudriaud,M,France,27,M-O,72.9,,,,,,-145,-145,145,,145,,,,,,145,B
Raw,1,82.5,Luigi Vitale,M,Italy,28,M-O,79.4,,,,,,170,172.5,177.5,,177.5,,,,,,177.5,B
Raw,1,82.5,Barry Pigott,M,Ireland,22,M-JR,82,,,,,,160,165,167.5,,167.5,,,,,,167.5,B
Raw,3,82.5,Wilfried Couchy,M,France,33,M-O,82.4,,,,,,152.5,160,165,,165,,,,,,165,B
Raw,2,82.5,Vitalie Ursu,M,Moldova,31,M-O,82.1,,,,,,160,-170,170,,170,,,,,,170,B
Raw,1,82.5,Neal Collinson,M,UK,50,M-M3,81.3,,,,,,151,156,157.5,,157.5,,,,,,157.5,B
Raw,1,82.5,David O'Neill,M,Scotland,43,M-M1,81,,,,,,142.5,152.5,163,,163,,,,,,163,B
Raw,4,82.5,Xavier Craffe,M,France,33,M-O,82.5,,,,,,150,155,160,,160,,,,,,160,B
Raw,2,82.5,Eddy Varin,M,France,40,M-M1,79.2,,,,,,137.5,-142.5,142.5,,142.5,,,,,,142.5,B
Raw,2,82.5,Salvatore Busuito,M,Italy,23,M-JR,79.7,,,,,,130,137.5,142.5,,142.5,,,,,,142.5,B
Raw,5,82.5,Peter Lucey,M,Ireland,27,M-O,80.4,,,,,,130,135,137.5,,137.5,,,,,,137.5,B
Raw,3,82.5,Adam Brazier,M,UK,20,M-JR,80.5,,,,,,130,135,137.5,,137.5,,,,,,137.5,B
Raw,6,82.5,Giovanni Corrias,M,Italy,33,M-O,79.7,,,,,,120,130,135,,135,,,,,,135,B
Raw,1,82.5,Ashley Sinclair,M,Scotland,63,M-M5,80.7,,,,,,125,135,145,,145,,,,,,145,B
Raw,7,82.5,Daniel Ebert,M,Germany,26,M-O,82.4,,,,,,125,-135,135,,135,,,,,,135,B
Raw,1,82.5,Lorenzo Dore,M,Italy,48,M-M2,79.5,,,,,,-120,120,122.5,,122.5,,,,,,122.5,B
Raw,3,82.5,Williams Cacciato,M,Italy,40,M-M1,80,,,,,,115,122.5,,,122.5,,,,,,122.5,B
Raw,2,82.5,Remo Minelli,M,Ireland,46,M-M2,80.3,,,,,,115,120,122.5,,122.5,,,,,,122.5,B
Raw,2,82.5,Thierry Mathieu,M,France,53,M-M3,81.4,,,,,,120,-127.5,127.5,,127.5,,,,,,127.5,B
Raw,1,82.5,Igor Petrov,M,Russia,57,M-M4,81.7,,,,,,115,117.5,120,,120,,,,,,120,B
Raw,2,82.5,Alfio Galvagno,M,Italy,57,M-M4,76.4,,,,,,112.5,115,117.5,,117.5,,,,,,117.5,B
Raw,1,82.5,Elvio Malpelo,M,Italy,68,M-M6,79.6,,,,,,-112.5,112.5,117.5,,117.5,,,,,,117.5,B
Raw,1,82.5,Ilio Polese,M,Italy,72,M-M7,77.8,,,,,,105,115,118,,118,,,,,,118,B
Raw,1,82.5,Alban Cauchois,M,France,18,M-T3,78.2,,,,,,115,-120,120,,120,,,,,,120,B
Raw,3,82.5,José Fleury,M,Switzerland,55,M-M4,80.5,,,,,,105,110,115,,115,,,,,,115,B
Raw,2,82.5,Marcel Lenormand,M,France,68,M-M6,81.2,,,,,,110,115,117.5,,117.5,,,,,,117.5,B
Raw,1,82.5,Ian Farrell,M,Ireland,17,M-T2,79,,,,,,100,-110,110,,110,,,,,,110,B
Raw,3,82.5,Albert Stepanjan,M,Estonia,54,M-M3,81.4,,,,,,105,110,,,110,,,,,,110,B
Raw,1,82.5,Bill Legg,M,UK,75,M-M8,80.9,,,,,,80,85,87.5,,87.5,,,,,,87.5,B
Raw,1,90,Roman Golubev,M,Russia,30,M-O,90,,,,,,190,-200,200,,200,,,,,,200,B
Raw,1,90,Carlos Juan,M,Italy,23,M-JR,83.9,,,,,,160,170,175,,175,,,,,,175,B
Raw,2,90,Marc Blumenrath,M,Germany,33,M-O,88.6,,,,,,170,175,177.5,,177.5,,,,,,177.5,B
Raw,1,90,Jean-Michel Flandre,M,France,40,M-M1,89.1,,,,,,165,170,172.5,,172.5,,,,,,172.5,B
Raw,3,90,Luca Luisetto,M,Italy,30,M-O,87.5,,,,,,170,-172.5,172.5,,172.5,,,,,,172.5,B
Raw,2,90,Steeve Watterbled,M,France,42,M-M1,86.8,,,,,,145,152.5,160,,160,,,,,,160,B
Raw,2,90,Jonathan Valentin,M,France,22,M-JR,89.4,,,,,,150,157.5,160,,160,,,,,,160,B
Raw,1,90,Thierry Chiarot,M,France,49,M-M2,87.1,,,,,,142.5,150,157.5,,157.5,,,,,,157.5,B
Raw,4,90,Vladimir Gruia,M,Moldova,24,M-O,90,,,,,,155,165,,,165,,,,,,165,B
Raw,6,90,Jérôme Prevot,M,France,39,M-O,86.8,,,,,,145,150,152.5,,152.5,,,,,,152.5,B
Raw,1,90,Luca Zampieri,M,Italy,52,M-M3,89.5,,,,,,145,150,152.5,,152.5,,,,,,152.5,B
Raw,5,90,Markus Peschel,M,Germany,27,M-O,86.6,,,,,,145,150,155,,155,,,,,,155,B
Raw,2,90,Mykhaylo Hopshta,M,Ukraine,53,M-M3,90,,,,,,-150,150,-155,,150,,,,,,150,B
Raw,4,90,Dorian Beldjord,M,France,20,M-JR,87.2,,,,,,137.5,140,145,,145,,,,,,145,B
Raw,3,90,Geoffrey Beldjord,M,France,20,M-JR,88.8,,,,,,140,145,147.5,,147.5,,,,,,147.5,B
Raw,5,90,Dylan Murray,M,Ireland,21,M-JR,88.5,,,,,,130,137.5,142.5,,142.5,,,,,,142.5,B
Raw,1,90,Christian Filarski,M,Germany,62,M-M5,87.8,,,,,,125,135,140,,140,,,,,,140,B
Raw,6,90,Mark Cleary,M,Ireland,21,M-JR,89.9,,,,,,130,135,142.5,,142.5,,,,,,142.5,B
Raw,7,90,Robert Schwarz,M,Germany,27,M-O,87.5,,,,,,125,130,135,,135,,,,,,135,B
Raw,3,90,Angelo Pasqualino,M,Italy,50,M-M3,87.7,,,,,,130,-140,140,,140,,,,,,140,B
Raw,4,90,Thomas Luxem,M,Germany,54,M-M3,88.5,,,,,,-110,110,120,,120,,,,,,120,B
Raw,1,90,Idris Ismailov,M,Belgium,66,M-M6,88.3,,,,,,92.5,100,102.5,,102.5,,,,,,102.5,B
Raw,1,90,Corey Williams,M,UK,16,M-T2,88.9,,,,,,100,-107.5,107.5,,107.5,,,,,,107.5,B
Raw,1,100,Roland Gongarad,M,Switzerland,39,M-O,98.8,,,,,,200,-210,210,,210,,,,,,210,B
Raw,2,100,Iegor Pyrogov,M,Ukraine,26,M-O,94.5,,,,,,180,190,192.5,,192.5,,,,,,192.5,B
Raw,3,100,Austin Hickey,M,Ireland,34,M-O,99.5,,,,,,180,187.5,192.5,,192.5,,,,,,192.5,B
Raw,1,100,Nikolay Romasenko,M,Russia,40,M-M1,99.5,,,,,,180,187.5,192.5,,192.5,,,,,,192.5,B
Raw,4,100,Harbans Bansal,M,UK,36,M-O,98.7,,,,,,175,182.5,187.5,,187.5,,,,,,187.5,B
Raw,1,100,David Gercke,M,Germany,21,M-JR,99.5,,,,,,160,170,175,,175,,,,,,175,B
Raw,2,100,Konstantin Berdinskikh,M,Russia,43,M-M1,99.2,,,,,,160,172.5,177.5,,177.5,,,,,,177.5,B
Raw,5,100,Fabien Pollet,M,France,29,M-O,98.1,,,,,,160,170,175,,175,,,,,,175,B
Raw,3,100,Darren Greville,M,UK,43,M-M1,99.3,,,,,,142.5,-162.5,162.5,,162.5,,,,,,162.5,B
Raw,6,100,Geraint Llewellyn,M,UK,34,M-O,98.1,,,,,,145,160,167.5,,167.5,,,,,,167.5,B
Raw,1,100,Alexsandru Paşa,M,Moldova,57,M-M4,98.2,,,,,,150,160,168,,168,,,,,,168,B
Raw,8,100,James Oldfield,M,UK,32,M-O,95.6,,,,,,135,140,145,,145,,,,,,145,B
Raw,1,100,Andrea Ravasi,M,Italy,46,M-M2,93.5,,,,,,137.5,,,,137.5,,,,,,137.5,B
Raw,7,100,Micha Lehmann,M,Switzerland,26,M-O,91,,,,,,-135,135,145,,145,,,,,,145,B
Raw,2,100,Yiannis Verenakis,M,UK,21,M-JR,98.1,,,,,,125,-135,135,,135,,,,,,135,B
Raw,1,100,Pierre Vallais,M,France,67,M-M6,94.5,,,,,,120,125,130,,130,,,,,,130,B
Raw,2,100,Dean Fletcher,M,UK,45,M-M2,97.9,,,,,,122.5,-127.5,127.5,,127.5,,,,,,127.5,B
Raw,2,100,Jean Bertolotti,M,Switzerland,69,M-M6,91.1,,,,,,110,115,125,,125,,,,,,125,B
Raw,1,110,Alistair Murdoch,M,UK,47,M-M2,108.3,,,,,,210,220,227.5,,227.5,,,,,,227.5,B
Raw,1,110,Andy Rigby,M,UK,52,M-M3,108.4,,,,,,195,212.5,227.5,,227.5,,,,,,227.5,B
Raw,2,110,Luca Zanin,M,Italy,38,M-O,102.7,,,,,,180,187.5,190,,190,,,,,,190,B
Raw,1,110,Dumitru Sacaliuc,M,Moldova,26,M-O,109.5,,,,,,180,190,192.5,,192.5,,,,,,192.5,B
Raw,3,110,Christof Kellenberger,M,Switzerland,29,M-O,108.7,,,,,,155,162.5,170,,170,,,,,,170,B
Raw,2,110,Marcel Gheldof,M,Belgium,48,M-M2,105.5,,,,,,157.5,165,167.5,,167.5,,,,,,167.5,B
Raw,1,110,Joël Godon,M,France,57,M-M4,107.9,,,,,,150,160,165,,165,,,,,,165,B
Raw,1,110,Roberto Volpis,M,Italy,71,M-M7,103.2,,,,,,130,135,139,,139,,,,,,139,B
Raw,1,110,Jean-Paul Delapierre,M,France,65,M-M6,105.4,,,,,,122.5,125,130,,130,,,,,,130,B
Raw,1,110,Alain Bellevergue,M,France,63,M-M5,102.3,,,,,,115,127.5,130,,130,,,,,,130,B
Raw,2,110,Michel Grosperrin,M,France,66,M-M6,108.6,,,,,,122.5,127.5,130,,130,,,,,,130,B
Raw,2,110,Brian Mitchell,M,UK,59,M-M4,109.6,,,,,,115,120,,,120,,,,,,120,B
Raw,1,125,Gary Dada,M,UK,43,M-M1,116.5,,,,,,210,220,222.5,,222.5,,,,,,222.5,B
Raw,2,125,James Hickey,M,Ireland,37,M-O,119.1,,,,,,180,190,195,,195,,,,,,195,B
Raw,2,125,Martin Tetzlaff,M,Germany,43,M-M1,118,,,,,,180,190,195,,195,,,,,,195,B
Raw,1,125,Maksim Sheremetyev,M,Russia,19,M-T3,122.5,,,,,,190,-200,200,,200,,,,,,200,B
Raw,1,125,Pavel Perov,M,Russia,47,M-M2,111.5,,,,,,177.5,182.5,187.5,,187.5,,,,,,187.5,B
Raw,3,125,Alberto Taddia,M,Italy,41,M-M1,115.5,,,,,,170,180,185,,185,,,,,,185,B
Raw,1,125,Tom Lorenz,M,Germany,34,M-O,122.7,,,,,,180,190,197.5,,197.5,,,,,,197.5,B
Raw,4,125,INeil Thomas,M,UK,42,M-M1,111.1,,,,,,160,170,,,170,,,,,,170,B
Raw,3,125,Francesco Sudano,M,Italy,34,M-O,112.4,,,,,,165,170,172.5,,172.5,,,,,,172.5,B
Raw,1,125,Valerll Karmazin,M,Ukraine,50,M-M3,118,,,,,,150,160,170,,170,,,,,,170,B
Raw,5,125,Igor Bogdanov,M,Estonia,42,M-M1,113,,,,,,150,-160,160,,160,,,,,,160,B
Raw,1,125,Valentin Danilov,M,Moldova,23,M-JR,115.6,,,,,,145,-150,150,,150,,,,,,150,B
Raw,2,125,Eoin O'Leary,M,Ireland,22,M-JR,121,,,,,,137.5,145,147.5,,147.5,,,,,,147.5,B
Raw,2,125,Andre Du Plessis,M,Ireland,49,M-M2,123.4,,,,,,135,145,150,,150,,,,,,150,B
Raw,1,125,Marc Goovaerts,M,Belgium,56,M-M4,111.7,,,,,,135,140,145,,145,,,,,,145,B
Raw,6,125,Tomas Cuddihy,M,Ireland,43,M-M1,117.5,,,,,,100,,,,100,,,,,,100,B
Raw,1,145,David Hernandez #1,M,France,32,M-O,126.6,,,,,,-205,205,215,,215,,,,,,215,B
Raw,1,145,Anthony Germain,M,France,20,M-JR,128.8,,,,,,195,200,208,,208,,,,,,208,B
Raw,1,145,Sergey Kirilov,M,Russia,59,M-M4,126.4,,,,,,145,155,160,,160,,,,,,160,B
Single-ply,1,58.5,Line Demare,F,France,50,F-M3,58.1,,,,,,57.5,62.5,,,62.5,,,,,,62.5,B
Single-ply,1,63,Stéphanie Lagrange,F,France,38,F-O,62.7,,,,,,97.5,,,,97.5,,,,,,97.5,B
Single-ply,1,63,Helen Kostadinos,F,Australia,70,F-M7,61,,,,,,50,-52.5,52.5,,52.5,,,,,,52.5,B
Single-ply,1,80,Mary Anderson,F,Scotland,46,F-M2,77.5,,,,,,105,110.5,116,,116,,,,,,116,B
Single-ply,1,80,Paola Ferrari,F,Italy,53,F-M3,73.2,,,,,,65,70,75.5,,75.5,,,,,,75.5,B
Single-ply,1,56,Antonio Garau,M,Italy,28,M-O,54.9,,,,,,-92.5,92.5,105,,105,,,,,,105,B
Single-ply,1,60,Giampaolo Serra,M,Italy,66,M-M6,58.1,,,,,,100,105,110,,110,,,,,,110,B
Single-ply,1,60,Jean-Michel Moreiro,M,France,61,M-M5,59.4,,,,,,95,100,102.5,,102.5,,,,,,102.5,B
Single-ply,1,67.5,Vasilii Legkii,M,Russia,30,M-O,65.8,,,,,,155,162.5,,,162.5,,,,,,162.5,B
Single-ply,2,67.5,Tim Van den Abbeele,M,Belgium,26,M-O,65.7,,,,,,140,145,147.5,,147.5,,,,,,147.5,B
Single-ply,1,67.5,Tom Roels,M,Belgium,23,M-JR,67.3,,,,,,110,120,125,,125,,,,,,125,B
Single-ply,1,67.5,Noel Helloco,M,France,71,M-M7,66.9,,,,,,90,-95,95,,95,,,,,,95,B
Single-ply,1,75,Andrea Pes,M,Italy,19,M-T3,73,,,,,,180,190,200,,200,,,,,,200,B
Single-ply,1,75,Giovannino Pinna,M,Italy,26,M-O,73.3,,,,,,180,-190,200.5,,200.5,,,,,,200.5,B
Single-ply,3,75,Emmerik Vanhee,M,Belgium,24,M-O,71.2,,,,,,160,167.5,172.5,,172.5,,,,,,172.5,B
Single-ply,1,75,Pascal Costa,M,France,47,M-M2,74.7,,,,,,152.5,-170,170,,170,,,,,,170,B
Single-ply,2,75,Mathieu Coudriaud,M,France,27,M-O,72.9,,,,,,-160,160,175,,175,,,,,,175,B
Single-ply,4,75,Aldo Michaux,M,France,38,M-O,73.2,,,,,,145,-150,150,,150,,,,,,150,B
Single-ply,5,75,Michele Marras,M,Italy,33,M-O,70.3,,,,,,122.5,130,137.5,,137.5,,,,,,137.5,B
Single-ply,1,75,Antonello Dessalvi,M,Italy,60,M-M5,74.5,,,,,,130,135,140,,140,,,,,,140,B
Single-ply,1,75,Pascal Gourdin,M,France,53,M-M3,74.2,,,,,,127.5,130,132.5,,132.5,,,,,,132.5,B
Single-ply,6,75,Kim Houbracken,M,Belgium,30,M-O,69.3,,,,,,130,-135,135,,135,,,,,,135,B
Single-ply,1,75,Marco Galvagno,M,Italy,55,M-M4,72.2,,,,,,117.5,125,127.5,,127.5,,,,,,127.5,B
Single-ply,1,75,Serghei Glava,M,Moldova,20,M-JR,75,,,,,,115,120,125,,125,,,,,,125,B
Single-ply,2,75,Andrea Gianello,M,Italy,20,M-JR,68.9,,,,,,110,112.5,115,,115,,,,,,115,B
Single-ply,1,82.5,David O'Neill,M,Scotland,43,M-M1,81,,,,,,175,-180,180,,180,,,,,,180,B
Single-ply,1,82.5,Igor Petrov,M,Russia,57,M-M4,81.7,,,,,,150,155,,,155,,,,,,155,B
Single-ply,1,82.5,Elvio Malpelo,M,Italy,68,M-M6,79.6,,,,,,-125,125,132.5,,132.5,,,,,,132.5,B
Single-ply,1,82.5,Mark Knight #2,M,UK,45,M-M2,82,,,,,,-135,135,142.5,,142.5,,,,,,142.5,B
Single-ply,3,82.5,Alfio Galvagno,M,Italy,57,M-M4,76.4,,,,,,120,125,,,125,,,,,,125,B
Single-ply,1,82.5,Albert Stepanjan,M,Estonia,54,M-M3,81.4,,,,,,115,120,,,120,,,,,,120,B
Single-ply,2,82.5,Michel Soranzo,M,France,56,M-M4,82.1,,,,,,-140,-140,140,,140,,,,,,140,B
Single-ply,1,82.5,Patrick Phelippe,M,France,62,M-M5,78.8,,,,,,-110,-110,110,,110,,,,,,110,B
Single-ply,1,90,Jean-Michel Flandre,M,France,40,M-M1,89.1,,,,,,205,-213,213,,213,,,,,,213,B
Single-ply,1,90,Mykhaylo Hopshta,M,Ukraine,53,M-M3,90,,,,,,165,177.5,185,,185,,,,,,185,B
Single-ply,2,90,Johan Van De Casteele,M,Belgium,50,M-M3,85.6,,,,,,165,170,178,,178,,,,,,178,B
Single-ply,1,90,Patrick Valfrey,M,France,49,M-M2,87.9,,,,,,160,170,172.5,,172.5,,,,,,172.5,B
Single-ply,1,90,David Twomey,M,Ireland,22,M-JR,89,,,,,,160,170,180,,180,,,,,,180,B
Single-ply,1,90,Maurizio Rolla,M,Italy,60,M-M5,89.2,,,,,,-135,135,140,,140,,,,,,140,B
Single-ply,1,100,Austin Hickey,M,Ireland,34,M-O,99.5,,,,,,205,215,220,,220,,,,,,220,B
Single-ply,1,100,Jacky Bussiere,M,France,61,M-M5,98.5,,,,,,180,186,187.5,,187.5,,,,,,187.5,B
Single-ply,1,100,Andrea Ravasi,M,Italy,46,M-M2,93.5,,,,,,170,180,185,,185,,,,,,185,B
Single-ply,2,100,Rudy Smet,M,Belgium,45,M-M2,94.6,,,,,,155,165,175,,175,,,,,,175,B
Single-ply,1,100,Alexsandru Paşa,M,Moldova,57,M-M4,98.2,,,,,,150,160,162.5,,162.5,,,,,,162.5,B
Single-ply,1,100,Vjatseslav Kudrjavtsev,M,Estonia,75,M-M8,91.1,,,,,,82.5,90,95,,95,,,,,,95,B
Single-ply,1,110,Michael Coleman #2,M,Ireland,38,M-O,103,,,,,,160,-172.5,172.5,,172.5,,,,,,172.5,B
Single-ply,1,110,Marcel Gheldof,M,Belgium,48,M-M2,105.5,,,,,,-192.5,-192.5,192.5,,192.5,,,,,,192.5,B
Single-ply,1,110,John West,M,Ireland,72,M-M7,107,,,,,,-130,130,,,130,,,,,,130,B
Single-ply,1,125,Arnaud Clavier,M,France,39,M-O,111,,,,,,200,205,210,,210,,,,,,210,B
Single-ply,2,125,Martin Tetzlaff,M,Germany,43,M-M1,118,,,,,,170,180,,,180,,,,,,180,B
Single-ply,3,125,Igor Bogdanov,M,Estonia,42,M-M1,113,,,,,,150,160,165,,165,,,,,,165,B
Single-ply,1,125,Steve Webb,M,UK,51,M-M3,122,,,,,,140,160,175,,175,,,,,,175,B
Single-ply,1,125,Valentin Danilov,M,Moldova,23,M-JR,115.6,,,,,,142.5,147.5,152.5,,152.5,,,,,,152.5,B
Single-ply,4,125,Tomas Cuddihy,M,Ireland,43,M-M1,117.5,,,,,,120,,,,120,,,,,,120,B
Single-ply,2,125,Brian Coombes,M,Ireland,38,M-O,120.8,,,,,,-200,-200,200,,200,,,,,,200,B
Single-ply,3,125,James Hickey,M,Ireland,37,M-O,119.1,,,,,,190,,,,190,,,,,,190,B
Single-ply,1,125,Ouahem Boudjaja,M,France,42,M-M1,116.7,,,,,,220,-225,225,,225,,,,,,225,B
Single-ply,1,125,Masimo Papini,M,Italy,57,M-M4,112.7,,,,,,-205,-205,205,,205,,,,,,205,B
Single-ply,1,145,Maxim Tikhonov,M,Russia,46,M-M2,128.2,,,,,,225,-235,235,,235,,,,,,235,B
Single-ply,1,145,Sergey Kirilov,M,Russia,59,M-M4,126.4,,,,,,155,162.5,,,162.5,,,,,,162.5,B
Raw,1,50.5,Maruska Bertoli,F,Italy,35,F-O,49.6,,,,,,,,,,,140,145,150,,150,150,D
Raw,1,50.5,Marzia Girardi,F,Italy,51,F-M3,49.4,,,,,,,,,,,110,120,122.5,,122.5,122.5,D
Raw,1,50.5,Jessica Preiss,F,Switzerland,21,F-JR,48.6,,,,,,,,,,,100,107.5,112.5,,112.5,112.5,D
Raw,1,50.5,Pat Reeves,F,UK,68,F-M6,49.8,,,,,,,,,,,85,90,95.5,,95.5,95.5,D
Raw,2,50.5,Sari Redican,F,Ireland,39,F-O,50.5,,,,,,,,,,,95,-100,-100,,95,95,D
Raw,3,50.5,Georgina Hodson,F,UK,27,F-O,49.8,,,,,,,,,,,82.5,90,-102.5,,90,90,D
Raw,1,53,Louise Bane,F,Ireland,21,F-JR,52.8,,,,,,,,,,,120,125,127.5,,127.5,127.5,D
Raw,1,53,Fabienne Richoz,F,Switzerland,50,F-M3,52,,,,,,,,,,,110,-120,120,,120,120,D
Raw,2,53,Selina Schönholzer,F,Switzerland,21,F-JR,51.6,,,,,,,,,,,105,110,-115,,110,110,D
Raw,1,53,Nadejda Surujiu,F,Moldova,17,F-T2,51.4,,,,,,,,,,,80,90,95,,95,95,D
Raw,1,53,Tamara Mishenko,F,Russia,25,F-O,52.9,,,,,,,,,,,85,90,-92.5,,90,90,D
Raw,1,55.5,Maria McShane,F,Ireland,26,F-O,53.6,,,,,,,,,,,110,120,130,,130,130,D
Raw,1,55.5,Laura O'Riordan,F,Ireland,22,F-JR,53.5,,,,,,,,,,,110,120.5,125,,125,125,D
Raw,2,55.5,Medb Murtagh,F,Ireland,21,F-JR,54.6,,,,,,,,,,,-100,105,110,,110,110,D
Raw,DD,55.5,Olga Savrickaja,F,Russia,34,F-O,54.4,,,,,,,,,,,95,100,-105,,100,,D
Raw,1,58.5,Mary Brennan,F,Ireland,37,F-O,57.5,,,,,,,,,,,115,125,130,,130,130,D
Raw,2,58.5,Martina Higgings,F,Ireland,30,F-O,58.5,,,,,,,,,,,-125,125,-135,,125,125,D
Raw,1,58.5,Deirdre Langford,F,Ireland,22,F-JR,58.5,,,,,,,,,,,102.5,110,115,,115,115,D
Raw,1,63,Ann Thomas,F,UK,35,F-O,60.5,,,,,,,,,,,135,140,-145,,140,140,D
Raw,2,63,Louise Quinlivan-Nola,F,Ireland,35,F-O,61.3,,,,,,,,,,,-135,-135,135,,135,135,D
Raw,1,63,Helen Kostadinos,F,Australia,70,F-M7,61,,,,,,,,,,,100,-120,-120,,100,100,D
Raw,1,63,Mihaela Buia,F,Moldova,19,F-T3,61.5,,,,,,,,,,,85,92.5,100,,100,100,D
Raw,1,70,Assumpta Feeney,F,Ireland,37,F-O,69,,,,,,,,,,,140,150,155,,155,155,D
Raw,1,70,Sophie Estel,F,France,48,F-M2,68.9,,,,,,,,,,,140,147.5,-151,,147.5,147.5,D
Raw,1,70,Teresa Loi,F,Italy,52,F-M3,65.6,,,,,,,,,,,130,141,145,,145,145,D
Raw,2,70,Clare Patterson,F,Ireland,29,F-O,68.5,,,,,,,,,,,-125,132.5,142.5,,142.5,142.5,D
Raw,3,70,Asling Ward,F,Ireland,36,F-O,64.8,,,,,,,,,,,140,-145,-145,,140,140,D
Raw,4,70,Sylwia Majszyk,F,Ireland,36,F-O,66.8,,,,,,,,,,,127.5,135,140,,140,140,D
Raw,5,70,Jessica Perulli,F,Germany,38,F-O,64.8,,,,,,,,,,,115,125,135,,135,135,D
Raw,2,70,Nicola Elding,F,UK,46,F-M2,64.1,,,,,,,,,,,100,110,120,,120,120,D
Raw,1,80,Mary Anderson,F,Scotland,46,F-M2,78,,,,,,,,,,,150,162.5,175,,175,175,D
Raw,1,80,Lisa Duffy,F,Ireland,35,F-O,73.7,,,,,,,,,,,-147.5,150,165,,165,165,D
Raw,2,80,Michelle Moran,F,Ireland,32,F-O,74.8,,,,,,,,,,,120,137.5,142.5,,142.5,142.5,D
Raw,1,80,Aoife O'Leary,F,Ireland,18,F-T3,78.9,,,,,,,,,,,125,-135,-135,,125,125,D
Raw,1,80,Danielle O'Shea,F,Ireland,21,F-JR,77.4,,,,,,,,,,,107.5,115,-130.5,,115,115,D
Raw,1,90+,Arlette Bomahou,F,Ireland,38,F-O,109.5,,,,,,,,,,,160,167.5,-170,,167.5,167.5,D
Raw,DQ,56,Antonio Garau,M,Italy,28,M-O,54.2,,,,,,,,,,,-182.5,-182.5,,,,,D
Raw,1,60,James Caithness,M,UK,23,M-JR,57.4,,,,,,,,,,,135,145,-160,,145,145,D
Raw,1,60,Brendan Brophy,M,Ireland,18,M-T3,58.8,,,,,,,,,,,130,-140,-140,,130,130,D
Raw,DQ,60,Domenico Catricala,M,Italy,77,M-M8,57.1,,,,,,,,,,,-135,-145,-145,,,,D
Raw,1,67.5,Mirko Calisai,M,Italy,34,M-O,61.9,,,,,,,,,,,182.5,195,202.5,,202.5,202.5,D
Raw,2,67.5,Onufrei Dorinel,M,Italy,25,M-O,65.9,,,,,,,,,,,180,195,-202.5,,195,195,D
Raw,1,67.5,Kelvin Moynihan,M,Ireland,22,M-JR,66.9,,,,,,,,,,,187.5,192.5,-200,,192.5,192.5,D
Raw,2,67.5,Allesandro Boe,M,Italy,23,M-JR,61.6,,,,,,,,,,,160,175,187.5,,187.5,187.5,D
Raw,1,67.5,Dany Petremont,M,France,47,M-M2,66.5,,,,,,,,,,,160,175,185,,185,185,D
Raw,3,67.5,Dylan Lebatteu,M,France,20,M-JR,67.1,,,,,,,,,,,180,-190,-200,,180,180,D
Raw,3,67.5,Tim Van den Abbeele,M,Belgium,26,M-O,67.1,,,,,,,,,,,170,180,-192.5,,180,180,D
Raw,1,67.5,Thomas Stanzel,M,Germany,44,M-M1,65.9,,,,,,,,,,,160,170,-180,,170,170,D
Raw,1,67.5,Mihail Olaru,M,Moldova,19,M-T3,65.6,,,,,,,,,,,-160,160,165,,165,165,D
Raw,1,67.5,Roberto Gianello,M,Italy,59,M-M4,66.4,,,,,,,,,,,150,160,-165,,160,160,D
Raw,1,67.5,Adrian Ungureanu,M,Moldova,17,M-T2,66.9,,,,,,,,,,,150,155,160,,160,160,D
Raw,2,67.5,Robert Ferguson,M,UK,16,M-T2,61.9,,,,,,,,,,,130,-140,-145,,130,130,D
Raw,DQ,67.5,Richard Burke,M,Ireland,19,M-T3,67.1,,,,,,,,,,,-160,-160,-160,,,,D
Raw,DQ,67.5,David Neary,M,Ireland,26,M-O,66,,,,,,,,,,,-205,-205,-205,,,,D
Raw,DQ,67.5,Darren Boland,M,Belgium,39,M-O,66.3,,,,,,,,,,,-180,-190,-190,,,,D
Raw,DQ,67.5,Gennadii Lykhin,M,Russia,59,M-M4,65,,,,,,,,,,,-135,,,,,,D
Raw,1,75,Andrei Cojucari,M,Moldova,28,M-O,73.1,,,,,,,,,,,235,253,-257.5,,253,253,D
Raw,1,75,Serghei Glava,M,Moldova,20,M-JR,74.8,,,,,,,,,,,235,248,-250,,248,248,D
Raw,2,75,Joseph O'Rourke,M,Ireland,39,M-O,74.7,,,,,,,,,,,-235,240,-245,,240,240,D
Raw,2,75,Dario Dorizzi,M,Switzerland,23,M-JR,75,,,,,,,,,,,220,237.5,-247.5,,237.5,237.5,D
Raw,3,75,Simone Carli,M,Italy,29,M-O,72.9,,,,,,,,,,,230,-240,-240,,230,230,D
Raw,4,75,Chris Burns,M,Ireland,32,M-O,74.6,,,,,,,,,,,230,-240,-240,,230,230,D
Raw,3,75,Kenneth Malone,M,Ireland,23,M-JR,74.2,,,,,,,,,,,212.5,220,227.5,,227.5,227.5,D
Raw,5,75,Jérôme Boucher,M,France,37,M-O,72.2,,,,,,,,,,,215,-222.5,-222.5,,215,215,D
Raw,4,75,Arthur Enns,M,Germany,23,M-JR,70.6,,,,,,,,,,,200,212.5,-220,,212.5,212.5,D
Raw,6,75,Emmerik Vanhee,M,Belgium,24,M-O,71,,,,,,,,,,,195,205,212.5,,212.5,212.5,D
Raw,7,75,David Hodson,M,UK,29,M-O,74.1,,,,,,,,,,,210,-230,-230,,210,210,D
Raw,1,75,Riccardo Brancato,M,Switzerland,54,M-M3,74,,,,,,,,,,,190,-197.5,205,,205,205,D
Raw,5,75,Florian Brandt,M,Germany,21,M-JR,75,,,,,,,,,,,-205,205,-215,,205,205,D
Raw,8,75,Michele Marras,M,Italy,33,M-O,70.7,,,,,,,,,,,180,192.5,202.5,,202.5,202.5,D
Raw,1,75,James Heffernan,M,Ireland,19,M-T3,69.5,,,,,,,,,,,190,-200,200,,200,200,D
Raw,1,75,Jean-Claude D'Heilly,M,France,56,M-M4,74.6,,,,,,,,,,,180,200,-211.5,,200,200,D
Raw,9,75,Kim Houbracken,M,Belgium,30,M-O,70,,,,,,,,,,,192.5,197.5,-202.5,,197.5,197.5,D
Raw,2,75,Marc Vincent,M,France,54,M-M3,71.5,,,,,,,,,,,185,195,-202.5,,195,195,D
Raw,1,75,Ivan Smyth,M,Ireland,17,M-T2,73.3,,,,,,,,,,,180,195,-201,,195,195,D
Raw,2,75,Darren Fehilly,M,Ireland,17,M-T2,71.4,,,,,,,,,,,170,190,-202.5,,190,190,D
Raw,1,75,Salvatore Caneo,M,Italy,60,M-M5,68.6,,,,,,,,,,,165,175,182.5,,182.5,182.5,D
Raw,1,75,Daniel Delaporte,M,France,66,M-M6,72.9,,,,,,,,,,,160,-180,180,,180,180,D
Raw,6,75,Florian Labbe,M,France,22,M-JR,73.8,,,,,,,,,,,170,180,-185,,180,180,D
Raw,DQ,75,Adam Keane,M,Ireland,20,M-JR,74.2,,,,,,,,,,,-230,-230,-230,,,,D
Raw,1,82.5,Vitalie Ursu,M,Moldova,31,M-O,82.2,,,,,,,,,,,240,250,255,,255,255,D
Raw,1,82.5,Barry Pigott,M,Ireland,22,M-JR,81.5,,,,,,,,,,,250,-255,-255,,250,250,D
Raw,2,82.5,Daniel Ebert,M,Germany,26,M-O,82.4,,,,,,,,,,,235,247.5,-255,,247.5,247.5,D
Raw,3,82.5,David Heath,M,UK,34,M-O,81,,,,,,,,,,,220,235,242.5,,242.5,242.5,D
Raw,2,82.5,Anatoli Lisii,M,Moldova,21,M-JR,80.4,,,,,,,,,,,220,235,-250.5,,235,235,D
Raw,1,82.5,Neal Collinson,M,UK,50,M-M3,81,,,,,,,,,,,220,230,-235,,230,230,D
Raw,4,82.5,Eoghan Carroll,M,Ireland,24,M-O,81.5,,,,,,,,,,,215,230,-242.5,,230,230,D
Raw,1,82.5,Thomas Coyle,M,Ireland,49,M-M2,81.9,,,,,,,,,,,210,230,-243,,230,230,D
Raw,1,82.5,Williams Cacciato,M,Italy,40,M-M1,79.7,,,,,,,,,,,200,210,220,,220,220,D
Raw,1,82.5,Ian Farrell,M,Ireland,17,M-T2,77.7,,,,,,,,,,,180,200,210,,210,210,D
Raw,2,82.5,Lorenzo Dore,M,Italy,48,M-M2,78.6,,,,,,,,,,,180,192.5,210,,210,210,D
Raw,5,82.5,Connor McGuigan,M,Ireland,25,M-O,78.7,,,,,,,,,,,-205,-205,205,,205,205,D
Raw,6,82.5,Dan Hurley,M,Ireland,30,M-O,79.8,,,,,,,,,,,200,-210,-210,,200,200,D
Raw,1,82.5,Darren Horgan,M,Ireland,19,M-T3,80.5,,,,,,,,,,,190,200,-210,,200,200,D
Raw,2,82.5,Andy Mooney,M,Ireland,19,M-T3,80.8,,,,,,,,,,,200,-220,-220,,200,200,D
Raw,3,82.5,Thomas Hanosek,M,Germany,48,M-M2,81,,,,,,,,,,,-190,190,-210,,190,190,D
Raw,1,82.5,José Fleury,M,Switzerland,55,M-M4,81.3,,,,,,,,,,,170,180,190,,190,190,D
Raw,3,82.5,Iulian Batranac,M,Moldova,18,M-T3,81.4,,,,,,,,,,,-180,190,-202.5,,190,190,D
Raw,2,82.5,Robert O'Connor,M,Ireland,16,M-T2,75.6,,,,,,,,,,,160,170,180,,180,180,D
Raw,1,82.5,Francis Spiteri,M,Malta,65,M-M6,81.5,,,,,,,,,,,170,180,-190,,180,180,D
Raw,1,82.5,Georgiy Lazaridi,M,Russia,80,M-M9,82,,,,,,,,,,,150,160,-170,,160,160,D
Raw,1,82.5,Mike Davies #2,M,UK,75,M-M8,79.9,,,,,,,,,,,-110,110,-130,,110,110,D
Raw,DQ,82.5,David Bracken,M,Ireland,18,M-T3,79.1,,,,,,,,,,,-195,-195,-195,,,,D
Raw,1,90,Andy Murtagh,M,Ireland,48,M-M2,88,,,,,,,,,,,275,-282.5,285,,285,285,D
Raw,1,90,Vladimir Gruia,M,Moldova,24,M-O,89.8,,,,,,,,,,,260,270,,,270,270,D
Raw,1,90,Jonathan Valentin,M,France,22,M-JR,89.6,,,,,,,,,,,260,262.5,-267.5,,262.5,262.5,D
Raw,2,90,Carlos Pereyra,M,Italy,23,M-JR,83.1,,,,,,,,,,,240,260,-265,,260,260,D
Raw,1,90,Martin Kukowka,M,Germany,41,M-M1,86.8,,,,,,,,,,,230,240,247.5,,247.5,247.5,D
Raw,2,90,Christoph Wickert,M,Germany,30,M-O,85.8,,,,,,,,,,,235,245,-250,,245,245,D
Raw,3,90,Francis Durier,M,France,28,M-O,87.6,,,,,,,,,,,245,-252.5,-252.5,,245,245,D
Raw,4,90,Markus Peschel,M,Germany,27,M-O,87.6,,,,,,,,,,,240,-252.5,,,240,240,D
Raw,2,90,Patrick Valfrey,M,France,49,M-M2,88.6,,,,,,,,,,,215,230,240,,240,240,D
Raw,5,90,Micha Lehmann,M,Switzerland,26,M-O,89.5,,,,,,,,,,,220,230,240,,240,240,D
Raw,6,90,Robert Schwarz,M,Germany,27,M-O,87.2,,,,,,,,,,,210,230,-235,,230,230,D
Raw,1,90,Gerhard Spies,M,Germany,51,M-M3,87.6,,,,,,,,,,,230,-240,,,230,230,D
Raw,7,90,David Moore #13,M,Ireland,27,M-O,87,,,,,,,,,,,215,-225,225,,225,225,D
Raw,3,90,Mark Cleary,M,Ireland,21,M-JR,89.2,,,,,,,,,,,220,-230,-230,,220,220,D
Raw,1,90,Giuseppe Caria,M,Italy,57,M-M4,86.1,,,,,,,,,,,200,210,-220,,210,210,D
Raw,8,90,Christian Kuhn,M,Germany,29,M-O,88.9,,,,,,,,,,,205,210,-220,,210,210,D
Raw,2,90,Angelo Pasqualino,M,Italy,50,M-M3,87,,,,,,,,,,,180,200,-220,,200,200,D
Raw,1,90,René Ulrich,M,Switzerland,74,M-M7,87.9,,,,,,,,,,,175,185,-195,,185,185,D
Raw,DQ,90,Dorian Beldjord,M,France,20,M-JR,87.3,,,,,,,,,,,-210,,,,,,D
Raw,DQ,90,Damien Neil,M,Ireland,27,M-O,87.2,,,,,,,,,,,-205,,,,,,D
Raw,1,100,Thomas McGovern #2,M,Scotland,30,M-O,98.1,,,,,,,,,,,270,277.5,-303,,277.5,277.5,D
Raw,2,100,Ramon Gysin,M,Switzerland,30,M-O,99.6,,,,,,,,,,,267.5,277.5,-290,,277.5,277.5,D
Raw,3,100,Austin Hickey,M,Ireland,34,M-O,98.7,,,,,,,,,,,245,272.5,,,272.5,272.5,D
Raw,4,100,Fabien Pollet,M,France,29,M-O,98.2,,,,,,,,,,,265,-275,-275,,265,265,D
Raw,1,100,Serge Bustreel,M,France,68,M-M6,95.4,,,,,,,,,,,227.5,240,246,,246,246,D
Raw,5,100,Harbans Bansal,M,UK,36,M-O,97.9,,,,,,,,,,,220,230,245,,245,245,D
Raw,6,100,John Brophy,M,Ireland,29,M-O,91.3,,,,,,,,,,,235,-240,-240,,235,235,D
Raw,7,100,Matthew Paynter,M,UK,34,M-O,95.3,,,,,,,,,,,230,-250,,,230,230,D
Raw,1,100,Darren Greville,M,UK,43,M-M1,99.7,,,,,,,,,,,205,230,-235,,230,230,D
Raw,1,100,Arthur Greene,M,Ireland,16,M-T2,90.7,,,,,,,,,,,155,170,-180,,170,170,D
Raw,1,110,Dumitru Sacaliuc,M,Moldova,26,M-O,109.3,,,,,,,,,,,300,-312.5,317.5,,317.5,317.5,D
Raw,2,110,Steven Haswell,M,UK,33,M-O,105.2,,,,,,,,,,,300,310,-317.5,,310,310,D
Raw,3,110,Barry Healy,M,Ireland,32,M-O,106.9,,,,,,,,,,,290,-295,-295,,290,290,D
Raw,4,110,Christof Kellenberger,M,Switzerland,29,M-O,107.6,,,,,,,,,,,270,280,-285,,280,280,D
Raw,1,110,Alistair Murdoch,M,UK,47,M-M2,107.2,,,,,,,,,,,265,-275,,,265,265,D
Raw,5,110,Cleaven Cutajar,M,Malta,26,M-O,107.9,,,,,,,,,,,230,242.5,252.5,,252.5,252.5,D
Raw,DQ,110,Michael Bauer #1,M,Germany,30,M-O,104.7,,,,,,,,,,,-285,-285,-285,,,,D
Raw,1,125,James Hickey,M,Ireland,37,M-O,119.2,,,,,,,,,,,300,-331,-331,,300,300,D
Raw,2,125,Sullivan Porquet,M,France,38,M-O,124.4,,,,,,,,,,,270,290,-295,,290,290,D
Raw,1,125,Patrick Ruch,M,France,51,M-M3,121,,,,,,,,,,,252.5,265,272.5,,272.5,272.5,D
Raw,1,125,Andre Du Plessis,M,Ireland,49,M-M2,124,,,,,,,,,,,230,245,-255,,245,245,D
Raw,1,125,Tomas Cuddihy,M,Ireland,43,M-M1,118.1,,,,,,,,,,,220,240,,,240,240,D
Raw,1,125,Alexander Kohne,M,Germany,19,M-T3,115.6,,,,,,,,,,,220,230,235,,235,235,D
Raw,1,125,Eoin O'Leary,M,Ireland,22,M-JR,121.5,,,,,,,,,,,235,-255,-255,,235,235,D
Raw,2,125,Igor Bogdanov,M,Estonia,42,M-M1,113.2,,,,,,,,,,,220,,,,220,220,D
Raw,2,125,Robert Maier,M,Germany,18,M-T3,112.2,,,,,,,,,,,195,215,-225,,215,215,D
Raw,2,125,Valentin Danilov,M,Moldova,23,M-JR,114.5,,,,,,,,,,,210,,,,210,210,D
Raw,DQ,125,David Jones #15,M,Ireland,23,M-JR,114.3,,,,,,,,,,,-245,-245,-245,,,,D
Raw,1,145,Heiner Hansen,M,Germany,52,M-M3,132.8,,,,,,,,,,,230,250,-262.5,,250,250,D
Raw,1,145,Karlheinz Winkler,M,Germany,49,M-M2,125.3,,,,,,,,,,,220,,,,220,220,D
Single-ply,1,63,Thomas,F,UK,35,F-O,60.5,,,,,,,,,,,135,-145,-145,,135,135,D
Single-ply,1,63,Helen Kostadinos,F,Australia,70,F-M7,61,,,,,,,,,,,100,110,120,,120,120,D
Single-ply,1,80,Mary Anderson,F,Scotland,46,F-M2,78,,,,,,,,,,,185,195,-200,,195,195,D
Single-ply,1,90+,Arlette Bomahou,F,Ireland,38,F-O,109.5,,,,,,,,,,,162.5,-170,-170,,162.5,162.5,D
Single-ply,1,56,Mario Toncu,M,Italy,58,M-M4,55.6,,,,,,,,,,,145,165,170,,170,170,D
Single-ply,DQ,56,Antonio Garau,M,Italy,28,M-O,54.2,,,,,,,,,,,-182.5,-182.5,,,,,D
Single-ply,1,67.5,Mirko Calisai,M,Italy,34,M-O,61.9,,,,,,,,,,,180,187.5,200,,200,200,D
Single-ply,2,67.5,Tim Van den Abbeele,M,Belgium,26,M-O,67.1,,,,,,,,,,,180,190,-200,,190,190,D
Single-ply,1,67.5,Roberto Gianello,M,Italy,59,M-M4,66.4,,,,,,,,,,,160,175,,,175,175,D
Single-ply,1,75,Andrei Cojucari,M,Moldova,28,M-O,73.1,,,,,,,,,,,230,240,250,,250,250,D
Single-ply,2,75,Emmerik Vanhee,M,Belgium,24,M-O,71,,,,,,,,,,,205,215,225,,225,225,D
Single-ply,1,75,Christophe Cherel,M,France,47,M-M2,72.8,,,,,,,,,,,205,217.5,222.5,,222.5,222.5,D
Single-ply,3,75,Giovannino Pinna,M,Italy,26,M-O,74.3,,,,,,,,,,,200,210,220,,220,220,D
Single-ply,1,75,Jean-Claude D'Heilly,M,France,56,M-M4,74.6,,,,,,,,,,,205,220.5,-230,,220.5,220.5,D
Single-ply,4,75,Michele Marras,M,Italy,33,M-O,70.7,,,,,,,,,,,187.5,195,205,,205,205,D
Single-ply,1,75,Serghei Glava,M,Moldova,20,M-JR,74.8,,,,,,,,,,,200,,,,200,200,D
Single-ply,1,75,Salvatore Caneo,M,Italy,60,M-M5,68.6,,,,,,,,,,,-165,170,185,,185,185,D
Single-ply,5,75,Kim Houbracken,M,Belgium,30,M-O,70,,,,,,,,,,,187.5,,,,187.5,187.5,D
Single-ply,1,82.5,Kenneth Taaffe,M,Ireland,40,M-M1,81,,,,,,,,,,,250,270,-275,,270,270,D
Single-ply,1,82.5,Massimo Carpo,M,Italy,36,M-O,82.5,,,,,,,,,,,250,270,-275,,270,270,D
Single-ply,2,82.5,Chris Morgan #1,M,UK,41,M-M1,81.7,,,,,,,,,,,220,252.5,-277.5,,252.5,252.5,D
Single-ply,1,82.5,Anatoli Lisii,M,Moldova,21,M-JR,80.4,,,,,,,,,,,220,230,,,230,230,D
Single-ply,1,82.5,Sergey Dermelev,M,Estonia,54,M-M3,81,,,,,,,,,,,220,-255,-255,,220,220,D
Single-ply,1,82.5,Michael Phillips,M,UK,59,M-M4,80.8,,,,,,,,,,,215,-235,-235,,215,215,D
Single-ply,1,90,Benny Verbeke,M,Belgium,48,M-M2,87.1,,,,,,,,,,,280,300,-307.5,,300,300,D
Single-ply,1,90,David Twomey,M,Ireland,22,M-JR,90,,,,,,,,,,,240,-250,-250,,240,240,D
Single-ply,1,90,Christoph Wickert,M,Germany,30,M-O,85.8,,,,,,,,,,,215,225,235,,235,235,D
Single-ply,1,90,Giuseppe Caria,M,Italy,57,M-M4,86.1,,,,,,,,,,,200,-210,,,200,200,D
Single-ply,1,100,Salvatore Putrino,M,Italy,57,M-M4,97.2,,,,,,,,,,,220,240,-251,,240,240,D
Single-ply,1,100,Austin Hickey,M,Ireland,34,M-O,98.7,,,,,,,,,,,230,,,,230,230,D
Single-ply,1,100,Vjatseslav Kudrjavtsev,M,Estonia,75,M-M8,91,,,,,,,,,,,127.5,135,140,,140,140,D
Single-ply,1,110,Alexander Geitner,M,Germany,36,M-O,104.4,,,,,,,,,,,275,290,305,,305,305,D
Single-ply,2,110,Barry Healy,M,Ireland,32,M-O,106.9,,,,,,,,,,,290,295,305,,305,305,D
Single-ply,1,110,Joël Godon,M,France,57,M-M4,109.3,,,,,,,,,,,255,272.5,,,272.5,272.5,D
Single-ply,1,110,Gianni Vermote,M,Belgium,41,M-M1,110,,,,,,,,,,,245,257.5,-262.5,,257.5,257.5,D
Single-ply,1,110,John Walker #6,M,UK,74,M-M7,103,,,,,,,,,,,215,225,230,,230,230,D
Single-ply,2,110,Jagir Singh,M,UK,55,M-M4,101.9,,,,,,,,,,,190,205,220,,220,220,D
Single-ply,1,110,Steve Kempen,M,UK,48,M-M2,109.5,,,,,,,,,,,-210,210,,,210,210,D
Single-ply,1,110,François Chazelle,M,France,76,M-M8,101,,,,,,,,,,,200,-215,-215,,200,200,D
Single-ply,3,110,Brian Mitchell,M,UK,59,M-M4,109.7,,,,,,,,,,,190,,,,190,190,D
Single-ply,1,125,James Hickey,M,Ireland,37,M-O,119.2,,,,,,,,,,,280,-326,,,280,280,D
Single-ply,2,125,Brian Coombes,M,Ireland,38,M-O,122.6,,,,,,,,,,,245,260,-282.5,,260,260,D
Single-ply,1,125,Tomas Cuddihy,M,Ireland,43,M-M1,118.1,,,,,,,,,,,230,,,,230,230,D
Single-ply,DQ,125,Valentin Danilov,M,Moldova,23,M-JR,114.5,,,,,,,,,,,-217.5,-217.5,-217.5,,,,D
Single-ply,1,145,Karlheinz Winkler,M,Germany,49,M-M2,125.3,,,,,,,,,,,230,-240,,,230,230,D
