Equipment,Tested,Place,Name,Division,BirthYear,Country,BodyweightKg,Squat1Kg,Squat2Kg,Squat3Kg,Best3SquatKg,Bench1Kg,Bench2Kg,Bench3Kg,Best3BenchKg,Bench4Kg,Deadlift1Kg,Deadlift2Kg,Deadlift3Kg,Best3DeadliftKg,Deadlift4Kg,TotalKg,WeightClassKg,Sex,CyrillicName,Event
Wraps,Yes,1,Anastasiya Zakharchenko #1,Teen 16-17,1999,Ukraine,47.1,85,95,-100,95,35,-37.5,37.5,37.5,,-105,105,110,110,,242.5,48,F,Анастасія Захарченко,SBD
Wraps,Yes,1,Irina Dichenko,Teen 18-19,1996,Ukraine,47.5,95,100,102.5,102.5,50,55,-57.5,55,,-95,95,97.5,97.5,,255,48,F,Ірина Диченко,SBD
Wraps,Yes,1,Irina Dichenko,Open,1996,Ukraine,47.5,95,100,102.5,102.5,50,55,-57.5,55,,-95,95,97.5,97.5,,255,48,F,Ірина Диченко,SBD
Wraps,Yes,1,Oksana Prikhodko,Open,1991,Ukraine,51.95,120,130,-137.5,130,70,77.5,,77.5,,130,142.5,-152.5,142.5,,350,52,F,Оксана Приходько,SBD
Wraps,Yes,2,Olena Cheremnova,Open,1983,Ukraine,51.45,-90,-90,105,105,45,52.5,-57.5,52.5,,-95,95,110,110,,267.5,52,F,Олена Черемнова,SBD
Wraps,Yes,DQ,Olga Klishta,Open,1989,Ukraine,50.2,80,-90,-90,80,45,-47.5,47.5,47.5,,-90,-105,-105,,,,52,F,Ольга Клишта,SBD
Wraps,Yes,1,Anastasiya Bayborodina,Juniors 20-23,1993,Ukraine,55.75,100,107.5,115,115,55,-62.5,65,65,,100,105,115,115,,295,56,F,Анастасія Байбородіна,SBD
Wraps,Yes,2,Anastasiya Voschenko,Juniors 20-23,1995,Ukraine,54.65,90,100,-105,100,60,-65,-65,60,,100,110,115,115,,275,56,F,Анастасія Вощенко,SBD
Wraps,Yes,1,Anastasiya Bayborodina,Open,1993,Ukraine,55.75,100,107.5,115,115,55,-62.5,65,65,,100,105,115,115,,295,56,F,Анастасія Байбородіна,SBD
Wraps,Yes,2,Nataliya Kushvid,Open,1977,Ukraine,52.85,90,100,110,110,50,-55,-55,50,,110,117.5,-125,117.5,,277.5,56,F,Наталія Кушвід,SBD
Wraps,Yes,3,Tetyana Dzvinchuk,Open,1982,Ukraine,55.15,75,82.5,-90,82.5,-40,40,-42.5,40,,100,107.5,-115,107.5,,230,56,F,Тетяна Дзвінчук,SBD
Wraps,Yes,DQ,Irina Rozdobudko,Open,1987,Ukraine,55.8,-70,-70,-70,,,,,,,,,,,,,56,F,Ірина Роздобудько,SBD
Wraps,Yes,DD,Liana Grybanovska,Teen 16-17,2000,Ukraine,58.8,90,100,-105,100,47.5,52.5,-55,52.5,,102.5,110,115,115,,,60,F,Ліана Грибановська,SBD
Wraps,Yes,1,Katerina Prokopenko,Teen 18-19,1996,Ukraine,59.8,-90,-100,100,100,45,50,-52.5,50,,112.5,115,-120,115,,265,60,F,Катерина Прокопенко,SBD
Wraps,Yes,DQ,Bogdana Chernenko,Teen 18-19,1998,Ukraine,57.6,-90,-90,-90,,,,,,,,,,,,,60,F,Богдана Черненко,SBD
Wraps,Yes,1,Marina Tekuchova,Juniors 20-23,1994,Ukraine,60,85,95,100,100,57.5,-60,-60,57.5,,90,95,-100,95,,252.5,60,F,Марина Текучева,SBD
Wraps,Yes,2,Katerina Lugova,Juniors 20-23,1995,Ukraine,57.55,80,-85,87.5,87.5,42.5,47.5,-52.5,47.5,,85,90,95,95,,230,60,F,Катерина Лугова,SBD
Wraps,Yes,3,Marina Galata,Juniors 20-23,1994,Ukraine,57.9,85,90,-100,90,45,-52.5,-52.5,45,,85,95,-100,95,,230,60,F,Марина Галата,SBD
Wraps,Yes,1,Nataliya Sokurenko,Open,1981,Ukraine,60,110,120,-125,120,62.5,65,67.5,67.5,,-110,115,120,120,,307.5,60,F,Наталія Сокуренко,SBD
Wraps,Yes,2,Yanina Karpeeva,Open,1980,Ukraine,59.15,105,-115,-120,105,62.5,67.5,70,70,,120,130,,130,,305,60,F,Яніна Карпєєва,SBD
Wraps,Yes,3,Anna Tkachuk,Open,1989,Ukraine,59.7,100,107.5,-110,107.5,50,55,57.5,57.5,,115,120,125,125,,290,60,F,Анна Ткачук,SBD
Wraps,Yes,4,Katerina Prokopenko,Open,1996,Ukraine,59.8,-90,-100,100,100,45,50,-52.5,50,,112.5,115,-120,115,,265,60,F,Катерина Прокопенко,SBD
Wraps,Yes,5,Marina Galata,Open,1994,Ukraine,57.9,85,90,-100,90,45,-52.5,-52.5,45,,85,95,-100,95,,230,60,F,Марина Галата,SBD
Wraps,Yes,1,Nadiya Tischenko,Juniors 20-23,1993,Ukraine,65.25,100,-110,115,115,70,-75,75,75,,95,105,110,110,,300,67.5,F,Надія Тищенко,SBD
Wraps,Yes,1,Tetyana Tkachenko,Open,1983,Ukraine,64.4,-90,95,-105,95,50,60,-65,60,,100,110,120,120,,275,67.5,F,Тетяна Ткаченко,SBD
Wraps,Yes,DQ,Margarita Matyushenko,Open,1984,Ukraine,66.9,-150,-150,-150,,,,,,,,,,,,,67.5,F,Маргарита Матюшенко,SBD
Wraps,Yes,DQ,Nataliya Kostenko,Open,1988,Ukraine,67.1,-90,-100,-100,,,,,,,,,,,,,67.5,F,Наталія Костенко,SBD
Wraps,Yes,DQ,Yuliya Olizarenko,Open,1989,Ukraine,72.05,115,125,-130,125,-75,-75,-75,,,,,,,,,75,F,Юлія Олізаренко,SBD
Wraps,Yes,1,Inna Zhovta,Open,1981,Ukraine,80.6,90,-100,-115,90,50,52.5,-55,52.5,,85,95,105,105,,247.5,82.5,F,Інна Жовта,SBD
Wraps,Yes,1,Dmitro Ardashov,Teen 13-15,2001,Ukraine,45.65,-80,80,-95,80,40,45,50,50,,80,90,-95,90,,220,52,M,Дмитро Ардашов,SBD
Wraps,Yes,1,Egor Kislinskiy,Teen 13-15,2002,Ukraine,59.3,90,105,-120,105,50,-60,60,60,,90,105,-115,105,,270,60,M,Єгор Кислинський,SBD
Wraps,Yes,1,Vladislav Vishnevskiy #1,Teen 16-17,1998,Ukraine,57.8,-100,-100,100,100,62.5,65,70,70,,105,110,115,115,,285,60,M,Владислав Вишневський,SBD
Wraps,Yes,1,Pavlo Pidobid,Teen 13-15,2000,Ukraine,65.2,110,115,122.5,122.5,72.5,77.5,-80,77.5,,110,120,125,125,,325,67.5,M,Павло Підобід,SBD
Wraps,Yes,1,Oleksiy Krokhmalenko,Teen 18-19,1997,Ukraine,67.5,170,185,200,200,100,110,117.5,117.5,,170,182.5,190,190,,507.5,67.5,M,Олексій Крохмаленко,SBD
Wraps,Yes,1,Evgen Samoylenko,Juniors 20-23,1995,Ukraine,64.25,185,195,-205,195,105,110,112.5,112.5,,170,-180,-180,170,,477.5,67.5,M,Євген Самойленко,SBD
Wraps,Yes,2,Artur Shpakov,Juniors 20-23,1993,Ukraine,67.25,160,165,175,175,95,100,-105,100,,185,190,200,200,,475,67.5,M,Артур Шпаков,SBD
Wraps,Yes,3,Oleksandr Onischenko #2,Juniors 20-23,1996,Ukraine,65.6,130,132.5,137.5,137.5,85,90,-92.5,90,,140,150,155,155,,382.5,67.5,M,Олександр Оніщенко,SBD
Wraps,Yes,1,Andriy Dikha,Open,1989,Ukraine,63.4,-115,125,-135,125,-90,-95,95,95,,150,165,-185,165,,385,67.5,M,Андрій Диха,SBD
Wraps,Yes,1,Arsen Kozak,Teen 16-17,1999,Ukraine,74.45,155,170,-180,170,100,105,-107.5,105,,190,200,-210,200,,475,75,M,Арсен Козак,SBD
Wraps,Yes,1,Evgeniy Boloban,Teen 18-19,1996,Ukraine,74.15,225,237.5,-252.5,237.5,155,162.5,-172.5,162.5,,190,200,207.5,207.5,,607.5,75,M,Євгеній Болобан,SBD
Wraps,Yes,2,Viktor Pirog,Teen 18-19,1996,Ukraine,73.2,-190,190,-207.5,190,100,107.5,-117.5,107.5,,160,170,182.5,182.5,,480,75,M,Віктор Пирог,SBD
Wraps,Yes,3,Andriy Stonoga,Teen 18-19,1996,Ukraine,68.3,135,145,-150,145,85,95,-102.5,95,,140,150,-155,150,,390,75,M,Андрій Стонога,SBD
Wraps,Yes,1,Timur Potreba,Juniors 20-23,1993,Ukraine,74,170,-182.5,-182.5,170,110,120,-127.5,120,,-205,205,225.5,225.5,,515.5,75,M,Тімур Потреба,SBD
Wraps,Yes,2,Artem Tislenko,Juniors 20-23,1993,Ukraine,72.1,155,165,170,170,110,117.5,-125,117.5,,160,175,-190,175,,462.5,75,M,Артем Тисленко,SBD
Wraps,Yes,1,Evgeniy Boloban,Open,1996,Ukraine,74.15,225,237.5,-252.5,237.5,155,162.5,-172.5,162.5,,190,200,207.5,207.5,,607.5,75,M,Євгеній Болобан,SBD
Wraps,Yes,2,Ivan Poprotskiy,Open,1990,Ukraine,73.45,200,-210,212.5,212.5,140,145,-150,145,,220,232.5,237.5,237.5,,595,75,M,Іван Попроцкий,SBD
Wraps,Yes,3,Ivan Kapelyukh,Open,1985,Ukraine,74.65,170,180,190,190,135,140,-142.5,140,,215,225,237.5,237.5,,567.5,75,M,Іван Капелюх,SBD
Wraps,Yes,4,Dmitro Shpak,Open,1991,Ukraine,73.85,170,-200,-205,170,-110,110,-115,110,,170,185,-195,185,,465,75,M,Дмитро Шпак,SBD
Wraps,Yes,5,Oleg Kis,Open,1991,Ukraine,72.35,150,-165,-172.5,150,95,105,-115,105,,170,185,-190,185,,440,75,M,Олег Кись,SBD
Wraps,Yes,DQ,Viktor Kondratyuk,Open,1987,Ukraine,73.65,-190,-190,-190,,,,,,,,,,,,,75,M,Віктор Кондратюк,SBD
Wraps,Yes,1,Dmitro Shapoval,Teen 16-17,1999,Ukraine,81,210,-225,235,235,110,120,-135,120,,225,240,-250,240,,595,82.5,M,Дмитро Шаповал,SBD
Wraps,Yes,1,Anton Voykov,Teen 18-19,1996,Ukraine,78.35,-200,210,220,220,-130,130,-135,130,,220,235,245,245,,595,82.5,M,Антон Войков,SBD
Wraps,Yes,DQ,Dmitro Paterilo,Teen 18-19,1996,Ukraine,77.65,-170,-170,-170,,120,,,120,,210,,,210,,,82.5,M,Дмитро Патерило,SBD
Wraps,Yes,1,Artur Nechas,Juniors 20-23,1994,Ukraine,78.85,190,-202.5,-202.5,190,130,-140,140,140,,230,240,252.5,252.5,,582.5,82.5,M,Артур Нечас,SBD
Wraps,Yes,2,Maksim Korchuk,Juniors 20-23,1995,Ukraine,81.65,190,205,,205,120,130,-135,130,,200,215,230,230,,565,82.5,M,Максим Корчук,SBD
Wraps,Yes,3,Maksim Melaschenko,Juniors 20-23,1993,Ukraine,81.4,180,190,200,200,125,130,135,135,,165,-180,190,190,,525,82.5,M,Максим Мелащенко,SBD
Wraps,Yes,DQ,Andriy Oseredko,Juniors 20-23,1994,Ukraine,79.25,-210,-210,,,,,,,,,,,,,,82.5,M,Андрій Осередько,SBD
Wraps,Yes,DQ,Oleksandr Kalinichenko,Juniors 20-23,1994,Ukraine,81.25,-140,140,-150,140,-120,-120,-120,,,,,,,,,82.5,M,Олександр Калініченко,SBD
Wraps,Yes,1,Vitaliy Pasechnik,Open,1985,Ukraine,77.7,-210,215,230,230,130,137.5,140,140,,240,252.5,260,260,,630,82.5,M,Віталій Пасечник,SBD
Wraps,Yes,2,Vladislav Dotsenko,Open,1987,Ukraine,75.4,180,-190,190,190,130,-135,-135,130,,200,-210,-210,200,,520,82.5,M,Владислав Доценко,SBD
Wraps,Yes,3,Roman Strizhak,Open,1991,Ukraine,78.7,-185,185,-195,185,105,110,117.5,117.5,,180,190,195,195,,497.5,82.5,M,Роман Стрижак,SBD
Wraps,Yes,DQ,Oleksandr Chorniy,Open,1989,Ukraine,81.45,-190,-200,-210,,,,,,,,,,,,,82.5,M,Олександр Чорний,SBD
Wraps,Yes,1,Sergiy Romanko,Teen 18-19,1996,Ukraine,85.65,155,-165,-165,155,130,137.5,-140,137.5,,190,205,215,215,,507.5,90,M,Сергій Романко,SBD
Wraps,Yes,1,Artem Shitiy,Juniors 20-23,1992,Ukraine,90,255,270,280,280,170,180,-182.5,180,,250,260,-265,260,,720,90,M,Артем Шитий,SBD
Wraps,Yes,2,Bogdan Fedko,Juniors 20-23,1994,Ukraine,85.75,220,230,240,240,130,137.5,-142.5,137.5,,235,245,-262.5,245,,622.5,90,M,Богдан Федько,SBD
Wraps,Yes,1,Sergiy Vdovichenko,Open,1984,Ukraine,86.95,190,200,-210,200,145,150,-152.5,150,,215,-235,240,240,,590,90,M,Сергій Вдовиченко,SBD
Wraps,Yes,2,Maksim Lapa,Open,1990,Ukraine,85.45,200,210,220,220,120,-127.5,-132.5,120,,190,200,-212.5,200,,540,90,M,Максим Лапа,SBD
Wraps,Yes,3,Daniil Sandak,Open,1990,Ukraine,87.1,-170,180,-190,180,125,137.5,142.5,142.5,,190,200,207.5,207.5,,530,90,M,Даніїл Сандак,SBD
Wraps,Yes,4,Viktor Borinets,Open,1989,Ukraine,85.6,-150,155,170,170,-135,135,140,140,,190,200,-210,200,,510,90,M,Віктор Боринец,SBD
Wraps,Yes,1,Oleg Lungu,Masters 40-44,1972,Ukraine,88.6,190,210,230,230,110,117.5,-122.5,117.5,,210,220,-230,220,,567.5,90,M,Олег Лунгу,SBD
Wraps,Yes,2,Vasil Khrunik,Masters 40-44,1974,Ukraine,87.3,-165,170,175,175,110,120,-125,120,,200,215,220,220,,515,90,M,Василь Хруник,SBD
Wraps,Yes,3,Oleksandr Drobilko,Masters 40-44,1972,Ukraine,86.15,140,150,160,160,-115,-115,115,115,,-170,170,180,180,,455,90,M,Олександр Дробілко,SBD
Wraps,Yes,1,Viktor Poshtarenko,Masters 45-49,1970,Ukraine,86,170,-177.5,-177.5,170,-120,125,127.5,127.5,,190,-205,217.5,217.5,,515,90,M,Віктор Поштаренко,SBD
Wraps,Yes,DQ,Gennadiy Ostrovskiy,Masters 50-54,1965,Ukraine,85.3,-190,-190,-190,,,,,,,,,,,,,90,M,Геннадій Островський,SBD
Wraps,Yes,1,Denis Oliynik,Teen 18-19,1996,Ukraine,99,-210,-210,220,220,145,-150,-150,145,,210,225,235,235,,600,100,M,Денис Олійник,SBD
Wraps,Yes,2,V'yacheslav Muzika,Teen 18-19,1996,Ukraine,99.6,-170,175,185,185,105,115,-125,115,,160,-170,170,170,,470,100,M,В'ячеслав Музика,SBD
Wraps,Yes,1,Oleksandr Shevtsov,Open,1985,Ukraine,95.95,240,250,-260,250,135,142.5,-147.5,142.5,,230,240,-245,240,,632.5,100,M,Олександр Шевцов,SBD
Wraps,Yes,2,Vitaliy Lisenko,Open,1988,Ukraine,97.35,205,215,222.5,222.5,140,-147.5,-147.5,140,,230,240,252.5,252.5,,615,100,M,Віталій Лисенко,SBD
Wraps,Yes,3,Evgen Omelyanovskiy,Open,1989,Ukraine,96.8,140,155,170,170,130,-140,140,140,,170,180,190,190,,500,100,M,Євген Омельяновський,SBD
Wraps,Yes,1,Vitaliy Podust,Masters 40-44,1976,Ukraine,99.55,220,240,-260,240,150,155,160,160,,220,230,240,240,,640,100,M,Віталій Подуст,SBD
Wraps,Yes,2,Oleg Vaschuk,Masters 40-44,1972,Ukraine,98,160,175,-185,175,135,140,-145,140,,200,210,-215,210,,525,100,M,Олег Ващук,SBD
Wraps,Yes,DQ,Volodimir Kolomiets,Masters 45-49,1966,Ukraine,99.4,-170,-170,-170,,,,,,,,,,,,,100,M,Володимир Коломіець,SBD
Wraps,Yes,1,Andriy Gerbut,Masters 50-54,1964,Ukraine,95.65,120,-150,-150,120,100,-105,-110,100,,150,170,-190,170,,390,100,M,Андрій Гербут,SBD
Wraps,Yes,1,Artem Karpovich,Juniors 20-23,1993,Ukraine,106.2,-190,190,205,205,125,135,-145,135,,190,205,220,220,,560,110,M,Артем Карпович,SBD
Wraps,Yes,1,Igor Zaychuk,Open,1989,Ukraine,106.75,220,-240,240,240,170,180,-190,180,,270,290,-300,290,,710,110,M,Ігор Зайчук,SBD
Wraps,Yes,2,Oleksandr Tarasov,Open,1991,Ukraine,105.6,200,-215,-215,200,170,180,-190,180,,260,-275,275,275,,655,110,M,Олександр Тарасов,SBD
Wraps,Yes,3,Evgen Shapinskiy,Open,1978,Ukraine,108.25,220,-240,240,240,160,-170,-170,160,,240,255,,255,,655,110,M,Євген Шапінський,SBD
Wraps,Yes,4,Sergiy Rudoy,Open,1986,Ukraine,104.15,220,230,240,240,140,150,155,155,,240,255,-260,255,,650,110,M,Сергій Рудой,SBD
Wraps,Yes,5,Stanislav Poruban,Open,1986,Ukraine,106.7,-220,220,-230,220,162.5,170,-177.5,170,,230,240,250,250,,640,110,M,Станіслав Порубан,SBD
Wraps,Yes,DQ,Volodymyr Lebedev #2,Open,1961,Ukraine,109.3,-230,-230,-250,,,,,,,,,,,,,110,M,Володимир Лебєдєв,SBD
Wraps,Yes,DQ,Volodymyr Lebedev #2,Masters 50-54,1961,Ukraine,109.3,-230,-230,-250,,,,,,,,,,,,,110,M,Володимир Лебєдєв,SBD
Wraps,Yes,1,Igor Kotsyuba,Open,1982,Ukraine,115.4,210,230,250,250,145,150,160,160,,220,240,260,260,,670,125,M,Ігор Коцюба,SBD
Wraps,Yes,2,Oleksandr Radchenko,Open,1990,Ukraine,121.7,230,-240,250,250,140,-150,150,150,,220,230,237.5,237.5,,637.5,125,M,Олександр Радченко,SBD
Wraps,Yes,3,Grigoriy Barannik,Open,1990,Ukraine,120.25,180,200,215,215,125,-135,-135,125,,180,210,225,225,,565,125,M,Григорій Бараннік,SBD
Single-ply,Yes,1,Oleksandr Bayda,Open,1982,Ukraine,108.35,280,295,302.5,302.5,205,210,215,215,,-290,300,310,310,,827.5,110,M,Олександр Байда,SBD
Wraps,No,1,Anna Lyubarskaya,Teen 13-15,2000,Ukraine,59.45,80,92.5,-100,92.5,45,52.5,57.5,57.5,,80,90,100,100,,250,60,F,Анна Любарская,SBD
Wraps,No,1,Yulia Shenkarenko,Open,1986,Ukraine,66.9,170,180,,180,110,120,125,125,,180,195,200,200,,505,67.5,F,Юлія Шенкаренко,SBD
Wraps,No,1,Oleksandr Voschenko,Juniors 20-23,1994,Ukraine,72.8,110,-120,-120,110,60,70,-80,70,,120,140,160,160,,340,75,M,Олександр Вощенко,SBD
Wraps,No,1,Volodymyr Postovalov,Open,1987,Ukraine,70.2,-220,230,-240,230,120,130,-135,130,,220,235,245,245,,605,75,M,Володимир Постовалов,SBD
Wraps,No,2,Mykola Bilozerov,Open,1982,Ukraine,71.05,-190,190,-200,190,115,-122.5,122.5,122.5,,225,-235,-240,225,,537.5,75,M,Николай Белозеров,SBD
Wraps,No,1,Mikola Tishuk,Open,1992,Ukraine,82.5,210,220,230,230,150,-160,-160,150,,240,-252.5,-252.5,240,,620,82.5,M,Микола Тишук,SBD
Wraps,No,2,Maksim Zabrodskiy,Open,1988,Ukraine,81.2,170,180,190,190,120,130,,130,,180,190,200,200,,520,82.5,M,Максим Забродський,SBD
Wraps,No,1,Vladyslav Fedorenko,Juniors 20-23,1993,Ukraine,87,-200,-215,215,215,125,135,140,140,,180,200,-215,200,,555,90,M,Владислав Федоренко,SBD
Wraps,No,1,Oleksii Melnyk,Open,1990,Ukraine,87.8,310,-328.5,-328.5,310,170,180,-185,180,,285,-302.5,302.5,302.5,,792.5,90,M,Олексій Мельник,SBD
Wraps,No,2,Andriy Zhitar,Open,1990,Ukraine,88.45,-260,260,275,275,165,172.5,177.5,177.5,,260,272.5,-280,272.5,,725,90,M,Андрій Житарь,SBD
Wraps,No,1,Artem Dmitruk,Juniors 20-23,1993,Ukraine,96.85,-200,220,230,230,160,170,-175,170,,-240,250,270,270,,670,100,M,Артем Дмитрук,SBD
Wraps,No,2,Sergiy Asadchiy,Juniors 20-23,1992,Ukraine,95.85,220,235,250,250,130,140,150,150,,195,210,225,225,,625,100,M,Сергій Асадчий,SBD
Wraps,No,1,Oleksiy Matyuschenko,Open,1986,Ukraine,98.85,280,-290,-290,280,170,-180,180,180,,250,260,-270,260,,720,100,M,Олексій Матющенко,SBD
Wraps,No,2,Sergiy Asadchiy,Open,1992,Ukraine,95.85,220,235,250,250,130,140,150,150,,195,210,225,225,,625,100,M,Сергій Асадчий,SBD
Wraps,No,DQ,Viktor Rublyov,Open,1975,Ukraine,98.2,-240,-250,-250,,,,,,,,,,,,,100,M,Віктор Рубльов,SBD
Wraps,No,DQ,Viktor Rublyov,Masters 40-44,1975,Ukraine,98.2,-240,-250,-250,,,,,,,,,,,,,100,M,Віктор Рубльов,SBD
Wraps,No,1,Oleksandr Chernish,Open,1988,Ukraine,109.85,275,290,-310,290,-210,215,-220,215,,280,300,-310,300,,805,110,M,Олександр Черниш,SBD
Wraps,No,1,Ruslan Galanyuk,Open,1989,Ukraine,121.1,300,-325,-340,300,170,190,200,200,,315,330,-345,330,,830,125,M,Руслан Галанюк,SBD
Wraps,No,2,Bogdan Ponochevnyy,Open,1988,Ukraine,112.5,250,270,-290,270,150,160,-170,160,,250,270,-290,270,,700,125,M,Богдан Поночевний,SBD
Single-ply,No,1,Pavlo Ischenko,Open,1991,Ukraine,92.1,300,315,-325,315,205,-215,220,220,,275,290,300,300,,835,100,M,Павло Іщенко,SBD
Wraps,Yes,1,Kseniya Skripchenko,Juniors 20-23,1995,Ukraine,52,70,80,-90,80,,,,,,,,,,,80,52,F,Ксенія Скрипченко,S
Wraps,Yes,1,Inna Zhovta,Open,1981,Ukraine,80.6,90,-100,-115,90,,,,,,,,,,,90,82.5,F,Інна Жовта,S
Wraps,Yes,1,Vladislav Samoylenko,Juniors 20-23,1995,Ukraine,64.25,185,195,-205,195,,,,,,,,,,,195,67.5,M,Владислав Самойленко,S
Wraps,Yes,1,Vladislav Andil,Teen 16-17,1999,Ukraine,74.15,-140,150,-160,150,,,,,,,,,,,150,75,M,Владислав Анділ,S
Wraps,Yes,DQ,Yaroslav Kukhtyuk,Teen 16-17,2000,Ukraine,70,-170,-175,-175,,,,,,,,,,,,,75,M,Ярослав Кухтюк,S
Wraps,Yes,1,Viktor Pirog,Teen 18-19,1996,Ukraine,73.2,-190,190,-207.5,190,,,,,,,,,,,190,75,M,Віктор Пирог,S
Wraps,Yes,2,Andriy Stonoga,Teen 18-19,1996,Ukraine,68.3,135,145,-150,145,,,,,,,,,,,145,75,M,Андрій Стонога,S
Wraps,Yes,1,Andriy Stonoga,Open,1996,Ukraine,68.3,135,145,-150,145,,,,,,,,,,,145,75,M,Андрій Стонога,S
Wraps,Yes,1,Maksim Melaschenko,Juniors 20-23,1993,Ukraine,81.4,180,190,200,200,,,,,,,,,,,200,82.5,M,Максим Мелащенко,S
Wraps,Yes,DQ,Andriy Oseredko,Juniors 20-23,1994,Ukraine,79.25,180,190,200,200,,,,,,,,,,,,82.5,M,Андрій Осередько,S
Wraps,Yes,1,Daniil Sandak,Open,1990,Ukraine,87.1,-170,180,-190,180,,,,,,,,,,,180,90,M,Даніїл Сандак,S
Wraps,Yes,1,Oleg Vaschuk,Masters 40-44,1972,Ukraine,98,160,175,-185,175,,,,,,,,,,,175,100,M,Олег Ващук,S
Wraps,Yes,DQ,Volodimir Kolomiets,Masters 45-49,1966,Ukraine,99.4,-170,-170,-170,,,,,,,,,,,,,100,M,Володимир Коломіець,S
Wraps,Yes,1,Valentin Kazmirenko,Open,1991,Ukraine,108.1,230,-240,-240,230,,,,,,,,,,,230,110,M,Валентин Казьміренко,S
Wraps,Yes,1,Igor Kotsyuba,Open,1982,Ukraine,115.4,210,230,250,250,,,,,,,,,,,250,125,M,Ігор Коцюба,S
Wraps,No,1,Oleksii Melnyk,Open,1990,Ukraine,87.8,310,-328.5,-328.5,310,,,,,,,,,,,310,90,M,Олексій Мельник,S
Wraps,No,1,Oleksandr Chernish,Open,1988,Ukraine,109.85,275,290,-310,290,,,,,,,,,,,290,110,M,Олександр Черниш,S
Raw,Yes,1,Lyudmila Visochenko,Teen 13-15,2002,Ukraine,44,,,,,40,47.5,50,50,,,,,,,50,44,F,Людмила Височенко,B
Raw,Yes,1,Kseniya Mendelyuk,Open,1990,Ukraine,42.15,,,,,37.5,40,-45,40,,,,,,,40,44,F,Ксенія Менделюк,B
Raw,Yes,1,Tetyana Pashuk,Open,1984,Ukraine,48,,,,,55,57.5,60,60,,,,,,,60,48,F,Тетяна Пашук,B
Raw,Yes,1,Mariya Ternova,Teen 18-19,1997,Ukraine,50.2,,,,,60,65,67.5,67.5,68.5,,,,,,67.5,52,F,Марія Тернова,B
Raw,Yes,1,Oksana Prikhodko,Open,1991,Ukraine,51.95,,,,,70,77.5,,77.5,,,,,,,77.5,52,F,Оксана Приходько,B
Raw,Yes,2,Mariya Ternova,Open,1997,Ukraine,50.2,,,,,60,65,67.5,67.5,,,,,,,67.5,52,F,Марія Тернова,B
Raw,Yes,3,Anna Tarasenko,Open,1989,Ukraine,51.1,,,,,50,55,-57.5,55,,,,,,,55,52,F,Анна Тарасенко,B
Raw,Yes,4,Nataliya Bortnik,Open,1985,Ukraine,51.9,,,,,47.5,-50,50,50,,,,,,,50,52,F,Наталія Бортнік,B
Raw,Yes,1,Diana Ostapenko,Teen 18-19,1998,Ukraine,55.35,,,,,30,-35,40,40,,,,,,,40,56,F,Діана Остапенко,B
Raw,Yes,1,Evgeniya Li,Juniors 20-23,1993,Ukraine,53.95,,,,,52.5,-55,-55,52.5,,,,,,,52.5,56,F,Євгенія Лі,B
Raw,Yes,2,Inna Lazorenko,Juniors 20-23,1993,Ukraine,54.65,,,,,-40,42.5,-47.5,42.5,,,,,,,42.5,56,F,Інна Лазоренко,B
Raw,Yes,1,Nataliya Kushvid,Open,1977,Ukraine,52.85,,,,,50,-55,-55,50,,,,,,,50,56,F,Наталія Кушвід,B
Raw,Yes,1,Irina Usik,Teen 16-17,1998,Ukraine,57.1,,,,,60,65,-67.5,65,,,,,,,65,60,F,Ірина Усик,B
Raw,Yes,1,Agnessa Chernysh,Juniors 20-23,1993,Ukraine,59.25,,,,,62.5,-67.5,-67.5,62.5,,,,,,,62.5,60,F,Агнесса Черныш,B
Raw,Yes,2,Alina Pilipenko,Juniors 20-23,1995,Ukraine,60,,,,,50,60,-62.5,60,,,,,,,60,60,F,Аліна Пилипенко,B
Raw,Yes,DQ,Ilona Dragomiretska,Juniors 20-23,1994,Ukraine,59.85,,,,,-52.5,-57.5,-57.5,,,,,,,,,60,F,Ілона Драгомирецька,B
Raw,Yes,1,Irina Kulibaba,Open,1990,Ukraine,57.75,,,,,60,65,67.5,67.5,,,,,,,67.5,60,F,Ірина Кулібаба,B
Raw,Yes,2,Nataliya Sokurenko,Open,1981,Ukraine,60,,,,,62.5,65,67.5,67.5,,,,,,,67.5,60,F,Наталія Сокуренко,B
Raw,Yes,3,Agnessa Chernysh,Open,1993,Ukraine,59.25,,,,,62.5,-67.5,-67.5,62.5,,,,,,,62.5,60,F,Агнесса Черныш,B
Raw,Yes,1,Nadiya Tischenko,Juniors 20-23,1993,Ukraine,65.25,,,,,70,-75,75,75,,,,,,,75,67.5,F,Надія Тищенко,B
Raw,Yes,1,Irina Koropets,Open,1981,Ukraine,67.05,,,,,-65,67.5,-70,67.5,,,,,,,67.5,67.5,F,Ірина Коропець,B
Raw,Yes,2,Darya Kalashnikova,Open,1987,Ukraine,65,,,,,45,-47.5,50,50,,,,,,,50,67.5,F,Дар'я Калашнікова,B
Raw,Yes,3,Tetyana Strizhak,Open,1982,Ukraine,67.25,,,,,40,45,-47.5,45,,,,,,,45,67.5,F,Тетяна Стрижак,B
Raw,Yes,DQ,Margarita Matyushenko,Open,1984,Ukraine,66.9,,,,,-75,-75,-75,,,,,,,,,67.5,F,Маргарита Матюшенко,B
Raw,Yes,1,Yuliya Nikitina,Masters 40-44,1973,Ukraine,70,,,,,47.5,-50,-52.5,47.5,,,,,,,47.5,75,F,Юлія Нікітіна,B
Raw,Yes,1,Inna Zhovta,Open,1981,Ukraine,80.6,,,,,50,52.5,-55,52.5,,,,,,,52.5,82.5,F,Інна Жовта,B
Raw,Yes,1,Mykhaylo Shlyakhtun,Youth,2006,Ukraine,39.45,,,,,-42.5,-42.5,42.5,42.5,,,,,,,42.5,52,M,Михайло Шляхтун,B
Raw,Yes,2,Vladislav Tsivina,Youth,2004,Ukraine,41.3,,,,,30,35,-42.5,35,,,,,,,35,52,M,Владислав Цівина,B
Raw,Yes,3,Vladislav Demchenko,Youth,2005,Ukraine,36.55,,,,,-20,20,-22.5,20,,,,,,,20,52,M,Владислав Демченко,B
Raw,Yes,1,Maksim Us,Teen 13-15,2000,Ukraine,54.8,,,,,60,67.5,-72.5,67.5,,,,,,,67.5,56,M,Максим Ус,B
Raw,Yes,DQ,Yaroslav Kichuk,Teen 13-15,2002,Ukraine,56,,,,,-50,,,,,,,,,,,56,M,Ярослав Кічук,B
Raw,Yes,1,Ruslan Ivanchik,Teen 16-17,1999,Ukraine,58.45,,,,,97.5,-107.5,-107.5,97.5,,,,,,,97.5,60,M,Руслан Іванчик,B
Raw,Yes,DQ,Ruslan Solovyov,Teen 16-17,1998,Ukraine,57.65,,,,,-75,-80,-80,,,,,,,,,60,M,Руслан Соловйов,B
Raw,Yes,DQ,Vitaliy Churuta,Juniors 20-23,1992,Ukraine,57.35,,,,,-102.5,-102.5,-102.5,,,,,,,,,60,M,Віталій Чурута,B
Raw,Yes,1,Volodimir Tischenko,Teen 16-17,1998,Ukraine,66.35,,,,,130,-142.5,-142.5,130,,,,,,,130,67.5,M,Володимир Тищенко,B
Raw,Yes,1,Miroslav Vernigora,Teen 18-19,1996,Ukraine,64.7,,,,,110,120,-125,120,,,,,,,120,67.5,M,Мирослав Вернигора,B
Raw,Yes,1,Sergiy Vasilchenko,Juniors 20-23,1993,Ukraine,63.25,,,,,110,125,-132.5,125,,,,,,,125,67.5,M,Сергій Васильченко,B
Raw,Yes,2,Evgen Samoylenko,Juniors 20-23,1995,Ukraine,64.25,,,,,105,110,112.5,112.5,,,,,,,112.5,67.5,M,Євген Самойленко,B
Raw,Yes,1,Sergiy Bautin,Open,1991,Ukraine,67.5,,,,,120,130,-142.5,130,,,,,,,130,67.5,M,Сергій Баутін,B
Raw,Yes,2,Viktor Zheliba,Open,1990,Ukraine,66.75,,,,,120,125,-127.5,125,,,,,,,125,67.5,M,Віктор Желіба,B
Raw,Yes,3,Miroslav Vernigora,Open,1996,Ukraine,64.7,,,,,110,120,-125,120,,,,,,,120,67.5,M,Мирослав Вернигора,B
Raw,Yes,4,Dmitro Zmitruk,Open,1985,Ukraine,64.45,,,,,-110,-115,115,115,,,,,,,115,67.5,M,Дмитро Змитрук,B
Raw,Yes,DQ,Sergiy Rogoviy,Open,1987,Ukraine,62.8,,,,,-90,-100,-100,,,,,,,,,67.5,M,Сергій Роговий,B
Raw,Yes,1,Igor Shulga,Teen 16-17,1999,Ukraine,74.1,,,,,80,85,-90,85,,,,,,,85,75,M,Ігор Шульга,B
Raw,Yes,1,David Velichko,Teen 16-17,1999,Ukraine,71.8,,,,,112.5,-120,-120,112.5,,,,,,,112.5,75,M,Давид Величко,B
Raw,Yes,2,Adrian Kalmuk,Teen 16-17,1999,Ukraine,68.3,,,,,90,100,107.5,107.5,,,,,,,107.5,75,M,Адріан Кальмук,B
Raw,Yes,3,Pavlo Prudskiy,Teen 16-17,1998,Ukraine,71,,,,,90,-100,-102.5,90,,,,,,,90,75,M,Павло Прудський,B
Raw,Yes,1,Svyatoslav Khoroshun,Teen 18-19,1997,Ukraine,72.1,,,,,-125,125,-135,125,,,,,,,125,75,M,Святослав Хорошун,B
Raw,Yes,2,Rostislav Fortuna,Teen 18-19,1996,Ukraine,74.6,,,,,110,115,117.5,117.5,,,,,,,117.5,75,M,Ростислав Фортуна,B
Raw,Yes,3,Vladislav Litvin,Teen 18-19,1996,Ukraine,71,,,,,107.5,112.5,-117.5,112.5,,,,,,,112.5,75,M,Владислав Литвин,B
Raw,Yes,4,Andriy Stonoga,Teen 18-19,1996,Ukraine,68.3,,,,,85,95,-102.5,95,,,,,,,95,75,M,Андрій Стонога,B
Raw,Yes,1,Andriy Yatskov,Juniors 20-23,1993,Ukraine,74.35,,,,,120,130,135,135,,,,,,,135,75,M,Андрій Яцков,B
Raw,Yes,2,Valeriy Makarchuk,Juniors 20-23,1992,Ukraine,72.4,,,,,-117.5,-117.5,117.5,117.5,,,,,,,117.5,75,M,Валерій Макарчук,B
Raw,Yes,3,Evgen Pochtoviy,Juniors 20-23,1992,Ukraine,73.2,,,,,-117.5,117.5,-125,117.5,,,,,,,117.5,75,M,Євген Почтовий,B
Raw,Yes,4,Artem Tishkevich,Juniors 20-23,1993,Ukraine,70.85,,,,,-100,100,-110,100,,,,,,,100,75,M,Артем Тишкевич,B
Raw,Yes,1,Ivan Kapelyukh,Open,1985,Ukraine,74.65,,,,,135,140,-142.5,140,,,,,,,140,75,M,Іван Капелюх,B
Raw,Yes,2,Volodimir Balashkevich,Open,1991,Ukraine,72,,,,,120,130,135,135,,,,,,,135,75,M,Володимир Балашкевич,B
Raw,Yes,3,Andriy Kultishev,Open,1988,Ukraine,74.05,,,,,-125,-125,125,125,,,,,,,125,75,M,Андрій Култишев,B
Raw,Yes,4,Viktor Kondratyuk,Open,1987,Ukraine,73.65,,,,,110,-122.5,122.5,122.5,,,,,,,122.5,75,M,Віктор Кондратюк,B
Raw,Yes,5,Adrian Kalmuk,Open,1999,Ukraine,68.3,,,,,90,100,107.5,107.5,,,,,,,107.5,75,M,Адріан Кальмук,B
Raw,Yes,1,Volodimir Potseluy,Masters 50-54,1961,Ukraine,73.85,,,,,105,110,-112.5,110,,,,,,,110,75,M,Володимир Поцелуй,B
Raw,Yes,1,Vladislav Mavrin #2,Teen 13-15,2001,Ukraine,76.8,,,,,80,-85,-85,80,,,,,,,80,82.5,M,Владіслав Маврін,B
Raw,Yes,1,Oleksandr Repyanchin,Teen 16-17,1998,Ukraine,81.45,,,,,130,-135,-135,130,,,,,,,130,82.5,M,Олександр Репянчин,B
Raw,Yes,1,Vladlen Krivov,Teen 18-19,1996,Ukraine,80.3,,,,,130,135,-137.5,135,,,,,,,135,82.5,M,Владлен Кривов,B
Raw,Yes,2,Kostyantin Slobodyanyuk,Teen 18-19,1996,Ukraine,77.8,,,,,110,120,-127.5,120,,,,,,,120,82.5,M,Костянтин Слободянюк,B
Raw,Yes,1,Mykola Pasko,Juniors 20-23,1995,Ukraine,78.5,,,,,-150,150,155,155,,,,,,,155,82.5,M,Микола Пасько,B
Raw,Yes,2,Evgen Krivenda,Juniors 20-23,1994,Ukraine,79.75,,,,,120,130,140,140,,,,,,,140,82.5,M,Євген Кривенда,B
Raw,Yes,3,Nazar Solovey,Juniors 20-23,1992,Ukraine,82.45,,,,,140,-145,-145,140,,,,,,,140,82.5,M,Назар Соловей,B
Raw,Yes,4,Volodimir Borisenko,Juniors 20-23,1992,Ukraine,80,,,,,120,127.5,-135,127.5,,,,,,,127.5,82.5,M,Володимир Борисенко,B
Raw,Yes,5,Viktor Ignatenko,Juniors 20-23,1993,Ukraine,81.4,,,,,112.5,120,-127.5,120,,,,,,,120,82.5,M,Віктор Ігнатенко,B
Raw,Yes,1,Vadim Marinich,Open,1981,Ukraine,79.1,,,,,150,155,-160,155,,,,,,,155,82.5,M,Вадим Маринич,B
Raw,Yes,2,Vadim Sukhiy,Open,1991,Ukraine,80.9,,,,,145,150,152.5,152.5,,,,,,,152.5,82.5,M,Вадим Сухий,B
Raw,Yes,3,Evgeniy Boyko,Open,1988,Ukraine,80.5,,,,,140,145,-150,145,,,,,,,145,82.5,M,Євгеній Бойко,B
Raw,Yes,4,Oleksandr Kholin,Open,1989,Ukraine,81.55,,,,,140,145,-150,145,,,,,,,145,82.5,M,Олександр Холін,B
Raw,Yes,5,Egor Yurtaev,Open,1990,Ukraine,76.95,,,,,127.5,137.5,-142.5,137.5,,,,,,,137.5,82.5,M,Єгор Юртаєв,B
Raw,Yes,6,Denis Esin,Open,1985,Ukraine,82,,,,,135,-145,-145,135,,,,,,,135,82.5,M,Денис Єсін,B
Raw,Yes,7,Kostyantin Chabanenko,Open,1984,Ukraine,79.65,,,,,127.5,132.5,-137.5,132.5,,,,,,,132.5,82.5,M,Костянтин Чабаненко,B
Raw,Yes,8,Volodimir Galich,Open,1989,Ukraine,80.55,,,,,-130,130,-135,130,,,,,,,130,82.5,M,Володимир Галич,B
Raw,Yes,1,Valeriy Grubiy,Masters 40-44,1973,Ukraine,81.15,,,,,135,-145,-145,135,,,,,,,135,82.5,M,Валерій Грубий,B
Raw,Yes,2,Igor Pavlovskiy,Masters 40-44,1973,Ukraine,80.75,,,,,115,120,125,125,,,,,,,125,82.5,M,Ігор Павловський,B
Raw,Yes,DQ,Fedor Gapchich,Masters 40-44,1976,Ukraine,80.85,,,,,-140,-145,-145,,,,,,,,,82.5,M,Федор Гапчич,B
Raw,Yes,1,Volodimir Galeta,Masters 50-54,1964,Ukraine,81.3,,,,,-92.5,92.5,95,95,,,,,,,95,82.5,M,Володимир Галета,B
Raw,Yes,1,Oleksandr Shapovalov,Teen 16-17,1999,Ukraine,85.5,,,,,120,-127.5,-132.5,120,,,,,,,120,90,M,Олександр Шаповалов,B
Raw,Yes,1,Sergiy Romanko,Teen 18-19,1996,Ukraine,85.65,,,,,130,137.5,-140,137.5,,,,,,,137.5,90,M,Сергій Романко,B
Raw,Yes,1,Artem Shitiy,Juniors 20-23,1992,Ukraine,90,,,,,170,180,-182.5,180,,,,,,,180,90,M,Артем Шитий,B
Raw,Yes,2,Vitaliy Krivunda,Juniors 20-23,1995,Ukraine,87.95,,,,,152.5,155,157.5,157.5,,,,,,,157.5,90,M,Віталій Кривунда,B
Raw,Yes,3,Maksim Mokhamad,Juniors 20-23,1994,Ukraine,88.4,,,,,152.5,155,-162.5,155,,,,,,,155,90,M,Максим Мохамад,B
Raw,Yes,4,Sergiy Berezhnoy,Juniors 20-23,1992,Ukraine,89.4,,,,,145,-152.5,-152.5,145,,,,,,,145,90,M,Сергій Бережной,B
Raw,Yes,5,Mykola Khlusov,Juniors 20-23,1994,Ukraine,86.3,,,,,130,140,-152.5,140,,,,,,,140,90,M,Микола Хлусов,B
Raw,Yes,1,Oleksandr Kovalenko,Open,1991,Ukraine,86.2,,,,,200,205,-207.5,205,,,,,,,205,90,M,Олександр Коваленко,B
Raw,Yes,2,Oleg Sukhno,Open,1976,Ukraine,88.4,,,,,175,-177.5,,175,,,,,,,175,90,M,Олег Сухно,B
Raw,Yes,3,Vyacheslav Zgurovskyy,Open,1985,Ukraine,90,,,,,165,-170,-170,165,,,,,,,165,90,M,В'ячеслав Згуровський,B
Raw,Yes,4,Filipp Shilov,Open,1992,Ukraine,88.1,,,,,160,-175,-175,160,,,,,,,160,90,M,Филипп Шилов,B
Raw,Yes,5,Maksim Melnikov,Open,1988,Ukraine,84.9,,,,,130,140,145,145,,,,,,,145,90,M,Максим Мельников,B
Raw,Yes,6,Yuriy Dudenko,Open,1990,Ukraine,89.15,,,,,142.5,-147.5,-147.5,142.5,,,,,,,142.5,90,M,Юрій Дуденко,B
Raw,Yes,7,Ruslan Kupenko,Open,1988,Ukraine,85.8,,,,,140,-152.5,-152.5,140,,,,,,,140,90,M,Руслан Купенко,B
Raw,Yes,8,Vladislav Solyak,Open,1990,Ukraine,87.55,,,,,125,132.5,140,140,,,,,,,140,90,M,Владислав Соляк,B
Raw,Yes,9,Maksim Vlasov,Open,1989,Ukraine,88.5,,,,,132.5,140,-152.5,140,,,,,,,140,90,M,Максим Власов,B
Raw,Yes,10,Roman Stepanov,Open,1990,Ukraine,88.85,,,,,140,-152.5,-152.5,140,,,,,,,140,90,M,Роман Степанов,B
Raw,Yes,11,Dmitro Ganchev,Open,1989,Ukraine,85.65,,,,,132.5,135,137.5,137.5,,,,,,,137.5,90,M,Дмитро Ганчев,B
Raw,Yes,12,Dmitro Gudz,Open,1987,Ukraine,88.98,,,,,130,-142.5,-142.5,130,,,,,,,130,90,M,Дмитро Гудзь,B
Raw,Yes,1,Ruslan Abbasov,Masters 40-44,1974,Ukraine,87.8,,,,,145,-152.5,-152.5,145,,,,,,,145,90,M,Руслан Аббасов,B
Raw,Yes,2,Viktor Gats,Masters 40-44,1973,Ukraine,89.7,,,,,-130,130,-132.5,130,,,,,,,130,90,M,Віктор Гаць,B
Raw,Yes,3,Oleksandr Drobilko,Masters 40-44,1972,Ukraine,86.15,,,,,-115,-115,115,115,,,,,,,115,90,M,Олександр Дробілко,B
Raw,Yes,1,Viktor Poshtarenko,Masters 45-49,1970,Ukraine,86,,,,,-120,125,127.5,127.5,,,,,,,127.5,90,M,Віктор Поштаренко,B
Raw,Yes,1,Oleksiy Serdyukov,Teen 18-19,1998,Ukraine,91.75,,,,,110,-117.5,-120,110,,,,,,,110,100,M,Олексій Сердюков,B
Raw,Yes,2,Andriy Lyabakh,Juniors 20-23,1995,Ukraine,92.55,,,,,-110,110,-115,110,,,,,,,110,100,M,Андрій Лябах,B
Raw,Yes,1,Mikita Pustovit,Juniors 20-23,1992,Ukraine,99.55,,,,,165,-175,-182.5,165,,,,,,,165,100,M,Микита Пустовіт,B
Raw,Yes,2,Mykola Shataylo,Juniors 20-23,1994,Ukraine,96.9,,,,,140,-150,150,150,,,,,,,150,100,M,Микола Шатайло,B
Raw,Yes,3,Mikola Kazimirchuk,Juniors 20-23,1992,Ukraine,91.55,,,,,-145,-145,145,145,,,,,,,145,100,M,Микола Казімірчук,B
Raw,Yes,1,Maksim Petrenko,Open,1987,Ukraine,99.35,,,,,-185,185,-195,185,,,,,,,185,100,M,Максим Петренко,B
Raw,Yes,2,Yaroslav Potaychuk,Open,1985,Ukraine,96.4,,,,,165,180,-185,180,,,,,,,180,100,M,Ярослав Потайчук,B
Raw,Yes,3,Oleksandr Protsik,Open,1974,Ukraine,97.3,,,,,180,-190,-190,180,,,,,,,180,100,M,Олександр Процик,B
Raw,Yes,4,Oleksandr Turbanist,Open,1988,Ukraine,91.3,,,,,157.5,167.5,-172.5,167.5,,,,,,,167.5,100,M,Олександр Турбаніст,B
Raw,Yes,5,Vadim Onuchak,Open,1975,Ukraine,94.25,,,,,152.5,162.5,-170,162.5,,,,,,,162.5,100,M,Вадим Онучак,B
Raw,Yes,6,Oleksiy Sidorov,Open,1991,Ukraine,99.4,,,,,-155,155,-162.5,155,,,,,,,155,100,M,Олексій Сидоров,B
Raw,Yes,1,Oleksandr Protsik,Masters 40-44,1974,Ukraine,97.3,,,,,180,-190,-190,180,,,,,,,180,100,M,Олександр Процик,B
Raw,Yes,2,Dmitro Kalashnik,Masters 40-44,1975,Ukraine,100,,,,,147.5,157.5,165,165,,,,,,,165,100,M,Дмитро Калашник,B
Raw,Yes,3,Vadim Onuchak,Masters 40-44,1975,Ukraine,94.25,,,,,152.5,162.5,-170,162.5,,,,,,,162.5,100,M,Вадим Онучак,B
Raw,Yes,4,Volodimir Dzhigov,Masters 40-44,1974,Ukraine,91,,,,,145,155,-160,155,,,,,,,155,100,M,Володимир Джигов,B
Raw,Yes,5,Aleksandr Denisov,Masters 40-44,1972,Ukraine,94.35,,,,,145,-155,-155,145,,,,,,,145,100,M,Александр Денисов,B
Raw,Yes,6,Sergiy Korobko,Masters 40-44,1975,Ukraine,92.85,,,,,140,-147.5,-147.5,140,,,,,,,140,100,M,Сергій Коробко,B
Raw,Yes,7,Oleg Vaschuk,Masters 40-44,1972,Ukraine,98,,,,,135,140,-145,140,,,,,,,140,100,M,Олег Ващук,B
Raw,Yes,1,Igor Krikunov,Masters 45-49,1968,Ukraine,96.85,,,,,137.5,-150,-150,137.5,,,,,,,137.5,100,M,Ігор Крікунов,B
Raw,Yes,2,Volodimir Kolomiets,Masters 45-49,1966,Ukraine,99.4,,,,,117.5,-122.5,122.5,122.5,,,,,,,122.5,100,M,Володимир Коломіець,B
Raw,Yes,3,Mikola Grigorovich,Masters 45-49,1969,Ukraine,91.8,,,,,107.5,-115,-115,107.5,,,,,,,107.5,100,M,Микола Григорович,B
Raw,Yes,1,Vitaliy Filonenko,Masters 50-54,1964,Ukraine,94.7,,,,,120,127.5,130,130,,,,,,,130,100,M,Віталій Філоненко,B
Raw,Yes,2,Andriy Gerbut,Masters 50-54,1964,Ukraine,95.65,,,,,100,-105,-110,100,,,,,,,100,100,M,Андрій Гербут,B
Raw,Yes,1,Oleksandr Tertichniy,Open,1968,Ukraine,107.45,,,,,180,185,190,190,,,,,,,190,110,M,Олександр Тертичний,B
Raw,Yes,2,Pavlo Avdokushin,Open,1975,Ukraine,108.9,,,,,175,182.5,-187.5,182.5,,,,,,,182.5,110,M,Павло Авдокушин,B
Raw,Yes,3,Oleksandr Tarasov,Open,1991,Ukraine,105.6,,,,,170,180,-190,180,,,,,,,180,110,M,Олександр Тарасов,B
Raw,Yes,4,Igor Zaychuk,Open,1989,Ukraine,106.75,,,,,170,180,-190,180,,,,,,,180,110,M,Ігор Зайчук,B
Raw,Yes,5,Oleg Gervas,Open,1978,Ukraine,103.95,,,,,160,167.5,175,175,,,,,,,175,110,M,Олег Гервас,B
Raw,Yes,6,Dmytro Garkushka,Open,1983,Ukraine,106.6,,,,,160,170,-180,170,,,,,,,170,110,M,Дмитро Гаркушка,B
Raw,Yes,7,Ivan Ignatkin,Open,1983,Ukraine,101.9,,,,,160,167.5,-170,167.5,,,,,,,167.5,110,M,Іван Ігнаткін,B
Raw,Yes,8,Yunas Mukhamed,Open,1977,Ukraine,100.6,,,,,135,147.5,-150,147.5,,,,,,,147.5,110,M,Юнас Мухамед,B
Raw,Yes,1,Pavlo Avdokushin,Masters 40-44,1975,Ukraine,108.9,,,,,175,182.5,-187.5,182.5,,,,,,,182.5,110,M,Павло Авдокушин,B
Raw,Yes,1,Oleksandr Tertichniy,Masters 45-49,1968,Ukraine,107.45,,,,,180,185,190,190,,,,,,,190,110,M,Олександр Тертичний,B
Raw,Yes,2,Anatoliy Tiroshko,Masters 45-49,1966,Ukraine,108.9,,,,,137.5,140,145,145,,,,,,,145,110,M,Анатолій Тирошко,B
Raw,Yes,1,Denis Alekseenko,Juniors 20-23,1993,Ukraine,117.3,,,,,110,120,125,125,,,,,,,125,125,M,Денис Алексеєнко,B
Raw,Yes,1,Evgen Parfenov,Open,1983,Ukraine,115.4,,,,,210,-215,-215,210,,,,,,,210,125,M,Євген Парфенов,B
Raw,Yes,2,Igor Kotsyuba,Open,1982,Ukraine,115.4,,,,,145,150,160,160,,,,,,,160,125,M,Ігор Коцюба,B
Raw,Yes,3,Denis Alekseenko,Open,1993,Ukraine,117.3,,,,,110,120,125,125,,,,,,,125,125,M,Денис Алексеєнко,B
Raw,Yes,1,Surupasha Bambatgireev,Masters 45-49,1966,Ukraine,114,,,,,175,182.5,187.5,187.5,,,,,,,187.5,125,M,Сурупаша Бамбатгіреєв,B
Raw,Yes,1,Ruslan Alimov,Juniors 20-23,1993,Ukraine,134,,,,,210,225,230,230,235,,,,,,230,140,M,Руслан Алімов,B
Raw,Yes,1,Ruslan Alimov,Open,1993,Ukraine,134,,,,,210,225,230,230,235,,,,,,230,140,M,Руслан Алімов,B
Raw,Yes,2,Andriy Tkachuk,Open,1989,Ukraine,126.5,,,,,190,200,-205,200,,,,,,,200,140,M,Андрій Ткачук,B
Raw,Yes,3,Bohdan Kharakhash,Open,1974,Ukraine,129.5,,,,,195,-202.5,-202.5,195,,,,,,,195,140,M,Богдан Харахаш,B
Raw,Yes,DQ,Oleksandr Grigorenko,Open,1982,Ukraine,126.9,,,,,-155,-160,-160,,,,,,,,,140,M,Олександр Григоренко,B
Raw,Yes,1,Bohdan Kharakhash,Masters 40-44,1974,Ukraine,129.5,,,,,195,-202.5,-202.5,195,,,,,,,195,140,M,Богдан Харахаш,B
Single-ply,Yes,1,Oksana Prikhodko,Open,1991,Ukraine,51.95,,,,,87.5,-92.5,92.5,92.5,,,,,,,92.5,52,F,Оксана Приходько,B
Single-ply,Yes,1,Anton Popov,Open,1989,Ukraine,70.05,,,,,150,-160,-160,150,,,,,,,150,75,M,Антон Попов,B
Single-ply,Yes,1,Kyrylo Sharoyko,Teen 16-17,1998,Ukraine,89.6,,,,,-200,200,-215,200,,,,,,,200,90,M,Кирило Шаройко,B
Single-ply,Yes,DQ,Dmytro Sharoyko,Open,1972,Ukraine,141,,,,,-350,-350,-350,,,,,,,,,140+,M,Дмитро Шаройко,B
Single-ply,Yes,DQ,Dmytro Sharoyko,Masters 40-44,1972,Ukraine,141,,,,,-350,-350,-350,,,,,,,,,140+,M,Дмитро Шаройко,B
Raw,No,1,Nataliya Rudnichenko,Open,1981,Ukraine,55.85,,,,,45,50,-55,50,,,,,,,50,56,F,Наталія Рудніченко,B
Raw,No,1,Irina Ternova,Open,1974,Ukraine,69.9,,,,,100,-105,-105,100,,,,,,,100,75,F,Ірина Тернова,B
Raw,No,2,Yuliya Olizarenko,Open,1989,Ukraine,72.05,,,,,70,-75,-75,70,,,,,,,70,75,F,Юлія Олізаренко,B
Raw,No,1,Lyudmila Gaiduchenko,Open,1966,Ukraine,97.85,,,,,150,,,150,,,,,,,150,90+,F,Людмила Гайдученко,B
Raw,No,1,Oleksandr Zhariy,Masters 40-44,1972,Ukraine,59.25,,,,,120,-125,-125,120,,,,,,,120,60,M,Олександр Жарий,B
Raw,No,1,Mikhail Demchenko,Open,1987,Ukraine,74.2,,,,,130,135,140,140,,,,,,,140,75,M,Михайло Демченко,B
Raw,No,1,Volodimir Filyuk,Juniors 20-23,1993,Ukraine,76,,,,,-120,125,135,135,,,,,,,135,82.5,M,Володимир Філюк,B
Raw,No,2,Vladislav Roschenko,Juniors 20-23,1995,Ukraine,79.05,,,,,115,125,135,135,,,,,,,135,82.5,M,Владислав Рощенко,B
Raw,No,1,Oleg Zavolovich,Open,1976,Ukraine,80.5,,,,,160,-165,-165,160,,,,,,,160,82.5,M,Олег Заволович,B
Raw,No,2,Pavlo Melnichenko,Open,1980,Ukraine,75.7,,,,,135,-140,-145,135,,,,,,,135,82.5,M,Павло Мельніченко,B
Raw,No,1,Bogdan Yudin,Teen 18-19,1997,Ukraine,85.1,,,,,-100,110,-115,110,,,,,,,110,90,M,Богдан Юдін,B
Raw,No,2,Nazar Glinka,Teen 16-17,1998,Ukraine,88.45,,,,,100,107.5,-115,107.5,,,,,,,107.5,90,M,Назар Глінка,B
Raw,No,1,Maksim Elskiy,Open,1985,Ukraine,89.6,,,,,185,-195,195,195,,,,,,,195,90,M,Максим Єльський,B
Raw,No,2,Yaroslav Podvorchanskiy,Open,1991,Ukraine,86.8,,,,,175,182.5,-190,182.5,,,,,,,182.5,90,M,Ярослав Подворчанський,B
Raw,No,1,Maxym Raev,Juniors 20-23,1993,Ukraine,95.6,,,,,150,-155,155,155,,,,,,,155,100,M,Максим Раєв,B
Raw,No,2,Artem Pedorenko,Teen 18-19,1997,Ukraine,97.9,,,,,140,150,-160,150,,,,,,,150,100,M,Артем Педоренко,B
Raw,No,1,Roman Tsauk,Open,1983,Ukraine,95.2,,,,,-200,205,210,210,,,,,,,210,100,M,Роман Цаук,B
Raw,No,2,Igor Germanovych,Open,1989,Ukraine,96.3,,,,,195,202.5,-207.5,202.5,,,,,,,202.5,100,M,Ігор Германович,B
Raw,No,3,Ruslan Sidorenko,Open,1987,Ukraine,99.45,,,,,195,202.5,-207.5,202.5,,,,,,,202.5,100,M,Руслан Сидоренко,B
Raw,No,4,Oleksandr Pivnyuk,Open,1990,Ukraine,93.4,,,,,160,-170,170,170,,,,,,,170,100,M,Олександр Півнюк,B
Raw,No,5,Mikola Rubik,Open,1972,Ukraine,97.85,,,,,165,-170,-170,165,,,,,,,165,100,M,Микола Рубік,B
Raw,No,DQ,Yevgen Sereda,Open,1988,Ukraine,99.9,,,,,-187.5,-192.5,-192.5,,,,,,,,,100,M,Євген Середа,B
Raw,No,1,Mikola Rubik,Masters 40-44,1972,Ukraine,97.85,,,,,165,-170,-170,165,,,,,,,165,100,M,Микола Рубік,B
Raw,No,1,Petro Likhatskiy,Masters 60-64,1953,Ukraine,93.4,,,,,140,150,-155,150,,,,,,,150,100,M,Петро Лихацький,B
Raw,No,1,Vladislav Vershinin #1,Teen 16-17,1998,Ukraine,102.65,,,,,130,140,-150,140,,,,,,,140,110,M,Владислав Вершинін,B
Raw,No,1,Mykhaylo Strelenko,Open,1989,Ukraine,101.1,,,,,207.5,215,-225,215,,,,,,,215,110,M,Михайло Стреленко,B
Raw,No,2,Oleksandr Chernish,Open,1988,Ukraine,109.85,,,,,-210,215,-220,215,,,,,,,215,110,M,Олександр Черниш,B
Raw,No,3,Egor Polomoshnov,Open,1980,Ukraine,103.55,,,,,200,210,-220,210,,,,,,,210,110,M,Єгор Поломошнов,B
Raw,No,4,Volodymyr Oliynyk,Open,1990,Ukraine,101,,,,,195,205,-215,205,,,,,,,205,110,M,Володимир Олійник,B
Raw,No,5,Andriy Nikolaenko,Open,1988,Ukraine,103.9,,,,,185,195,-202.5,195,,,,,,,195,110,M,Андрій Ніколаєнко,B
Raw,No,6,Dmitriy Pivnyuk,Open,1992,Ukraine,103.8,,,,,150,162.5,172.5,172.5,,,,,,,172.5,110,M,Дмитро Півнюк,B
Raw,No,1,Oleksandr Olizarenko,Masters 40-44,1974,Ukraine,108.5,,,,,155,160,165,165,,,,,,,165,110,M,Олександр Олізаренко,B
Raw,No,1,Vitaliy Kostyuk,Masters 50-54,1964,Ukraine,104,,,,,140,145,150,150,,,,,,,150,110,M,Віталій Костюк,B
Raw,No,1,Vladislav Zdrachuk,Juniors 20-23,1996,Ukraine,113.6,,,,,160,170,-175,170,,,,,,,170,125,M,Владислав Здрачук,B
Raw,No,1,Kirilo Karpusha,Open,1984,Ukraine,111.1,,,,,205,210,-215,210,,,,,,,210,125,M,Кирило Карпуша,B
Raw,No,2,Igor Petruk,Open,1980,Ukraine,113.95,,,,,210,-215,,210,,,,,,,210,125,M,Ігор Петрук,B
Raw,No,3,Oleksandr Savokh,Open,1987,Ukraine,121.1,,,,,200,-210,210,210,,,,,,,210,125,M,Олександр Савох,B
Raw,No,4,Oleksandr Kostyrya,Open,1963,Ukraine,111,,,,,165,170,-175,170,,,,,,,170,125,M,Олександр Костиря,B
Raw,No,1,Mikhaylo Pitinov,Masters 40-44,1971,Ukraine,122.3,,,,,145,160,170,170,,,,,,,170,125,M,Михайло Пітінов,B
Raw,No,1,Oleksandr Kostyrya,Masters 50-54,1963,Ukraine,111,,,,,165,170,-175,170,,,,,,,170,125,M,Олександр Костиря,B
Single-ply,No,1,Sergiy Novomodniy,Open,1988,Ukraine,90,,,,,190,-200,-200,190,,,,,,,190,90,M,Сергій Новомодний,B
Single-ply,No,1,Pavlo Ischenko,Open,1991,Ukraine,92.1,,,,,205,-215,220,220,,,,,,,220,100,M,Павло Іщенко,B
Single-ply,No,1,Yevgen Savchenko,Open,1989,Ukraine,108.8,,,,,340,-350,-350,340,,,,,,,340,110,M,Євген Савченко,B
Single-ply,No,1,Vladyslav Fesun,Masters 45-49,1967,Ukraine,110.95,,,,,240,255,-262.5,255,,,,,,,255,125,M,Владислав Фесун,B
Raw,Yes,1,Tetyana Korostel,Youth,2007,Ukraine,24.55,,,,,,,,,,30,35,40,40,,40,44,F,Тетяна Коростель,D
Raw,Yes,1,Darya Mikhaylova #1,Teen 18-19,1996,Ukraine,48,,,,,,,,,,90,100,107.5,107.5,,107.5,48,F,Дар'я Михайлова,D
Raw,Yes,1,Alina Mosiechko,Juniors 20-23,1992,Ukraine,51,,,,,,,,,,-35,35,,35,,35,52,F,Аліна Мосієчко,D
Raw,Yes,1,Yuliya Sotnikova,Open,1991,Ukraine,52,,,,,,,,,,130,140,150,150,-155,150,52,F,Юлія Сотнікова,D
Raw,Yes,2,Oksana Prikhodko,Open,1991,Ukraine,51.95,,,,,,,,,,130,142.5,-152.5,142.5,,142.5,52,F,Оксана Приходько,D
Raw,Yes,3,Lyudmila Khodzhaeva,Open,1977,Ukraine,50.95,,,,,,,,,,95,102.5,110,110,,110,52,F,Людмила Ходжаєва,D
Raw,Yes,4,Mariya Koshil,Open,1978,Ukraine,51.25,,,,,,,,,,85,-102.5,-102.5,85,,85,52,F,Марія Кошиль,D
Raw,Yes,1,Nataliya Kushvid,Open,1977,Ukraine,52.85,,,,,,,,,,110,117.5,-125,117.5,,117.5,56,F,Наталія Кушвід,D
Raw,Yes,2,Yuliya Levankova,Open,1988,Ukraine,54.15,,,,,,,,,,100,110,117.5,117.5,,117.5,56,F,Юлія Леванькова,D
Raw,Yes,3,Irina Korostel,Open,1979,Ukraine,52.3,,,,,,,,,,85,100,-102.5,100,,100,56,F,Ірина Коростель,D
Raw,Yes,1,Bogdana Chernenko,Teen 16-17,1998,Ukraine,57.6,,,,,,,,,,85,-95,-115,85,,85,60,F,Богдана Черненко,D
Raw,Yes,1,Anna Tkachuk,Open,1989,Ukraine,59.7,,,,,,,,,,115,120,125,125,,125,60,F,Анна Ткачук,D
Raw,Yes,2,Nataliya Sokurenko,Open,1981,Ukraine,60,,,,,,,,,,-110,115,120,120,,120,60,F,Наталія Сокуренко,D
Raw,Yes,3,Anastasiya Prisyazhnyuk,Open,1990,Ukraine,57.85,,,,,,,,,,85,95,-102.5,95,,95,60,F,Анастасія Присяжнюк,D
Raw,Yes,1,Taїsiya Zhuravlova,Teen 18-19,1998,Ukraine,60.95,,,,,,,,,,70,80,90,90,,90,67.5,F,Таїсія Журавльова,D
Raw,Yes,1,Nataliya Kostenko,Open,1988,Ukraine,67.1,,,,,,,,,,105,115,122.5,122.5,,122.5,67.5,F,Наталія Костенко,D
Raw,Yes,1,Inna Zhovta,Open,1981,Ukraine,80.6,,,,,,,,,,85,95,105,105,,105,82.5,F,Інна Жовта,D
Raw,Yes,1,Yaroslav Kichuk,Teen 13-15,2002,Ukraine,56,,,,,,,,,,90,95,100,100,,100,56,M,Ярослав Кічук,D
Raw,Yes,1,Viktor Smichuk,Juniors 20-23,1994,Ukraine,55.8,,,,,,,,,,160,170,-172.5,170,,170,56,M,Віктор Смичук,D
Raw,Yes,1,Viktor Smichuk,Open,1994,Ukraine,55.8,,,,,,,,,,160,170,-172.5,170,,170,56,M,Віктор Смичук,D
Raw,Yes,1,Petro Usatiy,Open,1984,Ukraine,60,,,,,,,,,,175,-182.5,182.5,182.5,,182.5,60,M,Петро Усатий,D
Raw,Yes,1,Dmitro Magda,Teen 16-17,1999,Ukraine,65.45,,,,,,,,,,130,140,150,150,,150,67.5,M,Дмитро Магда,D
Raw,Yes,1,Miroslav Vernigora,Teen 18-19,1996,Ukraine,64.7,,,,,,,,,,180,190,-200,190,,190,67.5,M,Мирослав Вернигора,D
Raw,Yes,1,Vladislav Deriy,Juniors 20-23,1992,Ukraine,66,,,,,,,,,,232.5,240,-252.5,240,,240,67.5,M,Владислав Дерій,D
Raw,Yes,2,Oleksandr Onischenko #2,Juniors 20-23,1996,Ukraine,65.6,,,,,,,,,,140,150,155,155,,155,67.5,M,Олександр Оніщенко,D
Raw,Yes,1,Vladislav Deriy,Open,1992,Ukraine,66,,,,,,,,,,232.5,240,-252.5,240,,240,67.5,M,Владислав Дерій,D
Raw,Yes,2,Miroslav Vernigora,Open,1996,Ukraine,64.7,,,,,,,,,,180,190,-200,190,,190,67.5,M,Мирослав Вернигора,D
Raw,Yes,3,Oleksandr Gerbut,Open,1986,Ukraine,63.7,,,,,,,,,,100,120,-125,120,,120,67.5,M,Олександр Гербут,D
Raw,Yes,1,Pavlo Prudskiy,Teen 16-17,1998,Ukraine,71,,,,,,,,,,140,155,-165,155,,155,75,M,Павло Прудський,D
Raw,Yes,DQ,Vladislav Andil,Teen 16-17,1999,Ukraine,74.15,,,,,,,,,,-200,-220,-220,,,,75,M,Владислав Анділ,D
Raw,Yes,1,Vladislav Litvin,Teen 18-19,1996,Ukraine,71,,,,,,,,,,175,182.5,-190,182.5,,182.5,75,M,Владислав Литвин,D
Raw,Yes,2,Andriy Stonoga,Teen 18-19,1996,Ukraine,68.3,,,,,,,,,,140,150,-155,150,,150,75,M,Андрій Стонога,D
Raw,Yes,1,Yevgeniy Kalko,Juniors 20-23,1993,Ukraine,74.65,,,,,,,,,,230,237.5,-242.5,237.5,,237.5,75,M,Євгеній Калько,D
Raw,Yes,2,Timur Potreba,Juniors 20-23,1993,Ukraine,74,,,,,,,,,,-205,205,225.5,225.5,,225.5,75,M,Тімур Потреба,D
Raw,Yes,3,Andriy Bodrov,Juniors 20-23,1992,Ukraine,73,,,,,,,,,,210,-220,-220,210,,210,75,M,Андрій Бодров,D
Raw,Yes,4,Volodimir Ivasyutin,Juniors 20-23,1995,Ukraine,74.1,,,,,,,,,,150,160,170,170,,170,75,M,Володимир Івасютин,D
Raw,Yes,1,Ivan Poprotskiy,Open,1990,Ukraine,73.45,,,,,,,,,,220,232.5,237.5,237.5,,237.5,75,M,Іван Попроцкий,D
Raw,Yes,2,Ivan Kapelyukh,Open,1985,Ukraine,74.65,,,,,,,,,,215,225,237.5,237.5,,237.5,75,M,Іван Капелюх,D
Raw,Yes,3,Yevgeniy Kalko,Open,1993,Ukraine,74.65,,,,,,,,,,230,237.5,-242.5,237.5,,237.5,75,M,Євгеній Калько,D
Raw,Yes,4,Pavlo Makarus,Open,1986,Ukraine,70.5,,,,,,,,,,220,230,-237.5,230,,230,75,M,Павло Макарусь,D
Raw,Yes,5,Sergiy Solomyrskyy #2,Open,1983,Ukraine,73.95,,,,,,,,,,210,222.5,-232.5,222.5,,222.5,75,M,Сергій Соломірський,D
Raw,Yes,6,Viktor Kondratyuk,Open,1987,Ukraine,73.65,,,,,,,,,,185,207.5,215,215,,215,75,M,Віктор Кондратюк,D
Raw,Yes,7,Andriy Bodrov,Open,1992,Ukraine,73,,,,,,,,,,210,-220,-220,210,,210,75,M,Андрій Бодров,D
Raw,Yes,1,Oleksandr Zubritskiy,Teen 16-17,1999,Ukraine,80.35,,,,,,,,,,170,180,-190,180,,180,82.5,M,Олександр Зубрицький,D
Raw,Yes,1,Vladislav Polyarius,Teen 18-19,1997,Ukraine,79.8,,,,,,,,,,235,245,-250,245,,245,82.5,M,Владислав Поляріус,D
Raw,Yes,2,Turan Chelebi,Teen 18-19,1997,Ukraine,81.95,,,,,,,,,,220,240,-260,240,,240,82.5,M,Туран Челебі,D
Raw,Yes,1,Vladislav Shevchenko,Juniors 20-23,,Ukraine,81,,,,,,,,,,180,200,220,220,-235,220,82.5,M,Владислав Шевченко,D
Raw,Yes,2,Oleg Litvinenko,Juniors 20-23,1995,Ukraine,75.85,,,,,,,,,,190,210,-220,210,,210,82.5,M,Олег Литвиненко,D
Raw,Yes,1,Vitaliy Pasechnik,Open,1985,Ukraine,77.7,,,,,,,,,,240,252.5,260,260,,260,82.5,M,Віталій Пасечник,D
Raw,Yes,2,Pavlo Kubrak,Open,1976,Ukraine,82,,,,,,,,,,230,240,-250,240,,240,82.5,M,Павло Кубрак,D
Raw,Yes,3,Evgen Boyko,Open,1988,Ukraine,80.5,,,,,,,,,,200,220,-230,220,,220,82.5,M,Євген Бойко,D
Raw,Yes,4,Igor Severin,Open,1985,Ukraine,78.35,,,,,,,,,,200,210,-217.5,210,,210,82.5,M,Ігор Северин,D
Raw,Yes,5,Vladislav Dotsenko,Open,1987,Ukraine,75.4,,,,,,,,,,200,-210,-210,200,,200,82.5,M,Владислав Доценко,D
Raw,Yes,1,Volodimir Galeta,Masters 50-54,1964,Ukraine,81.3,,,,,,,,,,140,150,160,160,,160,82.5,M,Володимир Галета,D
Raw,Yes,1,Bogdan Fedko,Juniors 20-23,1994,Ukraine,85.75,,,,,,,,,,235,245,-262.5,245,,245,90,M,Богдан Федько,D
Raw,Yes,2,Artur Ivakh,Juniors 20-23,1993,Ukraine,87.35,,,,,,,,,,215,-230,230,230,,230,90,M,Артур Івах,D
Raw,Yes,3,Mikola Kozak,Juniors 20-23,1993,Ukraine,88,,,,,,,,,,195,205,-215,205,,205,90,M,Микола Козак,D
Raw,Yes,DQ,Dmitro Goropakha,Juniors 20-23,1992,Ukraine,88.95,,,,,,,,,,-220,-230,-230,,,,90,M,Дмитро Горопаха,D
Raw,Yes,1,Oleksandr Mikulenko,Open,1985,Ukraine,85.85,,,,,,,,,,195,202.5,212.2,212.2,,212.2,90,M,Олександр Микуленко,D
Raw,Yes,2,Daniil Sandak,Open,1990,Ukraine,87.1,,,,,,,,,,190,200,207.5,207.5,,207.5,90,M,Даніїл Сандак,D
Raw,Yes,3,Mikola Kozak,Open,1993,Ukraine,88,,,,,,,,,,195,205,-215,205,,205,90,M,Микола Козак,D
Raw,Yes,1,Oleg Lungu,Masters 40-44,1972,Ukraine,88.6,,,,,,,,,,210,220,-230,220,,220,90,M,Олег Лунгу,D
Raw,Yes,2,Oleksandr Drobilko,Masters 40-44,1972,Ukraine,86.15,,,,,,,,,,-170,170,180,180,,180,90,M,Олександр Дробілко,D
Raw,Yes,1,Mikola Scherbak,Juniors 20-23,1993,Ukraine,96.75,,,,,,,,,,250,265,-270,265,,265,100,M,Микола Щербак,D
Raw,Yes,2,Vladislav Scherbak,Juniors 20-23,1993,Ukraine,97.4,,,,,,,,,,230,245,255,255,,255,100,M,Владислав Щербак,D
Raw,Yes,3,Dmitro Soloshenko,Juniors 20-23,1995,Ukraine,94.1,,,,,,,,,,210,-225,-225,210,,210,100,M,Дмитро Солошенко,D
Raw,Yes,1,Mikola Scherbak,Open,1993,Ukraine,96.75,,,,,,,,,,250,265,-270,265,,265,100,M,Микола Щербак,D
Raw,Yes,2,Vladislav Scherbak,Open,1993,Ukraine,97.4,,,,,,,,,,230,245,255,255,,255,100,M,Владислав Щербак,D
Raw,Yes,3,Vitaliy Lisenko,Open,1988,Ukraine,97.35,,,,,,,,,,230,240,252.5,252.5,,252.5,100,M,Віталій Лисенко,D
Raw,Yes,4,Anton Shuraev,Open,1985,Ukraine,93.8,,,,,,,,,,205,210,215,215,,215,100,M,Антон Шураев,D
Raw,Yes,5,Sergiy Radchenko,Open,1989,Ukraine,94.6,,,,,,,,,,210,-240,-240,210,,210,100,M,Сергій Радченко,D
Raw,Yes,1,Oleg Vaschuk,Masters 40-44,1972,Ukraine,98,,,,,,,,,,200,210,-215,210,,210,100,M,Олег Ващук,D
Raw,Yes,1,Oleg Piskun,Masters 50-54,1962,Ukraine,97.6,,,,,,,,,,195,202.5,-207.5,202.5,,202.5,100,M,Олег Піскун,D
Raw,Yes,2,Andriy Gerbut,Masters 50-54,1964,Ukraine,95.65,,,,,,,,,,150,170,-190,170,,170,100,M,Андрій Гербут,D
Raw,Yes,3,Vitaliy Filonenko,Masters 50-54,1964,Ukraine,94.2,,,,,,,,,,-150,-150,150,150,,150,100,M,Віталій Філоненко,D
Raw,Yes,1,Artem Karpovich,Juniors 20-23,1993,Ukraine,106.2,,,,,,,,,,190,205,220,220,,220,110,M,Артем Карпович,D
Raw,Yes,1,Igor Zaychuk,Open,1989,Ukraine,106.75,,,,,,,,,,270,290,-300,290,,290,110,M,Ігор Зайчук,D
Raw,Yes,2,Oleksandr Tarasov,Open,1991,Ukraine,105.6,,,,,,,,,,260,-275,275,275,,275,110,M,Олександр Тарасов,D
Raw,Yes,1,Igor Kotsyuba,Open,1982,Ukraine,115.4,,,,,,,,,,220,240,260,260,,260,125,M,Ігор Коцюба,D
Single-ply,Yes,1,Nikita Mironov,Teen 13-15,2000,Ukraine,79.4,,,,,,,,,,-195,195,-200,195,,195,82.5,M,Нікіта Миронов,D
Single-ply,Yes,1,Ruslan Timoshenko,Open,1990,Ukraine,85.6,,,,,,,,,,232.5,242.5,-252.5,242.5,,242.5,90,M,Руслан Тимошенко,D
Raw,No,1,Anatoliy Starostenko,Teen 16-17,1999,Ukraine,61.45,,,,,,,,,,-177.5,185,190,190,,190,67.5,M,Анатолій Старостенко,D
Raw,No,1,Ihor Hamarnik,Open,1988,Ukraine,67.5,,,,,,,,,,200,-220,-220,200,,200,67.5,M,Ігор Гамарник,D
Raw,No,1,Vladislav Sizon,Teen 18-19,1997,Ukraine,71.5,,,,,,,,,,160,170,-180,170,,170,75,M,Владислав Сизон,D
Raw,No,1,Mykola Bilozerov,Open,1982,Ukraine,71.05,,,,,,,,,,225,-235,-240,225,,225,75,M,Николай Белозеров,D
Raw,No,1,Mikola Tishuk,Open,1992,Ukraine,82.5,,,,,,,,,,240,-252.5,-252.5,240,,240,82.5,M,Микола Тишук,D
Raw,No,1,Oleksii Melnyk,Open,1990,Ukraine,87.8,,,,,,,,,,285,-302.5,302.5,302.5,,302.5,90,M,Олексій Мельник,D
Raw,No,1,Mykola Chirikalo,Open,1987,Ukraine,91.75,,,,,,,,,,272.5,280,-290,280,,280,100,M,Микола Чирікало,D
Raw,No,2,Oleksiy Matyuschenko,Open,1986,Ukraine,98.85,,,,,,,,,,250,260,-270,260,,260,100,M,Олексій Матющенко,D
Raw,No,1,Aris Eyubov,Open,1979,Azerbaijan,108.4,,,,,,,,,,300,-310,-312.5,300,,300,110,M,Арис Эюбов,D
Raw,No,2,Ruslan Vinnyk,Open,1980,Ukraine,105.8,,,,,,,,,,270,290,-300,290,,290,110,M,Руслан Вінник,D
Raw,No,DQ,Ivan Stavnichiy,Juniors 20-23,1994,Ukraine,111.1,,,,,,,,,,-300,-307.5,-311,,,,125,M,Іван Ставничий,D
Raw,No,1,Oleksiy Vyshnytskyy,Open,1981,Ukraine,112.7,,,,,,,,,,360,-400,-400,360,,360,125,M,Олексій Вишницький,D
Single-ply,No,1,Pavlo Ischenko,Open,1991,Ukraine,92.1,,,,,,,,,,275,290,300,300,,300,100,M,Павло Іщенко,D
