Equipment,Place,Name,Division,BirthYear,Country,BodyweightKg,Bench1Kg,Bench2Kg,Bench3Kg,Best3BenchKg,WeightClassKg,Sex,CyrillicName,Deadlift1Kg,Deadlift2Kg,Deadlift3Kg,Best3DeadliftKg,Event,TotalKg
Raw,1,Polina Kundiy,Youth,2005,Ukraine,54.1,20,30,-40,30,,F,Поліна Кундій,,,,,B,30
Raw,1,Viktoriya Kapustyan,Open,1988,Ukraine,73.2,45,50,-55,50,,F,Вікторія Капустян,,,,,B,50
Raw,2,Polina Kundiy,Open,2005,Ukraine,54.1,20,30,-40,30,,F,Поліна Кундій,,,,,B,30
Raw,1,Artur Shatokhin,Youth,2006,Ukraine,51.8,25,-35,-35,25,56,M,Артур Шатохін,,,,,B,25
Raw,2,Vitaliy Voloschenko,Teen 13-15,2002,Ukraine,44.7,30,-35,40,40,56,M,Віталій Волощенко,,,,,B,40
Raw,1,Artur Shatokhin,Open,2006,Ukraine,51.8,25,-35,-35,25,56,M,Артур Шатохін,,,,,B,25
Raw,1,Vladislav Tsivina,Teen 13-15,2004,Ukraine,56.2,55,60,62.5,62.5,60,M,Владислав Цівина,,,,,B,62.5
Raw,1,Vladislav Tsivina,Open,2004,Ukraine,56.2,55,60,62.5,62.5,60,M,Владислав Цівина,,,,,B,62.5
Raw,1,Artur Ivaschenko,Teen 16-17,2000,Ukraine,61.3,70,80,90,90,67.5,M,Артур Іващенко,,,,,B,90
Raw,1,Yaroslav Chmir,Teen 18-19,1999,Ukraine,63.7,80,90,-95,90,67.5,M,Ярослав Чмир,,,,,B,90
Raw,1,Vladislav Martinenko,Teen 18-19,1998,Ukraine,69.7,80,90,100,100,75,M,Владислав Мартиненко,,,,,B,100
Raw,1,Stanislav Sinyagivskiy,Juniors 20-23,1995,Ukraine,70.3,-110,115,120,120,75,M,Станіслав Синягівський,,,,,B,120
Raw,1,Stanislav Sinyagivskiy,Open,1995,Ukraine,70.3,-110,115,120,120,75,M,Станіслав Синягівський,,,,,B,120
Raw,2,Kostyantin Bovan,Open,1989,Ukraine,73.3,100,105,-107.5,105,75,M,Костянтин Бован,,,,,B,105
Raw,1,Volodymyr Vasylenko,Masters,1943,Ukraine,72.4,60,65,,65,75,M,Володимир Василенко,,,,,B,65
Raw,1,Vitaliy Danilchenko,Teen 16-17,2000,Ukraine,78.3,105,-110,110,110,82.5,M,Віталій Данильченко,,,,,B,110
Raw,1,Rostislav Fortuna,Juniors 20-23,1996,Ukraine,82.3,132.5,137.5,145,145,82.5,M,Ростислав Фортуна,,,,,B,145
Raw,1,Rostislav Fortuna,Open,1996,Ukraine,82.3,132.5,137.5,145,145,82.5,M,Ростислав Фортуна,,,,,B,145
Raw,2,Sergiy Bogatirenko,Open,1991,Ukraine,81.1,100,105,-115,105,82.5,M,Сергій Богатиренко,,,,,B,105
Raw,1,Roman Soroka,Open,1988,Ukraine,89.9,135,142.5,-152.5,142.5,90,M,Роман Сорока,,,,,B,142.5
Raw,DQ,Maksim Pisotskiy,Open,1990,Ukraine,89.3,-120,-120,-120,,90,M,Максим Пісоцький,,,,,B,
Raw,1,Ivan Tyutyunnik,Juniors 20-23,1995,Ukraine,96.6,-145,145,152.5,152.5,100,M,Іван Тютюнник,,,,,B,152.5
Raw,1,Ivan Tyutyunnik,Open,1995,Ukraine,96.6,-145,145,152.5,152.5,100,M,Іван Тютюнник,,,,,B,152.5
Raw,2,Eduard Kachur,Open,1992,Ukraine,97.9,160,-170,-170,160,100,M,Едуард Качур,,,,,B,160
Raw,1,Viktoriya Kapustyan,Open,1988,Ukraine,73.2,,,,,,F,Вікторія Капустян,110,120,130,130,D,130
Raw,1,Vladislav Tsivina,Teen 13-15,2004,Ukraine,56.2,,,,,60,M,Владислав Цівина,100,115,125,125,D,125
Raw,1,Vladislav Tsivina,Open,2004,Ukraine,56.2,,,,,60,M,Владислав Цівина,100,115,125,125,D,125
Raw,1,Artur Ivaschenko,Teen 16-17,2000,Ukraine,61.3,,,,,67.5,M,Артур Іващенко,185,190,192.5,192.5,D,192.5
Raw,2,Stanislav Tsivina,Teen 16-17,2000,Ukraine,65.6,,,,,67.5,M,Станіслав Цівина,130,150,160,160,D,160
Raw,1,Artur Ivaschenko,Open,2000,Ukraine,61.3,,,,,67.5,M,Артур Іващенко,185,190,192.5,192.5,D,192.5
Raw,1,Stanislav Sinyagivskiy,Juniors 20-23,1995,Ukraine,70.3,,,,,75,M,Станіслав Синягівський,200,210,215,215,D,215
Raw,1,Stanislav Sinyagivskiy,Open,1995,Ukraine,70.3,,,,,75,M,Станіслав Синягівський,200,210,215,215,D,215
Raw,2,Kostyantin Bovan,Open,1989,Ukraine,73.3,,,,,75,M,Костянтин Бован,170,185,190,190,D,190
Raw,1,Volodymyr Vasylenko,Masters,1943,Ukraine,72.4,,,,,75,M,Володимир Василенко,130,140,,140,D,140
Raw,1,Oleksiy Bazir,Teen 16-17,2001,Ukraine,80.1,,,,,82.5,M,Олексій Базирь,120,140,147.5,147.5,D,147.5
Raw,2,Oleksandr Yakovenko,Teen 16-17,2000,Ukraine,79.1,,,,,82.5,M,Олександр Яковенко,130,135,140,140,D,140
Raw,1,Sergiy Ryabenko,Teen 18-19,1998,Ukraine,81.7,,,,,82.5,M,Сергій Рябенко,115,130,140,140,D,140
Raw,1,Oleksandr Padusenko,Juniors 20-23,1997,Ukraine,80.7,,,,,82.5,M,Олександр Падусенко,120,150,155,155,D,155
Raw,1,Evgeniy Kalko,Open,1993,Ukraine,77.8,,,,,82.5,M,Євгеній Калько,220,235,245,245,D,245
Raw,2,Sergiy Bogatirenko,Open,1991,Ukraine,81.1,,,,,82.5,M,Сергій Богатиренко,190,195,200,200,D,200
Raw,3,Oleksandr Padusenko,Open,1997,Ukraine,80.7,,,,,82.5,M,Олександр Падусенко,120,150,155,155,D,155
Raw,1,Roman Soroka,Open,1988,Ukraine,89.9,,,,,90,M,Роман Сорока,200,220,-230,220,D,220
Raw,1,Oleksiy Tsilyurik,Juniors 20-23,1994,Ukraine,93.4,,,,,100,M,Олексій Цилюрик,160,170,180,180,D,180
Raw,1,Eduard Kachur,Open,1992,Ukraine,97.9,,,,,100,M,Едуард Качур,230,240,-250,240,D,240
Raw,2,Andriy Garazha,Open,1989,Ukraine,92.7,,,,,100,M,Андрій Гаража,180,190,200,200,D,200
Raw,3,Oleksiy Tsilyurik,Open,1994,Ukraine,93.4,,,,,100,M,Олексій Цилюрик,160,170,180,180,D,180
Raw,1,Oleg Kovbasa,Masters,1975,Ukraine,94.8,,,,,100,M,Олег Ковбаса,190,210,220,220,D,220
Single-ply,1,Sergiy Kolesnik,Masters,1963,Ukraine,98.8,,,,,100,M,Сергій Колесник,230,-240,240,240,D,240
