Equipment,Place,Name,Division,BirthYear,Country,BodyweightKg,Squat1Kg,Squat2Kg,Squat3Kg,Best3SquatKg,Bench1Kg,Bench2Kg,Bench3Kg,Best3BenchKg,Bench4Kg,Deadlift1Kg,Deadlift2Kg,Deadlift3Kg,Best3DeadliftKg,TotalKg,WeightClassKg,Sex,CyrillicName,Event
Raw,1,Eva Shavidze,T1,2003,Ukraine,46.3,40,45,52.5,52.5,27.5,32.5,35,35,,45,50,60,60,147.5,48,F,Ева Шавидзе,SBD
Raw,1,Alisa Strokina,T3,1999,Ukraine,47.5,70,-75,-80,70,35,37.5,40,40,,80,85,87.5,87.5,197.5,48,F,Алиса Строкина,SBD
Raw,1,Alisa Strokina,O,1999,Ukraine,47.5,70,-75,-80,70,35,37.5,40,40,,80,85,87.5,87.5,197.5,48,F,Алиса Строкина,SBD
Raw,2,Eva Shavidze,O,2003,Ukraine,46.3,40,45,52.5,52.5,27.5,32.5,35,35,,45,50,60,60,147.5,48,F,Ева Шавидзе,SBD
Raw,1,Anastasiya Kots,O,1985,Ukraine,50.6,107.5,112.5,117.5,117.5,62.5,67.5,,67.5,,120,127.5,132.5,132.5,317.5,52,F,Анастасія Коц,SBD
Raw,2,Nataliya Bondarenko,O,1980,Ukraine,52,85,92.5,95,95,45,47.5,-50,47.5,,125,132.5,135.5,135.5,278,52,F,Наталія Бондаренко,SBD
Raw,3,Marina Safronova,O,1990,Ukraine,51.6,70,85,-92.5,85,37.5,42.5,-47.5,42.5,,80,100,110,110,237.5,52,F,Марина Сафронова,SBD
Raw,4,Tatyana Demchishina,O,1987,Ukraine,51.6,80,-87.5,-90,80,45,47.5,-50,47.5,,90,100,110,110,237.5,52,F,Тетяна Демчишина,SBD
Raw,5,Taisiya Kotlyar,O,1988,Ukraine,51.1,-75,75,-80,75,52.5,55,57.5,57.5,,85,90,92.5,92.5,225,52,F,Таисия Котляр,SBD
Raw,6,Elena Kanunikova,O,1980,Ukraine,51.3,-65,67.5,70,70,45,-47.5,-47.5,45,,85,-90,,85,200,52,F,Елена Кануникова,SBD
Raw,1,Nataliya Bondarenko,MS,1980,Ukraine,52,85,92.5,95,95,45,47.5,-50,47.5,,125,132.5,135.5,135.5,278,52,F,Наталія Бондаренко,SBD
Raw,1,Viktoriya Lagun,T3,1999,Ukraine,55.5,85,-92.5,-92.5,85,45,47.5,-50,47.5,,95,100,-102.5,100,232.5,56,F,Виктория Лагун,SBD
Raw,1,Lyudmila Ryabykh,O,1984,Ukraine,55.3,75,-80,-80,75,45,50,-52.5,50,,100,112.5,-122.5,112.5,237.5,56,F,Людмила Рябых,SBD
Raw,2,Viktoriya Lagun,O,1999,Ukraine,55.5,85,-92.5,-92.5,85,45,47.5,-50,47.5,,95,100,-102.5,100,232.5,56,F,Виктория Лагун,SBD
Raw,3,Svetlana Dzhumaeva,O,1990,Ukraine,54.4,70,77.5,-80,77.5,32.5,37.5,-40,37.5,,80,87.5,-95,87.5,202.5,56,F,Светлана Джумаева,SBD
Raw,1,Valeriya Semenko,J,1996,Ukraine,58,-95,95,105,105,-65,-65,65,65,,100,115,130,130,300,60,F,Валерія Семенько,SBD
Raw,1,Svitlana Stadnik,O,1981,Ukraine,60,90,102.5,112.5,112.5,65,-70,70,70,,110,120,125,125,307.5,60,F,Світлана Стаднік,SBD
Raw,2,Valeriya Semenko,O,1996,Ukraine,58,-95,95,105,105,-65,-65,65,65,,100,115,130,130,300,60,F,Валерія Семенько,SBD
Raw,3,Yuliya Kleschevnikova,O,1983,Ukraine,60,85,95,100,100,45,50,-52.5,50,,-105,105,-112.5,105,255,60,F,Юлія Клещевнікова,SBD
Raw,4,Yuliya Deryugina,O,1983,Ukraine,59.7,55,65,75,75,32.5,-37.5,-37.5,32.5,,85,95,105,105,212.5,60,F,Юлия Дерюгина,SBD
Raw,1,Svitlana Stadnik,MS,1981,Ukraine,60,90,102.5,112.5,112.5,65,-70,70,70,,110,120,125,125,307.5,60,F,Світлана Стаднік,SBD
Raw,1,Valeriya Sukhanova,T2,2000,Ukraine,67.5,100,105,-110,105,50,55,57.5,57.5,,105,110,117.5,117.5,280,67.5,F,Валерія Суханова,SBD
Raw,1,Evgeniya Gaynetdinova,J,1994,Ukraine,67.5,-125,125,,125,-70,70,-72.5,70,,120,-125,125,125,320,67.5,F,Євгенія Гайнетдінова,SBD
Raw,2,Ekaterina Scheblikina,J,1993,Ukraine,64,65,72.5,75,75,37.5,42.5,-45,42.5,,67.5,75,,75,192.5,67.5,F,Екатерина Щебликина,SBD
Raw,1,Evgeniya Gaynetdinova,O,1994,Ukraine,67.5,-125,125,,125,-70,70,-72.5,70,,120,-125,125,125,320,67.5,F,Євгенія Гайнетдінова,SBD
Raw,2,Valeriya Sukhanova,O,2000,Ukraine,67.5,100,105,-110,105,50,55,57.5,57.5,,105,110,117.5,117.5,280,67.5,F,Валерія Суханова,SBD
Raw,3,Irina Kosogor,O,1986,Ukraine,65.9,85,-90,95,95,57.5,62.5,-67.5,62.5,,90,100,110,110,267.5,67.5,F,Ирина Косогор,SBD
Raw,4,Ekaterina Scheblikina,O,1993,Ukraine,64,65,72.5,75,75,37.5,42.5,-45,42.5,,67.5,75,,75,192.5,67.5,F,Екатерина Щебликина,SBD
Raw,1,Valeriya Virchenko,O,1982,Ukraine,75,-120,-125,125,125,-57.5,-62.5,62.5,62.5,,135,147.5,-150.5,147.5,335,75,F,Валерія Вірченко,SBD
Raw,1,Vladislav Kolesnik,T3,1997,Ukraine,58.9,80,85,90,90,70,75,-77.5,75,,100,105,110,110,275,60,M,Владислав Колесник,SBD
Raw,1,Vladislav Kolesnik,O,1997,Ukraine,58.9,80,85,90,90,70,75,-77.5,75,,100,105,110,110,275,60,M,Владислав Колесник,SBD
Raw,1,Ilya Pivovar,T1,2002,Ukraine,67.2,95,100,105,105,65,70,75,75,,115,130,142.5,142.5,322.5,67.5,M,Илья Пивовар,SBD
Raw,2,Ilya Sevostyanov,T1,2001,Ukraine,64.3,90,95,102.5,102.5,65,70,77.5,77.5,,110,125,140,140,320,67.5,M,Илья Севостьянов,SBD
Raw,1,Andrey Polyanskiy,T3,1997,Ukraine,65,-140,-140,140,140,100,-110,-115,100,,140,145,152.5,152.5,392.5,67.5,M,Андрей Полянский,SBD
Raw,1,Kostyantyn Kryvonos,J,1996,Ukraine,65.8,140,150,155,155,115,120,125,125,,-220,220,-225,220,500,67.5,M,Костянтин Кривонос,SBD
Raw,2,Evgeniy Zalepilov,J,1993,Ukraine,64.8,145,150,-155,150,95,105,110,110,,150,160,170,170,430,67.5,M,Евгений Залепилов,SBD
Raw,3,Evgeniy Lakomkin,J,1996,Ukraine,61.3,110,120,-130,120,-105,105,107.5,107.5,,-160,160,-165,160,387.5,67.5,M,Євген Лакомкін,SBD
Raw,DQ,Oleg Efimenko,J,1996,Ukraine,66.6,-135,-135,-135,,-80,,,,,-180,,,,,67.5,M,Олег Єфименко,SBD
Raw,1,Kostyantyn Kryvonos,O,1996,Ukraine,65.8,140,150,155,155,115,120,125,125,,-220,220,-225,220,500,67.5,M,Костянтин Кривонос,SBD
Raw,2,Evgeniy Zalepilov,O,1993,Ukraine,64.8,145,150,-155,150,95,105,110,110,,150,160,170,170,430,67.5,M,Евгений Залепилов,SBD
Raw,3,Andrey Polyanskiy,O,1997,Ukraine,65,-140,-140,140,140,100,-110,-115,100,,140,145,152.5,152.5,392.5,67.5,M,Андрей Полянский,SBD
Raw,4,Evgeniy Lakomkin,O,1996,Ukraine,61.3,110,120,-130,120,-105,105,107.5,107.5,,-160,160,-165,160,387.5,67.5,M,Євген Лакомкін,SBD
Raw,5,Dmitriy Shestakov,O,1985,Ukraine,64.9,-110,110,115,115,-85,85,90,90,,115,120,125,125,330,67.5,M,Дмитрий Шестаков,SBD
Raw,6,Ilya Pivovar,O,2002,Ukraine,67.2,95,100,105,105,65,70,75,75,,115,130,142.5,142.5,322.5,67.5,M,Илья Пивовар,SBD
Raw,7,Ilya Sevostyanov,O,2001,Ukraine,64.3,90,95,102.5,102.5,65,70,77.5,77.5,,110,125,140,140,320,67.5,M,Илья Севостьянов,SBD
Raw,DQ,Oleg Efimenko,O,1996,Ukraine,66.6,-135,-135,-135,,-80,,,,,-180,,,,,67.5,M,Олег Єфименко,SBD
Raw,1,Bogdan Schelkunov,T1,2001,Ukraine,71.8,-110,120,-130,120,90,-95,-95,90,,150,160,170,170,380,75,M,Богдан Щелкунов,SBD
Raw,1,Maksim Mironov,T2,1999,Ukraine,74,140,-150,150,150,105,110,-112.5,110,,170,180,185,185,445,75,M,Максим Миронов,SBD
Raw,2,Nikita Latukha,T2,2000,Ukraine,74.8,-110,110,-125,110,95,102.5,110,110,,160,180,190,190,410,75,M,Никита Латуха,SBD
Raw,1,Dmitriy Pisarenko,J,1995,Ukraine,74.5,180,185,190,190,125,132.5,-140,132.5,,215,225,240,240,562.5,75,M,Дмитрий Писаренко,SBD
Raw,2,Maksim Kravchenko,J,1994,Ukraine,73.8,160,170,175,175,90,95,100,100,,215,-225,225,225,500,75,M,Максим Кравченко,SBD
Raw,1,Dmitriy Pisarenko,O,1995,Ukraine,74.5,180,185,190,190,125,132.5,-140,132.5,,215,225,240,240,562.5,75,M,Дмитрий Писаренко,SBD
Raw,2,Oleksandr Tyurin,O,1987,Ukraine,75,175,180,182.5,182.5,125,-132.5,-132.5,125,,200,207.5,212.5,212.5,520,75,M,Олександр Тюрін,SBD
Raw,3,Vitaliy Khorunzhenko,O,1983,Ukraine,73.7,160,165,170,170,120,127.5,132.5,132.5,,195,205,210,210,512.5,75,M,Виталий Хорунженко,SBD
Raw,4,Maksim Kravchenko,O,1994,Ukraine,73.8,160,170,175,175,90,95,100,100,,215,-225,225,225,500,75,M,Максим Кравченко,SBD
Raw,5,Pavlo Kassiopiy,O,1977,Ukraine,75,145,155,165,165,100,-110,110,110,,180,195,-205,195,470,75,M,Павло Кассіопій,SBD
Raw,6,Maksim Mironov,O,1999,Ukraine,74,140,-150,150,150,105,110,-112.5,110,,170,180,185,185,445,75,M,Максим Миронов,SBD
Raw,7,Sergey Surkov,O,1981,Ukraine,72.7,135,145.5,-150,145.5,100,-105,107.5,107.5,,170,182.5,-190,182.5,435.5,75,M,Сергей Сурков,SBD
Raw,8,Nikita Latukha,O,2000,Ukraine,74.8,-110,110,-125,110,95,102.5,110,110,,160,180,190,190,410,75,M,Никита Латуха,SBD
Raw,9,Bogdan Schelkunov,O,2001,Ukraine,71.8,-110,120,-130,120,90,-95,-95,90,,150,160,170,170,380,75,M,Богдан Щелкунов,SBD
Raw,10,Armen Galstyan,O,1983,Ukraine,74.5,120,-125,-127.5,120,-90,-95,95,95,,135,140,-145,140,355,75,M,Армен Галстян,SBD
Raw,1,Pavlo Kassiopiy,MS,1977,Ukraine,75,145,155,165,165,100,-110,110,110,,180,195,-205,195,470,75,M,Павло Кассіопій,SBD
Raw,2,Sergey Surkov,MS,1981,Ukraine,72.7,135,145.5,-150,145.5,100,-105,107.5,107.5,,170,182.5,-190,182.5,435.5,75,M,Сергей Сурков,SBD
Raw,1,Maksim Khordikov,T3,1998,Ukraine,77.8,150,-167.5,-167.5,150,100,107.5,112.5,112.5,,165,182.5,190,190,452.5,82.5,M,Максим Хордіков,SBD
Raw,1,Mykhaylo Chumak,J,1995,Ukraine,81.3,210,215,220,220,120,-130,130,130,,230,235,240,240,590,82.5,M,Михайло Чумак,SBD
Raw,2,Vadim Kirik,J,1993,Ukraine,80.8,180,190,200,200,110,120,125,125,,200,215,230,230,555,82.5,M,Вадим Кирик,SBD
Raw,1,Maksim Glushak,O,1985,Ukraine,79.5,210,220,-230,220,130,135,137.5,137.5,,235,245,-250,245,602.5,82.5,M,Максим Глушак,SBD
Raw,2,Mykhaylo Chumak,O,1995,Ukraine,81.3,210,215,220,220,120,-130,130,130,,230,235,240,240,590,82.5,M,Михайло Чумак,SBD
Raw,3,Ruslan Chiken,O,1986,Ukraine,82.5,190,205,-210,205,117.5,122.5,-125,122.5,,240,255,-265,255,582.5,82.5,M,Руслан Чикен,SBD
Raw,4,Vadim Kirik,O,1993,Ukraine,80.8,180,190,200,200,110,120,125,125,,200,215,230,230,555,82.5,M,Вадим Кирик,SBD
Raw,5,Nikolay Akhrimenko,O,1982,Ukraine,82,180,190,-195,190,-115,120,127.5,127.5,,180,192.5,205,205,522.5,82.5,M,Николай Ахрименко,SBD
Raw,6,Yuriy Stolbovoy,O,1969,Ukraine,82.2,170,175,-180,175,100,105,-110,105,,200,210,215,215,495,82.5,M,Юрій Столбовой,SBD
Raw,7,Maksim Khordikov,O,1998,Ukraine,77.8,150,-167.5,-167.5,150,100,107.5,112.5,112.5,,165,182.5,190,190,452.5,82.5,M,Максим Хордіков,SBD
Raw,8,Yuriy Prokopenko #1,O,1982,Ukraine,78,-130,135,-140,135,85,-90,-90,85,,135,145,-150,145,365,82.5,M,Юрий Прокопенко,SBD
Raw,1,Yuriy Stolbovoy,M2,1969,Ukraine,82.2,170,175,-180,175,100,105,-110,105,,200,210,215,215,495,82.5,M,Юрій Столбовой,SBD
Raw,1,Nikolay Akhrimenko,MS,1982,Ukraine,82,180,190,-195,190,-115,120,127.5,127.5,,180,192.5,205,205,522.5,82.5,M,Николай Ахрименко,SBD
Raw,2,Yuriy Prokopenko #1,MS,1982,Ukraine,78,-130,135,-140,135,85,-90,-90,85,,135,145,-150,145,365,82.5,M,Юрий Прокопенко,SBD
Raw,1,Aleksey Chicherin,J,1993,Ukraine,87.3,-205,207.5,215,215,125,130,135,135,,220,225,230,230,580,90,M,Олексій Чичерін,SBD
Raw,2,Vadim Skorobitchenko,J,1994,Ukraine,87.8,190,200,-207.5,200,125,-130,130,130,,200,-210,-210,200,530,90,M,Вадим Скоробитченко,SBD
Raw,3,Dmitriy Motynga,J,1994,Ukraine,89.3,165,175,-185,175,125,135,-140,135,,180,190,200,200,510,90,M,Дмитро Мотинга,SBD
Raw,4,Vladislav Bagraev,J,1995,Ukraine,87.4,170,-180,-180,170,130,135,140,140,,190,195,-205,195,505,90,M,Владислав Баграев,SBD
Raw,5,Yuriy Rudnik,J,1996,Ukraine,88.5,140,155,-165,155,100,107.5,-115,107.5,,-180,180,185,185,447.5,90,M,Юрий Рудник,SBD
Raw,1,Oleksiy Sadovskyy,O,1980,Ukraine,89.3,210,220,225,225,135,142.5,147.5,147.5,,240,250,252.5,252.5,625,90,M,Олексій Садовський,SBD
Raw,2,Ilya Tarasov,O,1990,Ukraine,87.3,180,200,210,210,120,140,145,145,,200,210,225,225,580,90,M,Илья Тарасов,SBD
Raw,3,Aleksey Chicherin,O,1993,Ukraine,87.3,-205,207.5,215,215,125,130,135,135,,220,225,230,230,580,90,M,Олексій Чичерін,SBD
Raw,4,Ruslan Mekler,O,1991,Ukraine,88.4,180,190,200,200,140,150,-152.5,150,,200,210,220,220,570,90,M,Руслан Меклер,SBD
Raw,5,Vadim Skorobitchenko,O,1994,Ukraine,87.8,190,200,-207.5,200,125,-130,130,130,,200,-210,-210,200,530,90,M,Вадим Скоробитченко,SBD
Raw,6,Dmitriy Motynga,O,1994,Ukraine,89.3,165,175,-185,175,125,135,-140,135,,180,190,200,200,510,90,M,Дмитро Мотинга,SBD
Raw,7,Vladislav Bagraev,O,1995,Ukraine,87.4,170,-180,-180,170,130,135,140,140,,190,195,-205,195,505,90,M,Владислав Баграев,SBD
Raw,8,Andrey Kozlov,O,1982,Ukraine,89.5,160,-170,170,170,130,137.5,142.5,142.5,,160,170,180,180,492.5,90,M,Андрей Козлов,SBD
Raw,9,Yuriy Rudnik,O,1996,Ukraine,88.5,140,155,-165,155,100,107.5,-115,107.5,,-180,180,185,185,447.5,90,M,Юрий Рудник,SBD
Raw,1,Oleksiy Sadovskyy,MS,1980,Ukraine,89.3,210,220,225,225,135,142.5,147.5,147.5,,240,250,252.5,252.5,625,90,M,Олексій Садовський,SBD
Raw,1,Dmitro Volokitin,T3,1998,Ukraine,97.3,190,200,210,210,125,132.5,137.5,137.5,,230,242.5,-247.5,242.5,590,100,M,Дмитро Волокитін,SBD
Raw,1,Kirill Kramar,J,1992,Ukraine,98.1,-150,160,175,175,140,155,165,165,,180,200,215,215,555,100,M,Кирилл Крамар,SBD
Raw,1,Oleksandr Bandura,O,1985,Ukraine,95.8,210,220,225,225,145,152.5,157.5,157.5,,240,250,255,255,637.5,100,M,Олександр Бандура,SBD
Raw,2,Andrey Markelov,O,1973,Ukraine,100,190,202.5,212.5,212.5,170,175,180,180,,210,222.5,230,230,622.5,100,M,Андрей Маркелов,SBD
Raw,3,Egor Demidenko,O,1990,Ukraine,96.8,180,195,-205,195,-140,150,160,160,,190,210,235,235,590,100,M,Егор Демиденко,SBD
Raw,4,Dmitro Volokitin,O,1998,Ukraine,97.3,190,200,210,210,125,132.5,137.5,137.5,,230,242.5,-247.5,242.5,590,100,M,Дмитро Волокитін,SBD
Raw,5,Kirill Kramar,O,1992,Ukraine,98.1,-150,160,175,175,140,155,165,165,,180,200,215,215,555,100,M,Кирилл Крамар,SBD
Raw,1,Andrey Markelov,M1,1973,Ukraine,100,190,202.5,212.5,212.5,170,175,180,180,,210,222.5,230,230,622.5,100,M,Андрей Маркелов,SBD
Raw,1,Volodymyr Lebedev #2,O,1961,Ukraine,105.5,205,215,225,225,125,130,-135,130,,225,240,,240,595,110,M,Володимир Лебєдєв,SBD
Raw,1,Volodymyr Lebedev #2,M4,1961,Ukraine,105.5,205,215,225,225,125,130,-135,130,,225,240,,240,595,110,M,Володимир Лебєдєв,SBD
Raw,1,Maksim Danilenko,O,1987,Ukraine,117.6,145,155,160,160,120,127.5,132.5,132.5,,175,185,195,195,487.5,125,M,Максим Даниленко,SBD
Raw,1,Yana Chanysheva,T2,2000,Ukraine,41.4,,,,,20,27.5,30,30,,,,,,30,44,F,Яна Чанышева,B
Raw,1,Yana Chanysheva,O,2000,Ukraine,41.4,,,,,20,27.5,30,30,,,,,,30,44,F,Яна Чанышева,B
Raw,1,Alisa Strokina,T3,1999,Ukraine,47.5,,,,,37.5,-40,-42.5,37.5,,,,,,37.5,48,F,Алиса Строкина,B
Raw,1,Anna Chibisova,J,1992,Ukraine,46.3,,,,,60,63,-65,63,,,,,,63,48,F,Анна Чибисова,B
Raw,2,Ekaterina Pupisheva,J,1992,Ukraine,47.3,,,,,42.5,47.5,-50,47.5,,,,,,47.5,48,F,Екатерина Пупишева,B
Raw,1,Anna Chibisova,O,1992,Ukraine,46.3,,,,,60,63,-65,63,,,,,,63,48,F,Анна Чибисова,B
Raw,2,Ekaterina Pupisheva,O,1992,Ukraine,47.3,,,,,42.5,47.5,-50,47.5,,,,,,47.5,48,F,Екатерина Пупишева,B
Raw,3,Alisa Strokina,O,1999,Ukraine,47.5,,,,,37.5,-40,-42.5,37.5,,,,,,37.5,48,F,Алиса Строкина,B
Raw,1,Yuliya Ushakova,O,1987,Ukraine,51.2,,,,,42.5,47.5,-50,47.5,,,,,,47.5,52,F,Юлия Ушакова,B
Raw,2,Marina Safronova,O,1990,Ukraine,51.6,,,,,37.5,42.5,-45,42.5,,,,,,42.5,52,F,Марина Сафронова,B
Raw,3,Tatyana Mazulnikova,O,1987,Ukraine,51.1,,,,,40,-45,-45,40,,,,,,40,52,F,Татьяна Мазульникова,B
Raw,1,Yuliya Oderiy,J,1993,Ukraine,55.2,,,,,62.5,65,-67.5,65,,,,,,65,56,F,Юлія Одерій,B
Raw,2,Yuliya Chikalova,J,1996,Ukraine,54.2,,,,,50,-52.5,-55,50,,,,,,50,56,F,Юлия Чикалова,B
Raw,1,Yuliya Oderiy,O,1993,Ukraine,55.2,,,,,62.5,65,-67.5,65,,,,,,65,56,F,Юлія Одерій,B
Raw,2,Elena Chuchupal,O,1986,Ukraine,55.8,,,,,60,65,-67.5,65,,,,,,65,56,F,Елена Чучупал,B
Raw,3,Yuliya Chikalova,O,1996,Ukraine,54.2,,,,,50,-52.5,-55,50,,,,,,50,56,F,Юлия Чикалова,B
Raw,1,Darina Tylichko,T1,2001,Ukraine,59.7,,,,,55,57.5,-60,57.5,,,,,,57.5,60,F,Дарина Тыличко,B
Raw,1,Ekaterina Popova,T3,1998,Ukraine,58.7,,,,,-55,-55,55,55,,,,,,55,60,F,Екатерина Попова,B
Raw,1,Darina Tylichko,O,2001,Ukraine,59.7,,,,,55,57.5,-60,57.5,,,,,,57.5,60,F,Дарина Тыличко,B
Raw,2,Ekaterina Popova,O,1998,Ukraine,58.7,,,,,-55,-55,55,55,,,,,,55,60,F,Екатерина Попова,B
Raw,1,Elizaveta Tolubenko,T2,1999,Ukraine,63.4,,,,,-67.5,67.5,-70,67.5,,,,,,67.5,67.5,F,Єлизавета Толубенко,B
Raw,1,Tatyana Tkachenko,T3,1998,Ukraine,67.3,,,,,75,-80,80,80,,,,,,80,67.5,F,Татьяна Ткаченко,B
Raw,1,Yuliya Sazonova,J,1992,Ukraine,66.6,,,,,57.5,60,62.5,62.5,,,,,,62.5,67.5,F,Юлия Сазонова,B
Raw,1,Tatyana Tkachenko,O,1998,Ukraine,67.3,,,,,75,-80,80,80,,,,,,80,67.5,F,Татьяна Ткаченко,B
Raw,2,Elizaveta Tolubenko,O,1999,Ukraine,63.4,,,,,-67.5,67.5,-70,67.5,,,,,,67.5,67.5,F,Єлизавета Толубенко,B
Raw,3,Irina Kosogor,O,1986,Ukraine,67.5,,,,,62.5,65,-67.5,65,,,,,,65,67.5,F,Ирина Косогор,B
Raw,4,Yuliya Sazonova,O,1992,Ukraine,66.6,,,,,57.5,60,62.5,62.5,,,,,,62.5,67.5,F,Юлия Сазонова,B
Raw,DQ,Nadezhda Novachenko,O,1980,Ukraine,67.5,,,,,-60,-60,-62.5,,,,,,,,67.5,F,Надежда Новаченко,B
Raw,DQ,Nadezhda Novachenko,MS,1980,Ukraine,67.5,,,,,-60,-60,-62.5,,,,,,,,67.5,F,Надежда Новаченко,B
Raw,1,Stanislav Serebryakov,T1,2003,Ukraine,47.3,,,,,55,60,62.5,62.5,-65,,,,,62.5,48,M,Станислав Серебряков,B
Raw,1,Aleksandr Yarmolchik,Y,2005,Ukraine,44.1,,,,,47.5,52.5,55,55,,,,,,55,48,M,Александр Ярмольчик,B
Raw,1,Fedor Markin,Y,2006,Ukraine,36.6,,,,,30,32.5,35,35,,,,,,35,48,M,Федор Маркин,B
Raw,1,Stanislav Serebryakov,O,2003,Ukraine,47.3,,,,,55,60,62.5,62.5,-65,,,,,62.5,48,M,Станислав Серебряков,B
Raw,2,Aleksandr Yarmolchik,O,2005,Ukraine,44.1,,,,,47.5,52.5,55,55,,,,,,55,48,M,Александр Ярмольчик,B
Raw,3,Fedor Markin,O,2006,Ukraine,36.6,,,,,30,32.5,35,35,,,,,,35,48,M,Федор Маркин,B
Raw,1,Anton Likhachev,T1,2002,Ukraine,50.7,,,,,45,50,-52.5,50,,,,,,50,52,M,Антон Лихачев,B
Raw,1,Vladislav Medvedev,T1,2004,Ukraine,49.5,,,,,30,-40,40,40,,,,,,40,52,M,Владислав Медведев,B
Raw,1,Anton Likhachev,O,2002,Ukraine,50.7,,,,,45,50,-52.5,50,,,,,,50,52,M,Антон Лихачев,B
Raw,2,Vladislav Medvedev,O,2004,Ukraine,49.5,,,,,30,-40,40,40,,,,,,40,52,M,Владислав Медведев,B
Raw,1,Nazar Serdyuchenko,T1,2004,Ukraine,53.3,,,,,55,60,-62.5,60,,,,,,60,56,M,Назар Сердюченко,B
Raw,1,Nazar Serdyuchenko,O,2004,Ukraine,53.3,,,,,55,60,-62.5,60,,,,,,60,56,M,Назар Сердюченко,B
Raw,1,Viktor Bondar,T2,2001,Ukraine,59.1,,,,,70,75,77.5,77.5,,,,,,77.5,60,M,Виктор Бондарь,B
Raw,1,Andriy Kofanov,O,1985,Ukraine,60,,,,,122.5,127.5,-132.5,127.5,,,,,,127.5,60,M,Андрій Кофанов,B
Raw,2,Viktor Bondar,O,2001,Ukraine,59.1,,,,,70,75,77.5,77.5,,,,,,77.5,60,M,Виктор Бондарь,B
Raw,1,Ilya Poltavets,T1,2002,Ukraine,66.9,,,,,70,75,80,80,,,,,,80,67.5,M,Илья Полтавец,B
Raw,1,Ruslan Sorochinskiy,J,1993,Ukraine,66.4,,,,,115,120,-125,120,,,,,,120,67.5,M,Руслан Сорочинський,B
Raw,2,Oleksandr Alyabin,J,1992,Ukraine,65.7,,,,,112.5,-120,-120,112.5,,,,,,112.5,67.5,M,Олександр Алябін,B
Raw,1,Andriy Bobrov,O,1983,Ukraine,67,,,,,150,160,166,166,,,,,,166,67.5,M,Андрій Бобров,B
Raw,2,Ruslan Sorochinskiy,O,1993,Ukraine,66.4,,,,,115,120,-125,120,,,,,,120,67.5,M,Руслан Сорочинський,B
Raw,3,Oleksandr Alyabin,O,1992,Ukraine,65.7,,,,,112.5,-120,-120,112.5,,,,,,112.5,67.5,M,Олександр Алябін,B
Raw,4,Ilya Poltavets,O,2002,Ukraine,66.9,,,,,70,75,80,80,,,,,,80,67.5,M,Илья Полтавец,B
Raw,1,Stanislav Borovik,T3,1997,Ukraine,72.3,,,,,100,110,-122.5,110,,,,,,110,75,M,Станислав Боровик,B
Raw,1,Vladislav Yanko,J,1995,Ukraine,74.6,,,,,140,142.5,145,145,,,,,,145,75,M,Владислав Янко,B
Raw,2,Dmitriy Oleynik,J,1992,Ukraine,74.2,,,,,130,140,-150,140,,,,,,140,75,M,Дмитрий Олейник,B
Raw,2,Anatoliy Chervinskiy,J,1995,Ukraine,72.6,,,,,-115,-115,115,115,-122.5,,,,,115,75,M,Анатолий Червинский,B
Raw,1,Vladislav Yanko,O,1995,Ukraine,74.6,,,,,140,142.5,145,145,,,,,,145,75,M,Владислав Янко,B
Raw,2,Dmitriy Oleynik,O,1992,Ukraine,74.2,,,,,130,140,-150,140,,,,,,140,75,M,Дмитрий Олейник,B
Raw,3,Ruslan Guliev,O,1982,Ukraine,75,,,,,130,135,140,140,,,,,,140,75,M,Руслан Гулиев,B
Raw,4,Roman Zhovner,O,1991,Ukraine,75,,,,,122.5,-130,,122.5,,,,,,122.5,75,M,Роман Жовнер,B
Raw,5,Anatoliy Chervinskiy,O,1995,Ukraine,72.6,,,,,-115,-115,115,115,-122.5,,,,,115,75,M,Анатолий Червинский,B
Raw,6,Stanislav Borovik,O,1997,Ukraine,72.3,,,,,100,110,-122.5,110,,,,,,110,75,M,Станислав Боровик,B
Raw,7,Konstantin Ukrainets,O,1984,Ukraine,74.9,,,,,-92.5,95,-100,95,,,,,,95,75,M,Константин Украинец,B
Raw,1,Ruslan Guliev,MS,1982,Ukraine,75,,,,,130,135,140,140,,,,,,140,75,M,Руслан Гулиев,B
Raw,1,Andrey Ermolenko,T1,2001,Ukraine,78.9,,,,,95,97.5,-100,97.5,,,,,,97.5,82.5,M,Андрей Ермоленко,B
Raw,2,Abdelkarim Mesab Elshamaer,T1,2003,Ukraine,81.1,,,,,80,85,-90,85,,,,,,85,82.5,M,Абделькарим Месаб Эльшамаер,B
Raw,1,Bogdan Kozachok,T3,1998,Ukraine,81,,,,,100,115,120,120,,,,,,120,82.5,M,Богдан Козачок,B
Raw,1,Vitaliy Chumak,J,1995,Ukraine,81.9,,,,,127.5,-132.5,-132.5,127.5,,,,,,127.5,82.5,M,Віталій Чумак,B
Raw,1,Oleksiy Mikhalyuk,O,1989,Ukraine,77.5,,,,,155,160,165,165,-170,,,,,165,82.5,M,Олексій Михалюк,B
Raw,2,Vladimir Zhuk,O,1990,Ukraine,82.2,,,,,140,150,155,155,,,,,,155,82.5,M,Владимир Жук,B
Raw,3,Aleksandr Klimov,O,1989,Ukraine,81.4,,,,,140,147.5,-152.5,147.5,,,,,,147.5,82.5,M,Александр Климов,B
Raw,4,Ivan Soroka #1,O,1986,Ukraine,81.7,,,,,132.5,137.5,142.5,142.5,,,,,,142.5,82.5,M,Иван Сорока,B
Raw,5,Vitaliy Chumak,O,1995,Ukraine,81.9,,,,,127.5,-132.5,-132.5,127.5,,,,,,127.5,82.5,M,Віталій Чумак,B
Raw,6,Bogdan Kozachok,O,1998,Ukraine,81,,,,,100,115,120,120,,,,,,120,82.5,M,Богдан Козачок,B
Raw,7,Stanislav Sidorenko,O,1982,Ukraine,81.2,,,,,105,110,-115,110,,,,,,110,82.5,M,Станислав Сидоренко,B
Raw,8,Andrey Ermolenko,O,2001,Ukraine,78.9,,,,,95,97.5,-100,97.5,,,,,,97.5,82.5,M,Андрей Ермоленко,B
Raw,9,Abdelkarim Mesab Elshamaer,O,2003,Ukraine,81.1,,,,,80,85,-90,85,,,,,,85,82.5,M,Абделькарим Месаб Эльшамаер,B
Raw,1,Stanislav Sidorenko,MS,1982,Ukraine,81.2,,,,,105,110,-115,110,,,,,,110,82.5,M,Станислав Сидоренко,B
Raw,1,Vasil Tovkan,T2,1999,Ukraine,86,,,,,160,-165,165,165,,,,,,165,90,M,Василь Товкан,B
Raw,2,Ivan Slipenskiy,T2,2001,Ukraine,86.7,,,,,-70,-100,100,100,,,,,,100,90,M,Иван Слипенский,B
Raw,1,Nikita Bulgakov,T3,1998,Ukraine,83,,,,,100,110,-122.5,110,,,,,,110,90,M,Никита Булгаков,B
Raw,1,Nikita Kizim,J,1993,Ukraine,88.6,,,,,190,-200,-200,190,,,,,,190,90,M,Никита Кизим,B
Raw,1,Nikita Kizim,O,1993,Ukraine,88.6,,,,,190,-200,-200,190,,,,,,190,90,M,Никита Кизим,B
Raw,2,Denis Pogorelov,O,1981,Ukraine,89.8,,,,,170,177.5,-192.5,177.5,,,,,,177.5,90,M,Денис Погорелов,B
Raw,3,Pavlo Vedmid,O,1990,Ukraine,85.9,,,,,165,175,-180,175,,,,,,175,90,M,Павло Ведмідь,B
Raw,4,Vasil Tovkan,O,1999,Ukraine,86,,,,,160,-165,165,165,,,,,,165,90,M,Василь Товкан,B
Raw,5,Nikolay Gotvyanskiy,O,1986,Ukraine,88.3,,,,,150,157.5,160,160,,,,,,160,90,M,Николай Готвянский,B
Raw,6,Oleg Avdeev #2,O,1991,Ukraine,88.5,,,,,-157.5,-157.5,157.5,157.5,,,,,,157.5,90,M,Олег Авдєєв,B
Raw,7,Denis Kharkovskiy,O,1988,Ukraine,85.1,,,,,140,-147.5,147.5,147.5,,,,,,147.5,90,M,Денис Харьковский,B
Raw,8,Dmitriy Zdor,O,1984,Ukraine,89.5,,,,,145,-155,-155,145,,,,,,145,90,M,Дмитрий Здор,B
Raw,9,Sergey Romantsov,O,1964,Ukraine,87.2,,,,,127.5,132.5,135,135,,,,,,135,90,M,Сергей Романцов,B
Raw,10,Nikita Bulgakov,O,1998,Ukraine,83,,,,,100,110,-122.5,110,,,,,,110,90,M,Никита Булгаков,B
Raw,11,Ivan Slipenskiy,O,2001,Ukraine,86.7,,,,,-70,-100,100,100,,,,,,100,90,M,Иван Слипенский,B
Raw,1,Sergey Romantsov,M3,1964,Ukraine,87.2,,,,,127.5,132.5,135,135,,,,,,135,90,M,Сергей Романцов,B
Raw,1,Denis Pogorelov,MS,1981,Ukraine,89.8,,,,,170,177.5,-192.5,177.5,,,,,,177.5,90,M,Денис Погорелов,B
Raw,1,Rasul Alakhverdiev,T3,1997,Ukraine,99,,,,,170,180,185,185,-190,,,,,185,100,M,Расул Алахвердієв,B
Raw,2,Maksim Fesenko,T3,1997,Ukraine,93.4,,,,,150,-155,160,160,,,,,,160,100,M,Максим Фесенко,B
Raw,3,Rafael Gasimov,T3,1999,Ukraine,98.5,,,,,130,137.5,-140,137.5,,,,,,137.5,100,M,Рафаэль Гасимов,B
Raw,DQ,Igor Zhukovich,T3,1997,Ukraine,95,,,,,-137.5,-140,-140,,,,,,,,100,M,Игорь Жукович,B
Raw,1,Sergiy Ignatyuk,J,1993,Ukraine,95.8,,,,,180,192.5,-200,192.5,,,,,,192.5,100,M,Сергій Ігнатюк,B
Raw,2,Dmitriy Peresadko,J,1993,Ukraine,99.3,,,,,170,180,-182.5,180,,,,,,180,100,M,Дмитрий Пересадько,B
Raw,3,Igor Karpilovich,J,1994,Ukraine,93.7,,,,,167.5,175,-180,175,,,,,,175,100,M,Ігорь Карпилович,B
Raw,4,Kirill Kramar,J,1992,Ukraine,98.1,,,,,140,155,165,165,,,,,,165,100,M,Кирилл Крамар,B
Raw,5,Aleksandr Polyanitsa,J,1994,Ukraine,95,,,,,150,160,-165,160,,,,,,160,100,M,Александр Поляница,B
Raw,6,Artem Podpryatov,J,1995,Ukraine,94.3,,,,,147.5,152.5,155,155,,,,,,155,100,M,Артем Подпрятов,B
Raw,1,Anatoliy Kalachinskiy,O,1978,Ukraine,96,,,,,205,212.5,217.5,217.5,,,,,,217.5,100,M,Анатолій Калачинський,B
Raw,2,Igor Germanovych,O,1989,Ukraine,94.6,,,,,205,-210,-210,205,,,,,,205,100,M,Ігор Германович,B
Raw,3,Vadim Miroshnichenko,O,1987,Ukraine,97.8,,,,,190,200,-207.5,200,,,,,,200,100,M,Вадим Мірошниченко,B
Raw,4,Sergiy Ignatyuk,O,1993,Ukraine,95.8,,,,,180,192.5,-200,192.5,,,,,,192.5,100,M,Сергій Ігнатюк,B
Raw,5,Artem Koba,O,1990,Ukraine,95,,,,,170,180,185,185,-190,,,,,185,100,M,Артем Коба,B
Raw,6,Ion Stepanenko,O,1984,Ukraine,96.2,,,,,180,185,-187.5,185,,,,,,185,100,M,Іон Степаненко,B
Raw,7,Rasul Alakhverdiev,O,1997,Ukraine,99,,,,,170,180,185,185,-190,,,,,185,100,M,Расул Алахвердієв,B
Raw,8,Andrey Markelov,O,1973,Ukraine,100,,,,,170,178,182.5,182.5,,,,,,182.5,100,M,Андрей Маркелов,B
Raw,9,Evgeniy Belashov,O,1988,Ukraine,97.8,,,,,-170,170,180,180,-192.5,,,,,180,100,M,Евгений Белашов,B
Raw,10,Dmitriy Peresadko,O,1993,Ukraine,99.3,,,,,170,180,-182.5,180,,,,,,180,100,M,Дмитрий Пересадько,B
Raw,11,Sergey Lebed,O,1987,Ukraine,99.6,,,,,180,-192.5,-192.5,180,,,,,,180,100,M,Сергей Лебедь,B
Raw,12,Igor Karpilovich,O,1994,Ukraine,93.7,,,,,167.5,175,-180,175,,,,,,175,100,M,Ігорь Карпилович,B
Raw,13,Yuriy Prokhorov,O,1981,Ukraine,95.2,,,,,165,-170,170,170,,,,,,170,100,M,Юрий Прохоров,B
Raw,14,Kirill Kramar,O,1992,Ukraine,98.1,,,,,140,155,165,165,,,,,,165,100,M,Кирилл Крамар,B
Raw,15,Maksim Fesenko,O,1997,Ukraine,93.4,,,,,150,-155,160,160,,,,,,160,100,M,Максим Фесенко,B
Raw,16,Aleksandr Polyanitsa,O,1994,Ukraine,95,,,,,150,160,-165,160,,,,,,160,100,M,Александр Поляница,B
Raw,17,Yuriy Tkachenko,O,1986,Ukraine,98.15,,,,,-157.5,157.5,-165,157.5,,,,,,157.5,100,M,Юрий Ткаченко,B
Raw,18,Artem Podpryatov,O,1995,Ukraine,94.3,,,,,147.5,152.5,155,155,,,,,,155,100,M,Артем Подпрятов,B
Raw,19,Rafael Gasimov,O,1999,Ukraine,98.5,,,,,130,137.5,-140,137.5,,,,,,137.5,100,M,Рафаэль Гасимов,B
Raw,20,Aleksey Golovashov,O,1984,Ukraine,93.8,,,,,-120,120,132.5,132.5,,,,,,132.5,100,M,Алексей Головашов,B
Raw,21,Oleg Shentsev,O,1980,Ukraine,99.6,,,,,-120,125,-132.5,125,,,,,,125,100,M,Олег Шенцев,B
Raw,22,Sergiy Pavlov,O,1954,Ukraine,91.4,,,,,110,115,120.5,120.5,122,,,,,120.5,100,M,Сергій Павлов,B
Raw,DQ,Igor Zhukovich,O,1997,Ukraine,95,,,,,-137.5,-140,-140,,,,,,,,100,M,Игорь Жукович,B
Raw,1,Andrey Markelov,M1,1973,Ukraine,100,,,,,170,178,182.5,182.5,,,,,,182.5,100,M,Андрей Маркелов,B
Raw,1,Sergiy Pavlov,M5,1954,Ukraine,91.4,,,,,110,115,120.5,120.5,122,,,,,120.5,100,M,Сергій Павлов,B
Raw,1,Anatoliy Kalachinskiy,MS,1978,Ukraine,96,,,,,205,212.5,217.5,217.5,,,,,,217.5,100,M,Анатолій Калачинський,B
Raw,2,Yuriy Prokhorov,MS,1981,Ukraine,95.2,,,,,165,-170,170,170,,,,,,170,100,M,Юрий Прохоров,B
Raw,3,Oleg Shentsev,MS,1980,Ukraine,99.6,,,,,-120,125,-132.5,125,,,,,,125,100,M,Олег Шенцев,B
Raw,1,Evgeniy Kachanov,J,1995,Ukraine,108.8,,,,,145,152.5,160,160,,,,,,160,110,M,Евгений Качанов,B
Raw,1,Sergiy Solomakha,O,1982,Ukraine,108.2,,,,,195,202.5,207.5,207.5,,,,,,207.5,110,M,Сергій Соломаха,B
Raw,2,Evgeniy Kachanov,O,1995,Ukraine,108.8,,,,,145,152.5,160,160,,,,,,160,110,M,Евгений Качанов,B
Raw,3,Roman Khokhlov,O,1984,Ukraine,109,,,,,130,135,140,140,,,,,,140,110,M,Роман Хохлов,B
Raw,4,Mikhail Belichenko,O,1982,Ukraine,108.85,,,,,125,-152.5,-152.5,125,,,,,,125,110,M,Михаил Беличенко,B
Raw,5,Artem Oskolkov,O,1981,Ukraine,105.8,,,,,120,-130,-137.5,120,,,,,,120,110,M,Артем Осколков,B
Raw,1,Artem Oskolkov,MS,1981,Ukraine,105.8,,,,,120,-130,-137.5,120,,,,,,120,110,M,Артем Осколков,B
Raw,1,Evgen Napryaglo,O,1983,Ukraine,121,,,,,240,250.5,-257.5,250.5,,,,,,250.5,125,M,Євген Напрягло,B
Raw,2,Oleg Krupenya,O,1981,Ukraine,121.3,,,,,195,-205,205,205,,,,,,205,125,M,Олег Крупеня,B
Raw,3,Roman Ogulchanskiy,O,1971,Ukraine,118,,,,,-170,170,175,175,,,,,,175,125,M,Роман Огульчанский,B
Raw,DQ,Yuriy Glitka,O,1987,Ukraine,113.5,,,,,-150,-150,-150,,,,,,,,125,M,Юрий Глитка,B
Raw,1,Roman Ogulchanskiy,M2,1971,Ukraine,118,,,,,-170,170,175,175,,,,,,175,125,M,Роман Огульчанский,B
Raw,1,Oleg Krupenya,MS,1981,Ukraine,121.3,,,,,195,-205,205,205,,,,,,205,125,M,Олег Крупеня,B
Raw,1,Roman Pyatak,O,1981,Ukraine,125.2,,,,,205,212.5,-217.5,212.5,,,,,,212.5,125+,M,Роман Пятак,B
Raw,1,Roman Pyatak,MS,1981,Ukraine,125.2,,,,,205,212.5,-217.5,212.5,,,,,,212.5,125+,M,Роман Пятак,B
