Equipment,Place,Name,Division,BirthYear,Country,BodyweightKg,Squat1Kg,Squat2Kg,Squat3Kg,Best3SquatKg,Squat4Kg,WeightClassKg,Sex,CyrillicName,Bench1Kg,Bench2Kg,Bench3Kg,Best3BenchKg,Bench4Kg,Deadlift1Kg,Deadlift2Kg,Deadlift3Kg,Best3DeadliftKg,Deadlift4Kg,Event,TotalKg
Raw,1,Judy Gedney,F-M6,1940,USA,44.1,80,82.5,86,86,,47.5,F,,,,,,,,,,,,S,86
Raw,1,Daria Dermeleva,F-T1,1994,Estonia,53,55,65,,65,,53,F,,,,,,,,,,,,S,65
Raw,1,Louise Fox,F-O,1972,England,53.5,-90,95,100,100,,55.5,F,,,,,,,,,,,,S,100
Raw,2,Mariyana Marinova,F-O,1975,Germany,54.2,95,100,-102.5,100,,55.5,F,,,,,,,,,,,,S,100
Raw,1,Pauline Murray,F-M1,1967,Ireland,54.9,60,70,80,80,,55.5,F,,,,,,,,,,,,S,80
Raw,1,Helen Wuyts,F-T2,1991,Belgium,57.3,90,100,110,110,,58.5,F,,,,,,,,,,,,S,110
Raw,1,Nadezhda Talikova,F-M2,1960,Russia,59.8,-90,90,97.5,97.5,-107.5,63,F,Надежда Таликова,,,,,,,,,,,S,97.5
Raw,1,Eleonora Soardo,F-JR,1986,Italy,64.8,90,-100,-100,90,,70,F,,,,,,,,,,,,S,90
Raw,1,Caroline Garhammer-Vogt,F-O,1978,Switzerland,69.8,95,105,110,110,,70,F,,,,,,,,,,,,S,110
Raw,1,Gabrielle Bennett,F-T1,1993,England,78,60,67.5,72.5,72.5,77.5,80,F,,,,,,,,,,,,S,72.5
Raw,1,Tetyana Kushnir,F-M1,1964,Ukraine,73.9,85,87.5,95,95,,80,F,Тетяна Кушнір,,,,,,,,,,,S,95
Raw,1,Nataliya Tsukanova,F-M3,1956,Ukraine,78.6,110,115,120,120,,80,F,Наталія Цуканова,,,,,,,,,,,S,120
Raw,1,Steve Brown #4,M-M2,1962,England,59.1,137.5,147.5,152.5,152.5,,60,M,,,,,,,,,,,,S,152.5
Raw,1,Steve Smith #7,M-M7,1933,USA,58,45,50,55,55,,60,M,,,,,,,,,,,,S,55
Raw,1,Vincenzo Ampola,M-JR,1985,Italy,65.1,100,110,130,130,,67.5,M,,,,,,,,,,,,S,130
Raw,1,Ambrogio Musso,M-O,1984,Italy,63.2,110,130,-140,130,,67.5,M,,,,,,,,,,,,S,130
Raw,1,Salvatore Busuito,M-T2,1991,Italy,68.5,100,110,115,115,,75,M,,,,,,,,,,,,S,115
Raw,1,Sing Thirht,M-O,1973,Belgium,69.8,-160,165,-177.5,165,,75,M,,,,,,,,,,,,S,165
Raw,1,Pietro D'armetta,M-O,1981,Italy,73,80,100,115,115,,75,M,,,,,,,,,,,,S,115
Raw,1,Tony Pierce,M-M2,1959,Ireland,73.5,140,150,-170,150,,75,M,,,,,,,,,,,,S,150
Raw,1,George Campbell,M-M5,1945,Ireland,73.5,125,135,140,140,,75,M,,,,,,,,,,,,S,140
Raw,1,Anatoliy Dubrov,M-M6,1941,Russia,72.8,125,130,135,135,,75,M,Анатолий Дубров,,,,,,,,,,,S,135
Raw,1,William Cacciato,M-O,1974,Italy,75.7,120,130,140,140,,82.5,M,,,,,,,,,,,,S,140
Raw,1,Agostino Vaccaro,M-T2,1991,Italy,81.3,100,120,135,135,,82.5,M,,,,,,,,,,,,S,135
Raw,1,Callum Frowen,M-T3,1989,Ireland,78.8,160,170,180,180,181,82.5,M,,,,,,,,,,,,S,180
Raw,1,Harjinder Mundi,M-T3,1990,England,80.7,132.5,145,152.5,152.5,,82.5,M,,,,,,,,,,,,S,152.5
Raw,1,John Ryan #4,M-O,1973,Ireland,81.2,210,220,-230,220,,82.5,M,,,,,,,,,,,,S,220
Raw,2,Francesco Lo Porto,M-O,1981,Italy,80.5,190,200,205,205,,82.5,M,,,,,,,,,,,,S,205
Raw,1,Maurizio Spano,M-M1,1966,Italy,75.3,130,150,160,160,,82.5,M,,,,,,,,,,,,S,160
Raw,1,Andrey Kogan,M-M2,1962,Russia,79.3,165,172.5,180.5,180.5,,82.5,M,Андрей Коган,,,,,,,,,,,S,180.5
Raw,1,Roger Murray,M-M5,1945,Australia,81.4,-130,130,140,140,,82.5,M,,,,,,,,,,,,S,140
Raw,1,Georgiy Lazaridi,M-M8,1933,Russia,79.4,140,145,,145,,82.5,M,Георгий Лазариди,,,,,,,,,,,S,145
Raw,1,Dmitriy Vasilyev,M-JR,1985,Russia,87.8,165,180,-190,180,,90,M,Дмитрий Васильев,,,,,,,,,,,S,180
Raw,1,Sergei Dermeljov,M-M2,1959,Estonia,86.2,-200,200,-220,200,,90,M,,,,,,,,,,,,S,200
Raw,1,Cosimo Orlando,M-M3,1956,Italy,86.8,-170,180,195,195,,90,M,,,,,,,,,,,,S,195
Raw,1,Martin Theyssens,M-M6,1939,Belgium,88.8,135,,,135,,90,M,,,,,,,,,,,,S,135
Raw,1,Andy McKee,M-M7,1938,England,87.1,120,-125,-125,120,,90,M,,,,,,,,,,,,S,120
Raw,1,Yannick Van Roy,M-T2,1991,Belgium,95.9,140,150,155,155,,100,M,,,,,,,,,,,,S,155
Raw,1,Cosimo Venditti,M-JR,1985,Italy,98.1,180,200,205,205,-210,100,M,,,,,,,,,,,,S,205
Raw,2,Georgy Zobach,M-M3,1954,Russia,90.7,200,212.5,,212.5,,100,M,Георгий Зобач,,,,,,,,,,,S,212.5
Raw,3,Timothy Andrews,M-M7,1938,USA,97.5,105,-115,123,123,,100,M,,,,,,,,,,,,S,123
Raw,1,Jake Arkell,M-T3,1990,England,102.5,175,185,-192.5,185,,110,M,,,,,,,,,,,,S,185
Raw,1,Emanuel Schembri,M-JR,1986,Malta,112.9,200,217.5,222.5,222.5,-227.5,125,M,,,,,,,,,,,,S,222.5
Raw,2,Oleg Sinitsa,M-JR,1985,Russia,121.7,180,192.5,197.5,197.5,,125,M,Олег Синица,,,,,,,,,,,S,197.5
Raw,1,Andriy Smolnikov,M-O,1978,Ukraine,116.3,220,240,,240,,125,M,Андрій Смольников,,,,,,,,,,,S,240
Raw,2,Vladimir Krasnorutskiy,M-O,1979,Russia,123.9,200,-207.5,207.5,207.5,,125,M,Владимир Красноруцкий,,,,,,,,,,,S,207.5
Raw,1,Vladimir Sushchak,M-O,1972,Russia,131.1,240,,260,260,,145,M,Владимир Сущак,,,,,,,,,,,S,260
Raw,DQ,Aleksandr Tarasevich,M-O,1971,Russia,133.5,-180,-180,,,,145,M,Александр Тарасевич,,,,,,,,,,,S,
Raw,1,Dennis Stouder,M-M2,1960,USA,153,180,210,-220,210,,145+,M,,,,,,,,,,,,S,210
Raw,1,Sofie Zenner,F-O,1978,Belgium,42.9,,,,,,44,F,,50,52.5,55,55,-58,,,,,,B,55
Raw,1,Nicole Debail,F-M2,1961,France,46.2,,,,,,47.5,F,,50,52.5,55,55,,,,,,,B,55
Raw,1,Judy Gedney,F-M6,1940,USA,44.4,,,,,,47.5,F,,45,47.5,-50,47.5,,,,,,,B,47.5
Raw,1,Maura Galietti,F-O,1973,Italy,50.5,,,,,,50.5,F,,50.5,52.5,57.5,57.5,-60,,,,,,B,57.5
Raw,1,Pat Reeves,F-M5,1946,England,49.7,,,,,,50.5,F,,32.5,35,-37.5,35,,,,,,,B,35
Raw,1,Patricia Kim,F-O,1981,England,51.6,,,,,,53,F,,50,-55,-55,50,,,,,,,B,50
Raw,1,Corinne Larée,F-M1,1967,France,52.4,,,,,,53,F,,50,55,57.5,57.5,,,,,,,B,57.5
Raw,1,Daria Dermeleva,F-T1,1994,Estonia,53.7,,,,,,55.5,F,,25,-30,-30,25,,,,,,,B,25
Raw,1,Eugenia Lobanova,F-T2,1991,Russia,53.3,,,,,,55.5,F,Евгения Лобанова,37.5,-40,42.5,42.5,,,,,,,B,42.5
Raw,1,Mariyana Marinova,F-O,1975,Germany,54.3,,,,,,55.5,F,,62.5,67.5,70,70,,,,,,,B,70
Raw,2,Louise Fox,F-O,1972,England,54,,,,,,55.5,F,,62.5,67.5,-70,67.5,,,,,,,B,67.5
Raw,3,Sara Di Bartolomeo,F-O,1979,Italy,55.1,,,,,,55.5,F,,55,57.5,-60,57.5,,,,,,,B,57.5
Raw,1,Pauline Murray,F-M1,1967,Ireland,55.4,,,,,,55.5,F,,-50,52.5,55,55,,,,,,,B,55
Raw,1,Helen Wuyts,F-T2,1991,Belgium,57.3,,,,,,58.5,F,,55,60,-65,60,,,,,,,B,60
Raw,1,Scheila Di Rocca,F-O,1975,Italy,57.5,,,,,,58.5,F,,65,67.5,70,70,,,,,,,B,70
Raw,1,Delphine Bettens,F-O,1984,Belgium,59.4,,,,,,63,F,,55,60,62.5,62.5,,,,,,,B,62.5
Raw,1,Cecile Reynes,F-M1,1967,France,61.4,,,,,,63,F,,87.5,92.5,96,96,,,,,,,B,96
Raw,1,Nadezhda Talikova,F-M2,1960,Russia,60.4,,,,,,63,F,Надежда Таликова,45,50,-52.5,50,,,,,,,B,50
Raw,1,Veronnique Bourdon,F-M3,1958,France,62.8,,,,,,63,F,,65,70,75,75,75.5,,,,,,B,75
Raw,1,Sue Davies,F-O,1969,England,68.9,,,,,,70,F,,85,-90,90,90,-93,,,,,,B,90
Raw,2,Marina Solovyeva,F-O,1982,Russia,63.5,,,,,,70,F,Марина Соловьева,75,80,85,85,,,,,,,B,85
Raw,3,Caroline Garhammer-Vogt,F-O,1978,Switzerland,69.3,,,,,,70,F,,65,70,-75,70,,,,,,,B,70
Raw,1,Manon Bradley,F-M1,1967,England,65.3,,,,,,70,F,,70,75,77.5,77.5,81,,,,,,B,77.5
Raw,1,Gabrielle Bennett,F-T1,1993,England,77.8,,,,,,80,F,,40,46,-47.5,46,,,,,,,B,46
Raw,1,Tetyana Kushnir,F-M1,1964,Ukraine,73.4,,,,,,80,F,Тетяна Кушнір,80,85,90,90,,,,,,,B,90
Raw,1,Nataliya Tsukanova,F-M3,1956,Ukraine,78.7,,,,,,80,F,Наталія Цуканова,-80,-80,80,80,,,,,,,B,80
Raw,1,Yulia Segal,F-M2,1963,Russia,81.9,,,,,,90,F,Юлия Сегал,67.5,-70,70,70,,,,,,,B,70
Raw,1,Gladys Saussois,F-O,1975,France,93,,,,,,90+,F,,97.5,102.5,-107.5,102.5,,,,,,,B,102.5
Raw,1,Indy Smet,M-T1,1994,Belgium,50.5,,,,,,52,M,,50,55,60,60,62.5,,,,,,B,60
Raw,1,Alessio Buffa,M-T1,1993,Italy,52,,,,,,52,M,,50,55,-62.5,55,,,,,,,B,55
Raw,1,Alexander Gorijn,M-T2,1991,Belgium,51.8,,,,,,52,M,,75,80,85,85,,,,,,,B,85
Raw,1,Surat Miah,M-T3,1990,England,50.8,,,,,,52,M,,55,-62.5,62.5,62.5,,,,,,,B,62.5
Raw,1,Ulf Krikilion,M-T2,1992,Belgium,58.3,,,,,,60,M,,80,82.5,85,85,,,,,,,B,85
Raw,1,Gregory Vervaeke,M-T3,1989,Belgium,59.7,,,,,,60,M,,75,80,85,85,,,,,,,B,85
Raw,1,Aaron Gideon,M-O,1980,England,57.6,,,,,,60,M,,107.5,-117.5,117.5,117.5,,,,,,,B,117.5
Raw,1,Steve Brown #4,M-M2,1962,England,58.5,,,,,,60,M,,85,,,85,,,,,,,B,85
Raw,1,Agostino Trévisan,M-M5,1943,Switzerland,58,,,,,,60,M,,90,95,100,100,,,,,,,B,100
Raw,1,Jean-Michel Moreiro,M-M4,1953,France,59.3,,,,,,60,M,,-90,90,-95,90,,,,,,,B,90
Raw,1,Steve Smith #7,M-M7,1933,USA,57.8,,,,,,60,M,,72.5,75,-77.5,75,,,,,,,B,75
Raw,1,Chris Murray #9,M-T2,1991,England,67,,,,,,67.5,M,,87.5,-90,90,90,,,,,,,B,90
Raw,2,Eros Falcetta,M-T2,1991,Italy,62,,,,,,67.5,M,,75,-85,-87.5,75,,,,,,,B,75
Raw,3,Yente De Schepper,M-T2,1992,Belgium,62.3,,,,,,67.5,M,,65,72.5,-77.5,72.5,,,,,,,B,72.5
Raw,1,Florian Morainville,M-T3,1989,France,66.1,,,,,,67.5,M,,115,120,-127.5,120,,,,,,,B,120
Raw,1,Maxime LeFort,M-JR,1986,France,65,,,,,,67.5,M,,117.5,122.5,-125,122.5,,,,,,,B,122.5
Raw,2,Bjom Slachmuylders,M-JR,1988,Belgium,64.5,,,,,,67.5,M,,102.5,105,-110,105,,,,,,,B,105
Raw,3,Vincenzo Ampola,M-JR,1985,Italy,65.8,,,,,,67.5,M,,-77.5,-82.5,85,85,,,,,,,B,85
Raw,1,Dominique Loquet,M-M2,1962,France,67.1,,,,,,67.5,M,,112.5,117.5,-120,117.5,,,,,,,B,117.5
Raw,1,Ted Byrne,M-M4,1951,England,66.4,,,,,,67.5,M,,70,-82.5,-82.5,70,,,,,,,B,70
Raw,1,Martin Godden,M-M5,1944,England,64.8,,,,,,67.5,M,,70,75,80,80,,,,,,,B,80
Raw,1,George Shelton,M-T1,1993,England,74.3,,,,,,75,M,,60,70,75,75,,,,,,,B,75
Raw,1,Salvatore Busuito,M-T2,1991,Italy,68.5,,,,,,75,M,,100,-105,-105,100,,,,,,,B,100
Raw,2,Jonas Lefebre,M-T2,1991,Belgium,70.8,,,,,,75,M,,90,-92.5,-92.5,90,,,,,,,B,90
Raw,1,Rosario Barresi,M-T3,1990,Italy,69.3,,,,,,75,M,,100,110,115,115,,,,,,,B,115
Raw,1,Kristof D'hollander,M-JR,1986,Belgium,74.7,,,,,,75,M,,105,115,117.5,117.5,,,,,,,B,117.5
Raw,2,Dries Goethals,M-JR,1985,Belgium,74.7,,,,,,75,M,,105,-115,-115,105,117.5,,,,,,B,105
Raw,1,Samuel Lecourvreux,M-O,1979,France,74.6,,,,,,75,M,,142.5,147.5,-150,147.5,,,,,,,B,147.5
Raw,2,Cyrille Cusumano,M-O,1971,France,73.9,,,,,,75,M,,135,140,-142.5,140,,,,,,,B,140
Raw,3,Alexander Tosh,M-O,1982,England,75,,,,,,75,M,,132.5,137.5,140,140,,,,,,,B,140
Raw,4,Sing Thirht,M-O,1973,Belgium,70.8,,,,,,75,M,,130,135,-140,135,,,,,,,B,135
Raw,5,Pierre Tirifahy,M-O,1971,Belgium,73.4,,,,,,75,M,,130,135,-140,135,,,,,,,B,135
Raw,6,Giusepe Barbera,M-O,1980,Italy,74.4,,,,,,75,M,,125,132.5,135,135,,,,,,,B,135
Raw,7,Vito Amato,M-O,1983,Italy,74,,,,,,75,M,,125,-132.5,-132.5,125,,,,,,,B,125
Raw,1,Maurizio Spano,M-M1,1966,Italy,74.8,,,,,,75,M,,105,120,130,130,,,,,,,B,130
Raw,1,Claude Patout,M-M2,1962,France,74.7,,,,,,75,M,,150,155,160,160,,,,,,,B,160
Raw,1,Pietro Donati,M-M3,1955,Italy,71.6,,,,,,75,M,,-110,-110,110,110,,,,,,,B,110
Raw,1,Antonello Dessalvi,M-M4,1953,Italy,74.5,,,,,,75,M,,135,145,150,150,,,,,,,B,150
Raw,2,Johnny Calleman,M-M4,1953,Belgium,74.1,,,,,,75,M,,110,115,-117.5,115,,,,,,,B,115
Raw,1,George Campbell,M-M5,1945,Ireland,74.1,,,,,,75,M,,85,95,100,100,,,,,,,B,100
Raw,1,Gennadiy Veryovkin,M-M6,1943,Russia,74.2,,,,,,75,M,Геннадий Верёвкин,95,102.5,107.5,107.5,,,,,,,B,107.5
Raw,1,Billy Van Doorne,M-M7,1938,Belgium,75,,,,,,75,M,,90,-95,-95,90,,,,,,,B,90
Raw,1,Andre Charbit,M-M8,1933,France,73.6,,,,,,75,M,,90,-92.5,-92.5,90,,,,,,,B,90
Raw,1,Corentin Tessandier,M-T1,1993,Belgium,81.9,,,,,,82.5,M,,110,113.5,-115,113.5,,,,,,,B,113.5
Raw,1,Agostino Vaccaro,M-T2,1991,Italy,82.2,,,,,,82.5,M,,90,100,107.5,107.5,,,,,,,B,107.5
Raw,1,Callum Flowen,M-T3,1989,Ireland,79.1,,,,,,82.5,M,,115,120,125,125,,,,,,,B,125
Raw,2,Harjinder Mundi,M-T3,1990,England,81.4,,,,,,82.5,M,,100,110,-115,110,,,,,,,B,110
Raw,DQ,Medhi Hammoud,M-T3,1989,Belgium,82.3,,,,,,82.5,M,,-110,,,,,,,,,,B,
Raw,1,Julien Camdessouscens,M-JR,1986,France,81.8,,,,,,82.5,M,,-147.5,147.5,152.5,152.5,,,,,,,B,152.5
Raw,2,Akil Rahimi,M-JR,1987,Belgium,78.2,,,,,,82.5,M,,-105,110,115,115,,,,,,,B,115
Raw,1,Mike Joseph #1,M-O,1971,England,81.6,,,,,,82.5,M,,175,182.5,190,190,,,,,,,B,190
Raw,2,Phillip Tempest,M-O,1971,England,81,,,,,,82.5,M,,140,150,-152.5,150,,,,,,,B,150
Raw,3,Jérôme Prevot,M-O,1974,France,80.5,,,,,,82.5,M,,142.5,-145,,142.5,,,,,,,B,142.5
Raw,4,Francesco Lo Porto,M-O,1981,Italy,81.6,,,,,,82.5,M,,132.5,137.5,-140,137.5,,,,,,,B,137.5
Raw,5,Sandro Geisser,M-O,1984,Switzerland,80.9,,,,,,82.5,M,,125,130,135,135,,,,,,,B,135
Raw,1,Giusepe Magno,M-M1,1968,Italy,79.5,,,,,,82.5,M,,140,150,160,160,,,,,,,B,160
Raw,1,Daniel Thierry,M-M2,1959,France,78.6,,,,,,82.5,M,,-140,-145,145,145,,,,,,,B,145
Raw,2,Andrey Kogan,M-M2,1962,Russia,79.5,,,,,,82.5,M,Андрей Коган,130,,,130,,,,,,,B,130
Raw,1,Gary Conway,M-M3,1956,England,79.3,,,,,,82.5,M,,130,135,137.5,137.5,,,,,,,B,137.5
Raw,2,Jean-Philippe Marie,M-M3,1955,France,80.5,,,,,,82.5,M,,120,130,137.5,137.5,,,,,,,B,137.5
Raw,1,Ashley Sinclair,M-M4,1950,England,79.8,,,,,,82.5,M,,120,-132.5,-132.5,120,,,,,,,B,120
Raw,1,Marcel Lenormand,M-M5,1946,France,81,,,,,,82.5,M,,120,125,127.5,127.5,,,,,,,B,127.5
Raw,2,Michel Riolland,M-M5,1948,France,81.8,,,,,,82.5,M,,120,125,-127.5,125,,,,,,,B,125
Raw,1,Illio Polese,M-M6,1941,Italy,77.9,,,,,,82.5,M,,115,122.5,-127.5,122.5,,,,,,,B,122.5
Raw,1,Pierre Laving,M-M7,1935,France,81.3,,,,,,82.5,M,,100,110,-115,110,,,,,,,B,110
Raw,1,Alessandro Sanna,M-PFM,1980,Italy,81,,,,,,82.5,M,,135,-140,-140,135,,,,,,,B,135
Raw,DQ,Felice Maniscalco,M-T2,1991,Italy,85,,,,,,90,M,,-120,-127.5,-132.5,,,,,,,,B,
Raw,1,Levy Lietaer,M-T3,1989,Belgium,83.6,,,,,,90,M,,105,110,-115,110,,,,,,,B,110
Raw,1,Tony Gazengel,M-JR,1985,France,85.5,,,,,,90,M,,155,162.5,-167.5,162.5,,,,,,,B,162.5
Raw,2,Simon Richardson,M-JR,1986,England,88.6,,,,,,90,M,,120,125,130,130,,,,,,,B,130
Raw,3,Dmitriy Vasilyev,M-JR,1985,Russia,87.5,,,,,,90,M,Дмитрий Васильев,115,125,-130,125,,,,,,,B,125
Raw,1,Roman Golubev,M-O,1984,Russia,89.9,,,,,,90,M,Роман Голубев,-190,200,202.5,202.5,,,,,,,B,202.5
Raw,2,Geoffroy Servotte,M-O,1980,Belgium,90,,,,,,90,M,,170,177.5,180,180,,,,,,,B,180
Raw,3,Henry Tosh,M-O,1980,England,89.8,,,,,,90,M,,172.5,-177.5,177.5,177.5,,,,,,,B,177.5
Raw,4,Alain Laguesse,M-O,1974,Belgium,86.2,,,,,,90,M,,150,155,160,160,,,,,,,B,160
Raw,5,Lee Parkin,M-O,1980,England,87.7,,,,,,90,M,,137.5,145,-150,145,,,,,,,B,145
Raw,6,Nick Vanglabeke,M-O,1983,Belgium,83.3,,,,,,90,M,,135,-142.5,-142.5,135,,,,,,,B,135
Raw,7,Derek Daly,M-O,1977,Ireland,89,,,,,,90,M,,-130,130,135,135,,,,,,,B,135
Raw,DQ,Sergey Didovyk,M-O,1978,Ukraine,89.1,,,,,,90,M,Сергій Дідовик,-192.5,-192.5,-192.5,,,,,,,,B,
Raw,1,Nikolay Mulin,M-M1,1964,Russia,88.5,,,,,,90,M,Николай Мулин,162.5,170,-175.5,170,,,,,,,B,170
Raw,2,Rudy Smet,M-M1,1968,Belgium,88.4,,,,,,90,M,,135,140,-145,140,,,,,,,B,140
Raw,1,Andy Rigby,M-M2,1962,England,89.9,,,,,,90,M,,175,185.5,190,190,,,,,,,B,190
Raw,2,Sergei Dermeljov,M-M2,1959,Estonia,87.1,,,,,,90,M,,135,145,-150,145,,,,,,,B,145
Raw,3,Thierry Mathieu,M-M2,1961,France,85.1,,,,,,90,M,,130,-142.5,-142.5,130,,,,,,,B,130
Raw,1,Cosimo Orlando,M-M3,1956,Italy,87.2,,,,,,90,M,,155,160,-170,160,,,,,,,B,160
Raw,2,Thierry Nazaret,M-M3,1957,France,89.3,,,,,,90,M,,145,150,152.5,152.5,,,,,,,B,152.5
Raw,3,Georgy Zobach,M-M3,1954,Russia,89.8,,,,,,90,M,Георгий Зобач,140,,,140,,,,,,,B,140
Raw,4,Marcello Paredi,M-M3,1954,Italy,88,,,,,,90,M,,125,132.5,,132.5,,,,,,,B,132.5
Raw,1,Noël Vallée,M-M6,1940,France,88.7,,,,,,90,M,,130,135,137.5,137.5,,,,,,,B,137.5
Raw,1,Andy McKee,M-M7,1938,England,88.2,,,,,,90,M,,95,100,-103,100,,,,,,,B,100
Raw,1,Antonio Barbera,M-PFM,1968,Italy,89.4,,,,,,90,M,,130,135,,135,,,,,,,B,135
Raw,2,Kenny Samijn,M-O,1988,Belgium,96.9,,,,,,100,M,,130,-135,-135,130,,,,,,,B,130
Raw,1,Christopher Aidara,M-T2,1991,Belgium,98.6,,,,,,100,M,,115,117.5,-120,117.5,,,,,,,B,117.5
Raw,1,Lorenzo Pecoraino,M-JR,1988,Italy,92.8,,,,,,100,M,,127.5,132.5,135,135,,,,,,,B,135
Raw,1,Andrey Budanov,M-O,1971,Russia,99,,,,,,100,M,Андрей Буданов,205,215,220,220,,,,,,,B,220
Raw,2,Roland Gongarad,M-O,1975,Switzerland,98.2,,,,,,100,M,,200,205,-210,205,,,,,,,B,205
Raw,3,John Svalina,M-O,1970,USA,97.8,,,,,,100,M,,165,170,-172.5,170,,,,,,,B,170
Raw,4,Jatinder Ahluwalia,M-O,1976,England,97.6,,,,,,100,M,,160,165,-170,165,,,,,,,B,165
Raw,5,Andrew Scully,M-O,1970,Ireland,95.8,,,,,,100,M,,150,155,-160,155,,,,,,,B,155
Raw,6,John Haynes,M-O,1972,England,95.7,,,,,,100,M,,132.5,142.5,147.5,147.5,,,,,,,B,147.5
Raw,7,Khaldoun Kabbani,M-O,1975,England,98.9,,,,,,100,M,,135,-142.5,-142.5,135,,,,,,,B,135
Raw,1,Thierry Chiarot,M-M1,1965,France,92.1,,,,,,100,M,,162.5,167.5,-172.5,167.5,,,,,,,B,167.5
Raw,1,Philppe Belloncle,M-M2,1960,France,94.5,,,,,,100,M,,150,155,160,160,,,,,,,B,160
Raw,2,Jastinder Mundy,M-M2,1960,England,98.1,,,,,,100,M,,120,130,-137.5,130,,,,,,,B,130
Raw,1,Yannick Girot,M-M3,1956,France,92.7,,,,,,100,M,,140,147.5,152.5,152.5,,,,,,,B,152.5
Raw,2,Martin Flett,M-M3,1956,Scotland,98.1,,,,,,100,M,,145,150,-155,150,,,,,,,B,150
Raw,1,Patrick Bosche,M-M4,1953,France,84.2,,,,,,90,M,,-135,140,-145,140,,,,,,,B,140
Raw,1,Jean-Louis Alain,M-M5,1943,France,97.1,,,,,,100,M,,140,-145,,140,,,,,,,B,140
Raw,1,Timothy Andrews,M-M7,1938,USA,99.5,,,,,,100,M,,120,-130,-138,120,,,,,,,B,120
Raw,1,René Mertens,M-M8,1933,Belgium,99.7,,,,,,100,M,,115,120,125,125,,,,,,,B,125
Raw,1,Jake Arkell,M-T3,1990,England,102.4,,,,,,110,M,,125,130,135,135,,,,,,,B,135
Raw,2,Kevin Verberckmoes,M-T3,1990,Belgium,108.5,,,,,,110,M,,117.5,122.5,-127.5,122.5,,,,,,,B,122.5
Raw,1,Jay Hollingsworth,M-JR,1985,England,103.6,,,,,,110,M,,170,182.5,-190,182.5,,,,,,,B,182.5
Raw,1,Daniel Bertrand,M-O,1978,France,105.1,,,,,,110,M,,182.5,-192.5,-192.5,182.5,,,,,,,B,182.5
Raw,2,Neil Thomas,M-O,1972,England,101,,,,,,110,M,,160,170,-182.5,170,,,,,,,B,170
Raw,3,Aleksiy Tsynda,M-O,1979,Ukraine,100.1,,,,,,110,M,Олексій Цинда,-137.5,137.5,142.5,142.5,,,,,,,B,142.5
Raw,1,Paul Bossi,M-M1,1966,USA,109.1,,,,,,110,M,,205,-212.5,212.5,212.5,,,,,,,B,212.5
Raw,2,Jean-Louis Malotteau,M-M1,1964,Belgium,107.9,,,,,,110,M,,180,187.5,192.5,192.5,,,,,,,B,192.5
Raw,3,Alexey Shcherbachev,M-M1,1968,Russia,100.9,,,,,,110,M,Алексей Щербачев,175,182.5,190,190,,,,,,,B,190
Raw,4,Mark Norton,M-M1,1964,England,106.2,,,,,,110,M,,170,180,-190,180,,,,,,,B,180
Raw,1,Sergiy Echkenko,M-M2,1962,Ukraine,103.4,,,,,,110,M,Сергій Ечкенко,160,170,-180,170,,,,,,,B,170
Raw,1,Joël Godon,M-M4,1952,France,108.1,,,,,,110,M,,155,165,172.5,172.5,,,,,,,B,172.5
Raw,DQ,Bradley Lovejoy,M-M3,1958,USA,109.3,,,,,,110,M,,-150,-150,-150,,,,,,,,B,
Raw,1,Alain Bellevergue,M-M4,1950,France,101,,,,,,110,M,,137.5,145,150,150,,,,,,,B,150
Raw,2,Hubert Gardie,M-M4,1948,France,101.4,,,,,,110,M,,150,-160,-160,150,,,,,,,B,150
Raw,1,Jonathon Cathcart,M-T3,1989,Ireland,117.7,,,,,,125,M,,135,-140,-140,135,,,,,,,B,135
Raw,1,Oleg Sinitsa,M-JR,1985,Russia,121,,,,,,125,M,Олег Синица,155,165,170,170,,,,,,,B,170
Raw,1,William Massey,M-O,1972,England,121.2,,,,,,125,M,,205,215,-220,215,,,,,,,B,215
Raw,2,David Hernandez,M-O,1981,France,117.2,,,,,,125,M,,180,190,192.5,192.5,,,,,,,B,192.5
Raw,3,Andriy Smolnikov,M-O,1978,Ukraine,116.2,,,,,,125,M,Андрій Смольников,180,-190,190,190,,,,,,,B,190
Raw,4,Vladimir Krasnorutskiy,M-O,1979,Russia,124.4,,,,,,125,M,Владимир Красноруцкий,145,-152.5,,145,,,,,,,B,145
Raw,1,Cyril Gosteli,M-M1,1965,Switzerland,119.1,,,,,,125,M,,140,150,-155,150,,,,,,,B,150
Raw,2,Antonnio Intile,M-M1,1968,Italy,117.2,,,,,,125,M,,130,-135,-135,130,,,,,,,B,130
Raw,1,Mario Linde,M-M2,1963,Switzerland,118.1,,,,,,125,M,,160,165,170,170,,,,,,,B,170
Raw,DQ,Markus Sydney,M-M2,1963,England,115.6,,,,,,125,M,,-170,-170,-172.5,,,,,,,,B,
Raw,1,Pat McMillan,M-PFM,1973,USA,119.1,,,,,,125,M,,172.5,182.5,185,185,-187.5,,,,,,B,185
Raw,1,Aleksandr Tarasevich,M-O,1971,Russia,133.2,,,,,,145,M,Александр Тарасевич,145,-155,155,155,,,,,,,B,155
Raw,1,Haydn Rowlands,M-M3,1956,England,141.9,,,,,,145,M,,180,187.5,192.5,192.5,,,,,,,B,192.5
Raw,1,Lev Shprints,M-M4,1952,Russia,135.7,,,,,,145,M,Лев Шпринц,130,137.5,142.5,142.5,,,,,,,B,142.5
Raw,1,Rosario Maniscalco,M-PFM,1965,Italy,135.2,,,,,,145,M,,160,170,-180,170,,,,,,,B,170
Raw,1,Dennis Stouder,M-M2,1960,USA,153,,,,,,145+,M,,170,180,-190,180,,,,,,,B,180
Raw,1,Judy Gedney,F-M6,1940,USA,44.3,,,,,,47.5,F,,,,,,,95,107.5,112.5,112.5,,D,112.5
Raw,1,Pat Reeves,F-M5,1946,England,49.4,,,,,,50.5,F,,,,,,,90,95,98.5,98.5,,D,98.5
Raw,1,Patricia Kim,F-O,1981,England,51.7,,,,,,53,F,,,,,,,100,-105,105,105,,D,105
Raw,1,Irene Di Bartolomeo,F-PFM,1974,Italy,51.9,,,,,,53,F,,,,,,,132.5,137.5,142.5,142.5,,D,142.5
Raw,1,Daria Dermeleva,F-T1,1994,Estonia,54.8,,,,,,55.5,F,,,,,,,65,-75,75,75,,D,75
Raw,1,Louise Fox,F-O,1972,England,53.7,,,,,,55.5,F,,,,,,,145,152.5,155,155,160.5,D,155
Raw,2,Mariyana Marinova,F-O,1975,Germany,53.9,,,,,,55.5,F,,,,,,,145,150,155,155,160,D,155
Raw,1,Pauline Murray,F-M1,1967,Ireland,55.2,,,,,,55.5,F,,,,,,,90,100,115,115,,D,115
Raw,1,Helen Wuyts,F-T2,1991,Belgium,57.2,,,,,,58.5,F,,,,,,,130,140,150,150,,D,150
Raw,1,Brigitte Guyot,F-M4,1950,France,57.8,,,,,,58.5,F,,,,,,,110,120,125,125,,D,125
Raw,1,Ann Thomas,F-O,1979,England,60.1,,,,,,63,F,,,,,,,130,-140,-140,130,,D,130
Raw,1,Nadezhda Talikova,F-M2,1960,Russia,60.6,,,,,,63,F,Надежда Таликова,,,,,,130,140,-150,140,,D,140
Raw,1,Eleonora Soardo,F-JR,1986,Italy,65.2,,,,,,70,F,,,,,,,100,-107.5,-107.5,100,,D,100
Raw,1,Caroline Garhammer-Vogt,F-O,1978,Switzerland,69,,,,,,70,F,,,,,,,135,145,-150,145,,D,145
Raw,2,Suzanne Kavanagh,F-O,1983,Ireland,66.4,,,,,,70,F,,,,,,,110,120,-130,120,,D,120
Raw,1,Gabrielle Bennett,F-T1,1993,England,77.8,,,,,,80,F,,,,,,,95,105,-115,105,,D,105
Raw,1,Tetyana Kushnir,F-M1,1964,Ukraine,73.5,,,,,,80,F,Тетяна Кушнір,,,,,,105,115,130,130,,D,130
Raw,1,Nataliya Tsukanova,F-M3,1956,Ukraine,78.7,,,,,,80,F,Наталія Цуканова,,,,,,115,130,140,140,,D,140
Raw,1,Jessica Taylor #4,F-T2,1991,England,87.2,,,,,,90,F,,,,,,,95,105,112.5,112.5,-117.5,D,112.5
Raw,1,Mariel Incorvaja,F-M1,1967,Malta,84.1,,,,,,90,F,,,,,,,-110,110,-130,110,,D,110
Raw,1,Gladys Saussois,F-O,1975,France,93.2,,,,,,90+,F,,,,,,,175,190,-200,190,,D,190
Raw,1,Craig O'Hara,M-O,1978,Ireland,54.2,,,,,,56,M,,,,,,,115,122.5,130,130,,D,130
Raw,1,Christopher Kavanagh,M-T2,1992,Ireland,60,,,,,,60,M,,,,,,,115,-125,-130,115,,D,115
Raw,1,Stuart Lowry,M-JR,1985,Ireland,59.6,,,,,,60,M,,,,,,,147.5,160,190,190,-195,D,190
Raw,2,Daniele Conigharo,M-JR,1985,Italy,59.7,,,,,,60,M,,,,,,,190,-202.5,-202.5,190,,D,190
Raw,1,Steve Brown #4,M-M2,1962,England,57.9,,,,,,60,M,,,,,,,190,200,210,210,-215,D,210
Raw,1,Steve Smith #7,M-M7,1933,USA,58,,,,,,60,M,,,,,,,105,115,121,121,,D,121
Raw,1,Harry Sandbach,M-T2,1991,England,62.5,,,,,,67.5,M,,,,,,,140,147.5,152.5,152.5,,D,152.5
Raw,2,Chris Murray #9,M-T2,1991,England,66.4,,,,,,67.5,M,,,,,,,147.5,152.5,155,155,,D,155
Raw,1,Daniel Debono,M-JR,1987,Malta,65.6,,,,,,67.5,M,,,,,,,175,187.5,-192.5,187.5,,D,187.5
Raw,2,Vincenzo Ampola,M-JR,1985,Italy,66,,,,,,67.5,M,,,,,,,137.5,150,-160,150,,D,150
Raw,1,Ambrogio Musso,M-O,1984,Italy,63.9,,,,,,67.5,M,,,,,,,160,177.5,-185,177.5,,D,177.5
Raw,1,David Taylor,M-M2,1961,England,65.1,,,,,,67.5,M,,,,,,,205,212.5,220,220,-222.5,D,220
Raw,1,Ted Byrne,M-M4,1951,England,66.7,,,,,,67.5,M,,,,,,,140,150,160,160,,D,160
Raw,1,Claude Baret,M-M5,1945,France,62.8,,,,,,67.5,M,,,,,,,150,160,170,170,,D,170
Raw,1,Salvatore Busuito,M-T2,1991,Italy,68.9,,,,,,75,M,,,,,,,150,170,187.5,187.5,,D,187.5
Raw,2,Thomas Halpin,M-T2,1991,Ireland,71.6,,,,,,75,M,,,,,,,160,172.5,-190,172.5,,D,172.5
Raw,1,Dries Goethals,M-JR,1985,Belgium,74.8,,,,,,75,M,,,,,,,140,155,170,170,,D,170
Raw,1,Matthew Muscat Inglot,M-O,1982,Malta,73.4,,,,,,75,M,,,,,,,220,235,-242.5,235,,D,235
Raw,2,Sing Thirht,M-O,1973,Belgium,70.5,,,,,,75,M,,,,,,,-210,220,-235,220,,D,220
Raw,3,Ben Taylor #5,M-O,1969,England,72.8,,,,,,75,M,,,,,,,200,210,-222.5,210,,D,210
Raw,4,Pietro D'armetta,M-O,1981,Italy,72.7,,,,,,75,M,,,,,,,160,-180,-180,160,,D,160
Raw,1,James Kavanagh,M-M1,1965,Ireland,72.3,,,,,,75,M,,,,,,,170,-190,,170,,D,170
Raw,1,Jean-Claude D'Heilly,M-M3,1958,France,74.4,,,,,,75,M,,,,,,,190,200,205,205,,D,205
Raw,2,Pietro Donati,M-M3,1955,Italy,71.2,,,,,,75,M,,,,,,,100,140,-170,140,,D,140
Raw,1,George Campbell,M-M5,1945,Ireland,74.6,,,,,,75,M,,,,,,,170,180,190,190,-192.5,D,190
Raw,1,Anatoliy Dubrov,M-M6,1941,Russia,73.3,,,,,,75,M,Анатолий Дубров,,,,,,175,185,190,190,,D,190
Raw,1,George Shelton,M-T1,1993,England,75.3,,,,,,82.5,M,,,,,,,150,160,165,165,,D,165
Raw,1,Elliot Newman,M-JR,1985,England,82,,,,,,82.5,M,,,,,,,-205,225,227.5,227.5,,D,227.5
Raw,1,John Ryan #4,M-O,1973,Ireland,81.1,,,,,,82.5,M,,,,,,,255,-262.5,-262.5,255,,D,255
Raw,2,Francesco Lo Porto,M-O,1981,Italy,81.3,,,,,,82.5,M,,,,,,,240,250,-257.5,250,,D,250
Raw,3,William Cacciato,M-O,1974,Italy,75.7,,,,,,82.5,M,,,,,,,150,170,-200,170,,D,170
Raw,1,Russell Bain,M-M1,1968,England,79.2,,,,,,82.5,M,,,,,,,190,215,230,230,,D,230
Raw,1,Andrey Kogan,M-M2,1962,Russia,79.2,,,,,,82.5,M,Андрей Коган,,,,,,160,185,200,200,,D,200
Raw,1,Didier Dufour,M-M3,1957,France,81.5,,,,,,82.5,M,,,,,,,190,200,-205,200,,D,200
Raw,1,Georgiy Lazaridi,M-M8,1933,Russia,80.8,,,,,,82.5,M,Георгий Лазариди,,,,,,175,185,190,190,,D,190
Raw,1,Alessandro Sanna,M-PFM,1980,Italy,81.5,,,,,,82.5,M,,,,,,,100,120,150,150,,D,150
Raw,1,Agostino Vaccaro,M-T2,1991,Italy,85.1,,,,,,90,M,,,,,,,145,155,-180,155,,D,155
Raw,1,Dmitriy Vasilyev,M-JR,1985,Russia,88.6,,,,,,90,M,Дмитрий Васильев,,,,,,190,205,215,215,,D,215
Raw,2,Dean Roberts,M-JR,1986,England,89.1,,,,,,90,M,,,,,,,-190,-190,190,190,,D,190
Raw,1,Cristian Turco,M-O,1975,Italy,88.9,,,,,,90,M,,,,,,,210,220,235,235,,D,235
Raw,2,Ivan Lynch,M-O,1978,Ireland,89.6,,,,,,90,M,,,,,,,220,225,-237.5,225,,D,225
Raw,1,Sergei Dermeljov,M-M2,1959,Estonia,87.2,,,,,,90,M,,,,,,,230,252.5,-263,252.5,,D,252.5
Raw,2,Mark Lane,M-M2,1960,Ireland,83.7,,,,,,90,M,,,,,,,220,252,-260.5,252,,D,252
Raw,DQ,David John,M-M4,1950,Wales,89.4,,,,,,90,M,,,,,,,-185,-185,-185,,,D,
Raw,1,René Ulrich,M-M6,1939,Switzerland,88.7,,,,,,90,M,,,,,,,-170,175,180,180,-192.5,D,180
Raw,1,Andy McKee,M-M7,1938,England,88.9,,,,,,90,M,,,,,,,135,140,145,145,,D,145
Raw,1,Yannick Van Roy,M-T2,1991,Belgium,96.4,,,,,,100,M,,,,,,,200,215,220,220,-230,D,220
Raw,1,Matthew Houldershaw,M-T3,1990,England,99.5,,,,,,100,M,,,,,,,-185,185,-202.5,185,,D,185
Raw,1,Adam Kershaw,M-JR,1986,England,99.2,,,,,,100,M,,,,,,,250,255,-265,255,,D,255
Raw,2,Cosimo Venditti,M-JR,1985,Italy,98.3,,,,,,100,M,,,,,,,230,250,-262.5,250,,D,250
Raw,3,Ceri Roberts,M-JR,1985,England,99.2,,,,,,100,M,,,,,,,-215,220,-230,220,,D,220
Raw,4,James Bell,M-JR,1986,England,95.8,,,,,,100,M,,,,,,,195,-205,-205,195,,D,195
Raw,1,Alexander Malyshev,M-O,1984,Russia,90.9,,,,,,100,M,Александр Малышев,,,,,,220,235,245,245,,D,245
Raw,2,Paul Van Danzig,M-O,1971,England,97.9,,,,,,100,M,,,,,,,215,230,240,240,,D,240
Raw,1,Mohamed Si Abdallah,M-M1,1966,France,90.4,,,,,,100,M,,,,,,,250,270,-287.5,270,,D,270
Raw,2,Steve Van Kempen,M-M1,1966,England,97.8,,,,,,100,M,,,,,,,-200,200,210,210,,D,210
Raw,1,Georgy Zobach,M-M3,1954,Russia,91.1,,,,,,100,M,Георгий Зобач,,,,,,200,,,200,,D,200
Raw,1,Edmund Bennett,M-M7,1938,England,94,,,,,,100,M,,,,,,,175,187.5,-195,187.5,,D,187.5
Raw,2,Timothy Andrews,M-M7,1938,USA,98.9,,,,,,100,M,,,,,,,122.5,137.5,145,145,,D,145
Raw,1,Jay Hollingsworth,M-JR,1985,England,102.5,,,,,,110,M,,,,,,,270,-290,-290,270,,D,270
Raw,1,Mark Eager,M-O,1970,England,106.4,,,,,,110,M,,,,,,,240,250,-252.5,250,,D,250
Raw,2,Gordon Sykes,M-O,1969,England,105.8,,,,,,110,M,,,,,,,225,-245,-250,225,,D,225
Raw,1,Oleg Sinitsa,M-O,1985,Russia,121,,,,,,125,M,Олег Синица,,,,,,220,-235,235,235,,D,235
Raw,1,Ben Jenkins,M-T3,1990,England,120.1,,,,,,125,M,,,,,,,185,195,200,200,,D,200
Raw,1,Mario Mifsud,M-O,1983,Malta,113.6,,,,,,125,M,,,,,,,270,295,-300,295,,D,295
Raw,2,Andriy Smolnikov,M-O,1978,Ukraine,114.6,,,,,,125,M,Андрій Смольников,,,,,,230,240,,240,,D,240
Raw,3,Francesco Natalizi,M-O,1979,Italy,111.6,,,,,,125,M,,,,,,,190,220,225,225,,D,225
Raw,4,Vladimir Krasnorutskiy,M-O,1979,Russia,124.7,,,,,,125,M,Владимир Красноруцкий,,,,,,210,225,-232.5,225,,D,225
Raw,1,Antonnio Intile,M-M1,1968,Italy,116,,,,,,125,M,,,,,,,120,170,-200,170,,D,170
Raw,1,Pat McMillan,M-PFM,1973,USA,118.1,,,,,,125,M,,,,,,,260,275,-282.5,275,,D,275
Raw,1,Vladimir Sushchak,M-O,1972,Russia,131.9,,,,,,145,M,Владимир Сущак,,,,,,237.5,252.5,260,260,,D,260
Raw,2,Renato Purgatori,M-O,1979,Italy,130.1,,,,,,145,M,,,,,,,235,250,-257.5,250,,D,250
Raw,1,Lev Shprints,M-M4,1952,Russia,135.6,,,,,,145,M,Лев Шпринц,,,,,,160,177.5,182.5,182.5,,D,182.5
Single-ply,1,Judy Gedney,F-M6,1940,USA,44.1,92.5,98,100,100,102.5,47.5,F,,,,,,,,,,,,S,100
Single-ply,1,Helen Wuyts,F-T2,1991,Belgium,57.3,130,-140,140,140,,58.5,F,,,,,,,,,,,,S,140
Single-ply,1,Tetyana Kushnir,F-M1,1964,Ukraine,73.9,80,95,100,100,,80,F,Тетяна Кушнір,,,,,,,,,,,S,100
Single-ply,1,Nataliya Tsukanova,F-M3,1956,Ukraine,78.6,130,150,160,160,,80,F,Наталія Цуканова,,,,,,,,,,,S,160
Single-ply,1,Aaron Gideon,M-O,1980,England,57.7,140,155,-162.5,155,,60,M,,,,,,,,,,,,S,155
Single-ply,1,Vincenzo Tidona,M-M8,1930,France,65.9,135,145,-150,145,,67.5,M,,,,,,,,,,,,S,145
Single-ply,1,Sebastiano Mangiameli,M-M1,1967,Italy,71.1,180,200,-225,200,,75,M,,,,,,,,,,,,S,200
Single-ply,1,Tony Pierce,M-M2,1959,Ireland,73.5,165,170,-180,170,,75,M,,,,,,,,,,,,S,170
Single-ply,1,Anatoliy Dubrov,M-M6,1941,Russia,72.8,145,150,155,155,,75,M,Анатолий Дубров,,,,,,,,,,,S,155
Single-ply,1,Deasun Duill,M-O,1980,Ireland,80.6,240,-250,-250,240,,82.5,M,,,,,,,,,,,,S,240
Single-ply,2,Chris Morgan #1,M-O,1972,England,81.6,200,215,230,230,,82.5,M,,,,,,,,,,,,S,230
Single-ply,1,Carmeluccio Scamporlino,M-M1,1968,Italy,82.1,200,215,220,220,,82.5,M,,,,,,,,,,,,S,220
Single-ply,2,Russell Bain,M-M1,1968,England,79.5,190,205,215,215,,82.5,M,,,,,,,,,,,,S,215
Single-ply,1,Andrey Kogan,M-M2,1962,Russia,79.3,180,,,180,,82.5,M,Андрей Коган,,,,,,,,,,,S,180
Single-ply,1,Georgiy Lazaridi,M-M8,1933,Russia,79.4,180,-200,-200,180,,82.5,M,Георгий Лазариди,,,,,,,,,,,S,180
Single-ply,1,Neil Abery,M-O,1977,England,87.4,220,250,280.5,280.5,,90,M,,,,,,,,,,,,S,280.5
Single-ply,2,Steve Cook,M-O,1972,Wales,88.4,230,250,,250,,90,M,,,,,,,,,,,,S,250
Single-ply,3,Cristian Turco,M-O,1975,Italy,88.8,-220,220,240,240,,90,M,,,,,,,,,,,,S,240
Single-ply,1,Rick Meldon,M-M1,1964,Ireland,85.6,242.5,262.5,282.5,282.5,,90,M,,,,,,,,,,,,S,282.5
Single-ply,1,Lorenzo Pecoraino,M-JR,1988,Italy,92.8,190,207.5,-215,207.5,,100,M,,,,,,,,,,,,S,207.5
Single-ply,1,Gianni Vermote,M-O,1972,Belgium,99.5,265,285,-301,285,,100,M,,,,,,,,,,,,S,285
Single-ply,2,Anthony Greaney,M-O,1977,Ireland,100,250,275,-301.5,275,,100,M,,,,,,,,,,,,S,275
Single-ply,DQ,David Doyle,M-O,1977,Ireland,98.2,-290,-290,-290,,,100,M,,,,,,,,,,,,S,
Single-ply,1,Salvatore Putrino,M-M3,1956,Italy,97.9,225,240,260,260,275,100,M,,,,,,,,,,,,S,260
Single-ply,2,Georgy Zobach,M-M3,1954,Russia,90.7,220,-230,,220,,100,M,Георгий Зобач,,,,,,,,,,,S,220
Single-ply,3,Ronnie Marks,M-M3,1956,Ireland,97.2,180,190,200,200,,100,M,,,,,,,,,,,,S,200
Single-ply,4,Brian Mitchell,M-M3,1955,England,94.3,170,-180,-200,170,,100,M,,,,,,,,,,,,S,170
Single-ply,1,Sean Caniffe,M-M5,1947,Ireland,93.3,150,165,-170,165,,100,M,,,,,,,,,,,,S,165
Single-ply,1,David Foster,M-JR,1987,Ireland,101.9,235,245,250,250,,110,M,,,,,,,,,,,,S,250
Single-ply,1,Sebastien Dechamps,M-T1,1993,Belgium,116.3,220,-240,240,240,,125,M,,,,,,,,,,,,S,240
Single-ply,1,Jérôme Dechamps,M-JR,1988,Belgium,123.9,270,290,-300,290,,125,M,,,,,,,,,,,,S,290
Single-ply,2,Oleg Sinitsa,M-JR,1985,Russia,121.7,215,,,215,,125,M,Олег Синица,,,,,,,,,,,S,215
Single-ply,2,Andriy Smolnikov,M-O,1978,Ukraine,116,220,240,257.5,257.5,,125,M,Андрій Смольников,,,,,,,,,,,S,257.5
Single-ply,3,Francesco Natalizi,M-O,1979,Italy,111.9,210,240,255,255,,125,M,,,,,,,,,,,,S,255
Single-ply,1,Maxim Tikhonov,M-M1,1968,Russia,122.3,310,330,340,340,,125,M,Максим Тихонов,,,,,,,,,,,S,340
Single-ply,1,Vladimir Sushchak,M-O,1972,Russia,133.1,220,,,220,,145,M,Владимир Сущак,,,,,,,,,,,S,220
Single-ply,1,Dennis Stouder,M-M2,1960,USA,153,210,,,210,,145+,M,,,,,,,,,,,,S,210
Single-ply,1,Judy Gedney,F-M6,1940,USA,44.4,,,,,,47.5,F,,50,52.5,-55,52.5,,,,,,,B,52.5
Single-ply,1,Eugenia Lobanova,F-T2,1991,Russia,53.3,,,,,,55.5,F,Евгения Лобанова,37.5,40,42.5,42.5,,,,,,,B,42.5
Single-ply,1,Helen Wuyts,F-T2,1991,Belgium,57.3,,,,,,58.5,F,,65,70,-75,70,,,,,,,B,70
Single-ply,1,Stéphanie Lagrange,F-O,1976,France,58.5,,,,,,58.5,F,,90,95.5,-100,95.5,,,,,,,B,95.5
Single-ply,1,Amanda Gaboriau,F-O,1979,France,59.8,,,,,,63,F,,75,82.5,-85,82.5,,,,,,,B,82.5
Single-ply,2,Delphine Bettens,F-O,1984,Belgium,59.4,,,,,,63,F,,65,-70,70,70,,,,,,,B,70
Single-ply,1,Marina Solovyeva,F-O,1982,Russia,63.5,,,,,,70,F,Марина Соловьева,75,80,-87.5,80,,,,,,,B,80
Single-ply,1,Tetyana Kushnir,F-M1,1964,Ukraine,73.4,,,,,,80,F,Тетяна Кушнір,82.5,87.5,-92.5,87.5,,,,,,,B,87.5
Single-ply,1,Nataliya Tsukanova,F-M3,1956,Ukraine,78.7,,,,,,80,F,Наталія Цуканова,70,75,,75,,,,,,,B,75
Single-ply,1,Yulia Segal,F-M2,1963,Russia,81.9,,,,,,90,F,Юлия Сегал,67.5,70,,70,,,,,,,B,70
Single-ply,1,Indy Smet,M-T1,1994,Belgium,50.5,,,,,,52,M,,50,55,60.5,60.5,-62.5,,,,,,B,60.5
Single-ply,1,Alessio Buffa,M-T1,1993,Italy,52,,,,,,52,M,,50,55,-61,55,,,,,,,B,55
Single-ply,1,Ulf Krikilion,M-T2,1992,Belgium,58.3,,,,,,60,M,,-87.5,87.5,-95,87.5,,,,,,,B,87.5
Single-ply,1,Jean-Michel Moreiro,M-M4,1953,France,59.3,,,,,,60,M,,-95,95,97.5,97.5,,,,,,,B,97.5
Single-ply,1,Tanguy Penasse,M-T3,1990,Belgium,73.5,,,,,,75,M,,140,145,150,150,,,,,,,B,150
Single-ply,1,Giusepe Barbera,M-O,1980,Italy,74.4,,,,,,75,M,,150,157.5,-165,157.5,,,,,,,B,157.5
Single-ply,2,Vito Amato,M-O,1983,Italy,74,,,,,,75,M,,130,142.5,-145,142.5,,,,,,,B,142.5
Single-ply,3,Pierre Tirifahy,M-O,1971,Belgium,73.4,,,,,,75,M,,140,-145,-145,140,,,,,,,B,140
Single-ply,1,Sebastiano Mangiameli,M-M1,1967,Italy,71.1,,,,,,75,M,,95,100,,100,,,,,,,B,100
Single-ply,1,Cliff Haynes,M-M1,1965,England,73,,,,,,75,M,,160,165,-168,165,,,,,,,B,165
Single-ply,2,Victor Schipani,M-M2,1961,France,73.3,,,,,,75,M,,132.5,140,,140,,,,,,,B,140
Single-ply,1,Pietro Donati,M-M3,1955,Italy,71.6,,,,,,75,M,,-100,100,-115,100,,,,,,,B,100
Single-ply,1,Antonello Dessalvi,M-M4,1953,Italy,74.5,,,,,,75,M,,130,140,150,150,,,,,,,B,150
Single-ply,1,Gennadiy Veryovkin,M-M6,1943,Russia,74.2,,,,,,75,M,Геннадий Верёвкин,100,110,,110,,,,,,,B,110
Single-ply,1,Marc-Olivier Huchet,M-M7,1938,France,74,,,,,,75,M,,-107.5,107.5,110,110,112.5,,,,,,B,110
Single-ply,1,Andre Charbit,M-M8,1933,France,73.6,,,,,,75,M,,95,97.5,100,100,,,,,,,B,100
Single-ply,1,Corentin Tessandier,M-T1,1993,Belgium,81.9,,,,,,82.5,M,,115,-117.5,117.5,117.5,-120,,,,,,B,117.5
Single-ply,1,Andrea Bongiovanni,M-T2,1991,Italy,81.4,,,,,,82.5,M,,-100,100,105,105,,,,,,,B,105
Single-ply,1,Medhi Hammoud,M-T3,1989,Belgium,82.3,,,,,,82.5,M,,125,132.5,-140,132.5,,,,,,,B,132.5
Single-ply,1,Vadim Dzhonua,M-JR,1988,Russia,79.5,,,,,,82.5,M,Вадим Джонуа,117.5,-157.5,157.5,157.5,,,,,,,B,157.5
Single-ply,1,Mike Joseph #1,M-O,1971,England,81.6,,,,,,82.5,M,,185,-202.5,-202.5,185,,,,,,,B,185
Single-ply,2,Peter Holvoet,M-O,1975,Belgium,80.5,,,,,,82.5,M,,150,160,-165,160,,,,,,,B,160
Single-ply,1,Carmeluccio Scamporlino,M-M1,1968,Italy,82.3,,,,,,82.5,M,,130,145,-152.5,145,,,,,,,B,145
Single-ply,1,Andrey Kogan,M-M2,1962,Russia,79.5,,,,,,82.5,M,Андрей Коган,150,160,-167.5,160,,,,,,,B,160
Single-ply,1,Michel Riolland,M-M5,1948,France,81.8,,,,,,82.5,M,,120,125,130,130,,,,,,,B,130
Single-ply,1,Pascal Chabeau,M-M7,1936,France,81,,,,,,82.5,M,,115,122.5,-130,122.5,,,,,,,B,122.5
Single-ply,1,Alessandro Sanna,M-PFM,1980,Italy,81,,,,,,82.5,M,,120,130,-132.5,130,,,,,,,B,130
Single-ply,1,Alexandre Guénard,M-JR,1987,France,88.8,,,,,,90,M,,175,182.5,187.5,187.5,-198,,,,,,B,187.5
Single-ply,1,Sergey Didovyk,M-O,1978,Ukraine,89.1,,,,,,90,M,Сергій Дідовик,190,205,-210,205,,,,,,,B,205
Single-ply,2,Michel Flandre Jean,M-O,1974,France,89.5,,,,,,90,M,,200,-207.5,-207.5,200,,,,,,,B,200
Single-ply,3,Jessy Greau,M-O,1979,France,89.2,,,,,,90,M,,182.5,-187.5,-187.5,182.5,,,,,,,B,182.5
Single-ply,4,Cristian Turco,M-O,1975,Italy,88.9,,,,,,90,M,,175,-185,-185,175,,,,,,,B,175
Single-ply,5,Derek Daly,M-O,1977,Ireland,89,,,,,,90,M,,150,-160,-160,150,,,,,,,B,150
Single-ply,1,Eddy O'Brien,M-M1,1965,Ireland,89.7,,,,,,90,M,,180,-187.5,-205,180,,,,,,,B,180
Single-ply,2,Rudy Smet,M-M1,1968,Belgium,88.4,,,,,,90,M,,145,155,-162.5,155,,,,,,,B,155
Single-ply,1,Georgy Zobach,M-M3,1954,Russia,89.8,,,,,,90,M,Георгий Зобач,140,145,,145,,,,,,,B,145
Single-ply,2,Marcello Paredi,M-M3,1954,Italy,88,,,,,,90,M,,125,132.5,-142.5,132.5,,,,,,,B,132.5
Single-ply,1,Martin Theyssens,M-M6,1939,Belgium,88,,,,,,90,M,,127.5,-132.5,-132.5,127.5,,,,,,,B,127.5
Single-ply,1,Antonio Barbera,M-PFM,1968,Italy,89.4,,,,,,90,M,,150,160,165,165,,,,,,,B,165
Single-ply,1,Yannick Van Roy,M-T2,1991,Belgium,96.6,,,,,,100,M,,110,115,-122.5,115,,,,,,,B,115
Single-ply,1,Martin Green #1,M-O,1974,England,99.5,,,,,,100,M,,235,-245,245,245,,,,,,,B,245
Single-ply,2,John Svalina,M-O,1970,USA,97.8,,,,,,100,M,,195,200,-202.5,200,,,,,,,B,200
Single-ply,3,Gianni Vermote,M-O,1972,Belgium,100,,,,,,100,M,,160,-170,-170,160,,,,,,,B,160
Single-ply,1,Mohamed Si Abdallah,M-M1,1966,France,90.4,,,,,,100,M,,175,185,187.5,187.5,,,,,,,B,187.5
Single-ply,1,Martin Flett,M-M3,1956,Scotland,98.1,,,,,,100,M,,165,175,-186,175,,,,,,,B,175
Single-ply,2,Ronnie Marks,M-M3,1956,Ireland,98.1,,,,,,100,M,,145,155,165,165,,,,,,,B,165
Single-ply,3,Brian Mitchell,M-M3,1955,England,94.8,,,,,,100,M,,120,130,-140,130,,,,,,,B,130
Single-ply,1,Jean-Michel Nickel,M-M4,1950,France,98.6,,,,,,100,M,,150,-155,155,155,,,,,,,B,155
Single-ply,1,René Mertens,M-M8,1933,Belgium,99.7,,,,,,100,M,,125,130,137.5,137.5,-140,,,,,,B,137.5
Single-ply,1,David Foster,M-JR,1987,Ireland,101.6,,,,,,110,M,,175,182.5,185,185,187.5,,,,,,B,185
Single-ply,2,Michael Gibson #2,M-JR,1987,Ireland,109.8,,,,,,110,M,,180,-187.5,-187.5,180,,,,,,,B,180
Single-ply,1,Daniel Bertrand,M-O,1978,France,105.1,,,,,,110,M,,220,-230,,220,,,,,,,B,220
Single-ply,2,Neil Thomas,M-O,1972,England,101,,,,,,110,M,,185,200,210,210,,,,,,,B,210
Single-ply,3,Aleksiy Tsynda,M-O,1979,Ukraine,101,,,,,,110,M,Олексій Цинда,135,140,150,150,,,,,,,B,150
Single-ply,1,David Walker,M-M1,1964,USA,103.1,,,,,,110,M,,215,255,-260,255,,,,,,,B,255
Single-ply,2,Paul Bossi,M-M1,1966,USA,109.1,,,,,,110,M,,220,230,-257.5,230,,,,,,,B,230
Single-ply,3,Jean-Louis Malotteau,M-M1,1964,Belgium,107.9,,,,,,110,M,,215,-222.5,-222.5,215,,,,,,,B,215
Single-ply,1,Bradley Lovejoy,M-M3,1958,USA,109.3,,,,,,110,M,,160,-165,,160,,,,,,,B,160
Single-ply,1,Sebastien Dechamps,M-T1,1993,Belgium,117.6,,,,,,125,M,,110,120,130,130,,,,,,,B,130
Single-ply,1,Oleg Sinitsa,M-JR,1985,Russia,121,,,,,,125,M,Олег Синица,170,185,190,190,,,,,,,B,190
Single-ply,2,Jérôme Dechamps,M-JR,1988,Belgium,123.9,,,,,,125,M,,-185,-185,185,185,,,,,,,B,185
Single-ply,1,Arnaud Clavier,M-O,1975,France,112.9,,,,,,125,M,,200,207.5,-212.5,207.5,,,,,,,B,207.5
Single-ply,2,Andriy Smolnikov,M-O,1978,Ukraine,116.2,,,,,,125,M,Андрій Смольников,180,190,-195,190,,,,,,,B,190
Single-ply,1,Maxim Tikhonov,M-M1,1968,Russia,122.7,,,,,,125,M,Максим Тихонов,230,-245,-250,230,,,,,,,B,230
Single-ply,2,Antonnio Intile,M-M1,1968,Italy,117.2,,,,,,125,M,,120,125,130,130,,,,,,,B,130
Single-ply,1,Mario Linde,M-M2,1963,Switzerland,118.1,,,,,,125,M,,180,185,190,190,,,,,,,B,190
Single-ply,1,Vladimir Sushchak,M-O,1972,Russia,132.1,,,,,,145,M,Владимир Сущак,235,242.5,-250,242.5,,,,,,,B,242.5
Single-ply,1,Gérard Schuler,M-M3,1956,France,141.6,,,,,,145,M,,232.5,237.5,250,250,-252.5,,,,,,B,250
Single-ply,1,Johan Roge,M-M4,1949,Belgium,133.1,,,,,,145,M,,145,150,155,155,,,,,,,B,155
Single-ply,1,Wim Backelant,M-M2,1963,Belgium,146.2,,,,,,145+,M,,200,225,235,235,-245,,,,,,B,235
Single-ply,2,Dennis Stouder,M-M2,1960,USA,153,,,,,,145+,M,,190,,,190,,,,,,,B,190
Single-ply,1,Judy Gedney,F-M6,1940,USA,44.3,,,,,,47.5,F,,,,,,,100,-115,115,115,,D,115
Single-ply,1,Helen Wuyts,F-T2,1991,Belgium,57.2,,,,,,58.5,F,,,,,,,140,155,160,160,,D,160
Single-ply,1,Ann Thomas,F-O,1979,England,60.1,,,,,,63,F,,,,,,,130,-141.5,,130,,D,130
Single-ply,1,Tetyana Kushnir,F-M1,1964,Ukraine,73.5,,,,,,80,F,Тетяна Кушнір,,,,,,105,120,135,135,,D,135
Single-ply,1,Nataliya Tsukanova,F-M3,1956,Ukraine,78.7,,,,,,80,F,Наталія Цуканова,,,,,,130,150,-160,150,,D,150
Single-ply,1,Alessio Buffa,M-T1,1993,Italy,51.4,,,,,,52,M,,,,,,,70,80,-100,80,,D,80
Single-ply,1,Eduardo Putrino,M-T2,1992,Italy,75,,,,,,75,M,,,,,,,135,145,155,155,,D,155
Single-ply,1,Ben Taylor #5,M-O,1969,England,72.8,,,,,,75,M,,,,,,,190,200,205,205,,D,205
Single-ply,1,Sebastiano Mangiameli,M-M1,1967,Italy,70.6,,,,,,75,M,,,,,,,170,190,-200,190,,D,190
Single-ply,1,Anatoliy Dubrov,M-M6,1941,Russia,73.3,,,,,,75,M,Анатолий Дубров,,,,,,185,195,200,200,,D,200
Single-ply,1,Andrea Bongiovanni,M-T2,1991,Italy,81.1,,,,,,82.5,M,,,,,,,165,180,-190.5,180,,D,180
Single-ply,1,Vadim Dzhonua,M-JR,1988,Russia,79.2,,,,,,82.5,M,Вадим Джонуа,,,,,,225,235,245,245,,D,245
Single-ply,2,Tim Boniver,M-JR,1988,Belgium,77.8,,,,,,82.5,M,,,,,,,215,-220,220,220,,D,220
Single-ply,1,Chris Morgan #1,M-O,1972,England,82.5,,,,,,82.5,M,,,,,,,200,220,-247.5,220,,D,220
Single-ply,1,Russell Bain,M-M1,1968,England,79.2,,,,,,82.5,M,,,,,,,210,230,232.5,232.5,,D,232.5
Single-ply,1,Carmeluccio Scamporlino,M-M1,1968,Italy,82.4,,,,,,82.5,M,,,,,,,200,220,-232.5,220,,D,220
Single-ply,1,Andrey Kogan,M-M2,1962,Russia,79.2,,,,,,82.5,M,Андрей Коган,,,,,,185,202.5,-205,202.5,,D,202.5
Single-ply,1,Roger Murray,M-M5,1945,Australia,81.7,,,,,,82.5,M,,,,,,,190,210,220,220,,D,220
Single-ply,DQ,Georgiy Lazaridi,M-M8,1933,Russia,80.8,,,,,,82.5,M,Георгий Лазариди,,,,,,-175,,,,,D,
Single-ply,1,J Wheal Ryan,M-JR,1985,England,85.9,,,,,,90,M,,,,,,,240,266,-272.5,266,,D,266
Single-ply,1,Benny Verbeke,M-M1,1965,Belgium,86.2,,,,,,90,M,,,,,,,265,280,290,290,,D,290
Single-ply,1,Mark Lane,M-M2,1960,Ireland,83.7,,,,,,90,M,,,,,,,220,-259,-259,220,,D,220
Single-ply,1,Anthony Greaney,M-O,1977,Ireland,100,,,,,,100,M,,,,,,,250,265,275,275,,D,275
Single-ply,1,Sergey Didovyk,M-O,1978,Ukraine,90.6,,,,,,100,M,Сергій Дідовик,,,,,,230,267.5,-282.5,267.5,,D,267.5
Single-ply,1,Derek Cope,M-M3,1958,England,98.8,,,,,,100,M,,,,,,,215,232.5,237.5,237.5,,D,237.5
Single-ply,2,Georgy Zobach,M-M3,1954,Russia,91.1,,,,,,100,M,Георгий Зобач,,,,,,200,215,220,220,,D,220
Single-ply,3,Brian Mitchell,M-M3,1955,England,94.3,,,,,,100,M,,,,,,,200,220,-225,220,,D,220
Single-ply,4,Ronnie Marks,M-M3,1956,Ireland,98,,,,,,100,M,,,,,,,185,195,-205,195,,D,195
Single-ply,1,Jean-Michel Nickel,M-M4,1950,France,97.4,,,,,,100,M,,,,,,,210,230,-250.5,230,,D,230
Single-ply,1,David Foster,M-JR,1987,Ireland,102.5,,,,,,110,M,,,,,,,235,250,-252.5,250,,D,250
Single-ply,1,Mark Eager,M-O,1970,England,106.4,,,,,,110,M,,,,,,,260,265,270,270,,D,270
Single-ply,2,Gianni Vermote,M-O,1972,Belgium,101.1,,,,,,110,M,,,,,,,242.5,-262.5,-265,242.5,,D,242.5
Single-ply,1,Sebastien Dechamps,M-T1,1993,Belgium,118,,,,,,125,M,,,,,,,220,-240,-240,220,,D,220
Single-ply,1,Oleg Sinitsa,M-JR,1985,Russia,121.6,,,,,,125,M,Олег Синица,,,,,,180,,,180,,D,180
Single-ply,1,Barry McGallie,M-O,1976,Ireland,117.5,,,,,,125,M,,,,,,,250,260,265,265,,D,265
Single-ply,2,Andriy Smolnikov,M-O,1978,Ukraine,114.6,,,,,,125,M,Андрій Смольников,,,,,,230,252.5,,252.5,,D,252.5
Single-ply,1,Jérôme Dechamps,M-JR,1988,Belgium,126.1,,,,,,145,M,,,,,,,270,-290,-290,270,,D,270
Single-ply,1,Vladimir Sushchak,M-O,1972,Russia,132,,,,,,145,M,Владимир Сущак,,,,,,230,,,230,,D,230
