Equipment,Place,Name,Division,BirthYear,Country,BodyweightKg,Squat1Kg,Squat2Kg,Squat3Kg,Best3SquatKg,Squat4Kg,WeightClassKg,Sex,CyrillicName,Bench1Kg,Bench2Kg,Bench3Kg,Best3BenchKg,Bench4Kg,Deadlift1Kg,Deadlift2Kg,Deadlift3Kg,Best3DeadliftKg,Deadlift4Kg,Event,TotalKg
Raw,1,Olena Kozhanova,O,1980,Ukraine,49.4,70,72.5,-75,72.5,,50.5,F,Олена Кожанова,,,,,,,,,,,S,72.5
Raw,1,Irina Ugrin,T1,1999,Ukraine,51.9,50,55,,55,,53,F,Ірина Угрин,,,,,,,,,,,S,55
Raw,1,Irina Ugrin,O,1999,Ukraine,51.9,50,55,,55,,53,F,Ірина Угрин,,,,,,,,,,,S,55
Raw,1,Arzu Medinova,J,1992,Ukraine,61.8,75,80,90,90,,63,F,Арзу Мєдінова,,,,,,,,,,,S,90
Raw,1,Arzu Medinova,O,1992,Ukraine,61.8,75,80,90,90,,63,F,Арзу Мєдінова,,,,,,,,,,,S,90
Raw,1,Oksana Dubovytska,O,1984,Ukraine,68.6,115,120,125,125,,70,F,Оксана Дубовицька,,,,,,,,,,,S,125
Raw,2,Olena Kirichenko,O,1973,Ukraine,67.6,95,100,105,105,,70,F,Олена Кириченко,,,,,,,,,,,S,105
Raw,1,Stanislav Gevyak,T1,1998,Ukraine,55.7,70,80,90,90,100.5,56,M,Станіслав Гевяк,,,,,,,,,,,S,90
Raw,1,Stanislav Gevyak,O,1998,Ukraine,55.7,70,80,90,90,100.5,56,M,Станіслав Гевяк,,,,,,,,,,,S,90
Raw,1,Aleksandr Semerenco,T2,1996,Moldova,59.2,122.5,130,,130,,60,M,,,,,,,,,,,,S,130
Raw,2,Bogdan Savenyuk,T2,1996,Ukraine,59.2,100,105,112.5,112.5,,60,M,Богдан Савенюк,,,,,,,,,,,S,112.5
Raw,3,Mark Babushkin,T2,1996,Ukraine,59.6,60,75,85,85,,60,M,Марк Бабушкін,,,,,,,,,,,S,85
Raw,1,Oleksiy Verkunych,T3,1994,Ukraine,58.1,105,110,115,115,,60,M,Олексій Веркунич,,,,,,,,,,,S,115
Raw,1,Aleksandr Semerenco,O,1996,Moldova,59.2,122.5,130,,130,,60,M,,,,,,,,,,,,S,130
Raw,2,Nazar Kravchenko,O,1985,Ukraine,57.4,-115,-115,115,115,,60,M,Назар Кравченко,,,,,,,,,,,S,115
Raw,3,Oleksiy Verkunych,O,1994,Ukraine,58.1,105,110,115,115,,60,M,Олексій Веркунич,,,,,,,,,,,S,115
Raw,4,Bogdan Savenyuk,O,1996,Ukraine,59.2,100,105,112.5,112.5,,60,M,Богдан Савенюк,,,,,,,,,,,S,112.5
Raw,5,Mark Babushkin,O,1996,Ukraine,59.6,60,75,85,85,,60,M,Марк Бабушкін,,,,,,,,,,,S,85
Raw,1,Oleksiy Krasnoshapka,T1,1998,Ukraine,65.2,-70,75,80,80,,67.5,M,Олексій Красношапка,,,,,,,,,,,S,80
Raw,1,Anton Glushchenko,T3,1993,Ukraine,67.3,160,165,170,170,175,67.5,M,Антон Глущенко,,,,,,,,,,,S,170
Raw,1,Mykola Martynenko,J,1990,Ukraine,65.5,130,135,140,140,,67.5,M,Микола Мартиненко,,,,,,,,,,,S,140
Raw,2,Sergiy Buchchenko,J,1991,Ukraine,65.3,125,130,137.5,137.5,,67.5,M,Сергій Бучченко,,,,,,,,,,,S,137.5
Raw,1,Anton Glushchenko,O,1993,Ukraine,67.3,160,165,170,170,175,67.5,M,Антон Глущенко,,,,,,,,,,,S,170
Raw,2,Vadym Grabar,O,1984,Ukraine,65.3,157.5,162.5,-170,162.5,,67.5,M,Вадим Грабар,,,,,,,,,,,S,162.5
Raw,3,Mykola Martynenko,O,1990,Ukraine,65.5,130,135,140,140,,67.5,M,Микола Мартиненко,,,,,,,,,,,S,140
Raw,4,Sergiy Buchchenko,O,1991,Ukraine,65.3,125,130,137.5,137.5,,67.5,M,Сергій Бучченко,,,,,,,,,,,S,137.5
Raw,5,Ivan Shikorin,O,1984,Ukraine,64.4,120,130,135,135,,67.5,M,Іван Шикорін,,,,,,,,,,,S,135
Raw,6,Oleksiy Krasnoshapka,O,1998,Ukraine,65.2,-70,75,80,80,,67.5,M,Олексій Красношапка,,,,,,,,,,,S,80
Raw,1,Mykola Martynenko,PFM,1990,Ukraine,65.5,130,135,140,140,,67.5,M,Микола Мартиненко,,,,,,,,,,,S,140
Raw,1,Stanislav Zdrobylko,T2,1995,Ukraine,74.1,145,155,-162.5,155,,75,M,Станіслав Здробилко,,,,,,,,,,,S,155
Raw,2,Oleksandr Kotlyarenko,T2,1996,Ukraine,73.3,100,105,115,115,,75,M,Олександр Котляренко,,,,,,,,,,,S,115
Raw,3,Vladyslav Muzyka,T2,1996,Ukraine,72.9,-110,-112.5,112.5,112.5,,75,M,Владислав Музика,,,,,,,,,,,S,112.5
Raw,4,Vasil Svidruk,T2,1996,Ukraine,72.7,110,-115,-117.5,110,,75,M,Василь Свідрук,,,,,,,,,,,S,110
Raw,1,Viktor Denysenko,T3,1993,Ukraine,73.6,150,162.5,-167.5,162.5,,75,M,Віктор Денісенко,,,,,,,,,,,S,162.5
Raw,2,Dmitro Bragin,T3,1993,Ukraine,74.4,140,150,-155,150,,75,M,Дмитро Брагін,,,,,,,,,,,S,150
Raw,1,Dmytro Lutsenko,J,1990,Ukraine,75,140,150,157.5,157.5,,75,M,Дмитро Луценко,,,,,,,,,,,S,157.5
Raw,1,Yevgen Prodan,O,1975,Ukraine,73.2,-190,190,,190,,75,M,Євген Продан,,,,,,,,,,,S,190
Raw,2,Viktor Denysenko,O,1993,Ukraine,73.6,150,162.5,-167.5,162.5,,75,M,Віктор Денісенко,,,,,,,,,,,S,162.5
Raw,3,Dmytro Lutsenko,O,1990,Ukraine,75,140,150,157.5,157.5,,75,M,Дмитро Луценко,,,,,,,,,,,S,157.5
Raw,4,Stanislav Zdrobylko,O,1995,Ukraine,74.1,145,155,-162.5,155,,75,M,Станіслав Здробилко,,,,,,,,,,,S,155
Raw,5,Dmitro Bragin,O,1993,Ukraine,74.4,140,150,-155,150,,75,M,Дмитро Брагін,,,,,,,,,,,S,150
Raw,6,Dmytro Belykh,O,1974,Ukraine,73.8,-130,135,145,145,,75,M,Дмитро Бєлих,,,,,,,,,,,S,145
Raw,7,Oleksandr Kotlyarenko,O,1996,Ukraine,73.3,100,105,115,115,,75,M,Олександр Котляренко,,,,,,,,,,,S,115
Raw,8,Vladyslav Muzyka,O,1996,Ukraine,72.9,-110,-112.5,112.5,112.5,,75,M,Владислав Музика,,,,,,,,,,,S,112.5
Raw,9,Vasil Svidruk,O,1996,Ukraine,72.7,110,-115,-117.5,110,,75,M,Василь Свідрук,,,,,,,,,,,S,110
Raw,1,Dmytro Belykh,PFM,1974,Ukraine,73.8,-130,135,145,145,,75,M,Дмитро Бєлих,,,,,,,,,,,S,145
Raw,1,Vladyslav Kyslyts'kyy,T1,1997,Ukraine,80,120,130,-135.5,130,,82.5,M,Владислав Кислицький,,,,,,,,,,,S,130
Raw,1,Pavlo Mischan,T2,1996,Ukraine,79.9,150,-160,160,160,,82.5,M,Павло Міщан,,,,,,,,,,,S,160
Raw,1,Sergiy Skorodumov,J,1991,Ukraine,81.7,-200,207.5,-215,207.5,,82.5,M,Сергій Скородумов,,,,,,,,,,,S,207.5
Raw,2,Vladyslav Babarykin,J,1992,Ukraine,79.6,150,160,167.5,167.5,,82.5,M,Владислав Бабарикін,,,,,,,,,,,S,167.5
Raw,3,Mikhaylo Schetinin,J,1990,Ukraine,80.2,155,165,-175,165,,82.5,M,Михайло Щетінін,,,,,,,,,,,S,165
Raw,1,Rinat Zaripov,O,1970,Ukraine,82.4,215,225.5,230,230,,82.5,M,Рінат Заріпов,,,,,,,,,,,S,230
Raw,2,Sergiy Skorodumov,O,1991,Ukraine,81.7,-200,207.5,-215,207.5,,82.5,M,Сергій Скородумов,,,,,,,,,,,S,207.5
Raw,3,Mikhaylo Kondratyev,O,1953,Ukraine,81.4,175,180,185,185,,82.5,M,Михайло Кондратєв,,,,,,,,,,,S,185
Raw,4,Volodimir Rudenko,O,1986,Ukraine,81.2,170,-180,-182.5,170,,82.5,M,Володимир Руденко,,,,,,,,,,,S,170
Raw,5,Vladyslav Babarykin,O,1992,Ukraine,79.6,150,160,167.5,167.5,,82.5,M,Владислав Бабарикін,,,,,,,,,,,S,167.5
Raw,6,Mikhaylo Schetinin,O,1990,Ukraine,80.2,155,165,-175,165,,82.5,M,Михайло Щетінін,,,,,,,,,,,S,165
Raw,7,Pavlo Mischan,O,1996,Ukraine,79.9,150,-160,160,160,,82.5,M,Павло Міщан,,,,,,,,,,,S,160
Raw,8,Vladyslav Kyslyts'kyy,O,1997,Ukraine,80,120,130,-135.5,130,,82.5,M,Владислав Кислицький,,,,,,,,,,,S,130
Raw,DQ,Oleksii Melnyk,O,1980,Ukraine,79.1,-150,-155,-160,,,82.5,M,Олексій Мельник,,,,,,,,,,,S,
Raw,1,Rinat Zaripov,M1,1970,Ukraine,82.4,215,225.5,230,230,,82.5,M,Рінат Заріпов,,,,,,,,,,,S,230
Raw,1,Mikhaylo Kondratyev,M4,1953,Ukraine,81.4,175,180,185,185,,82.5,M,Михайло Кондратєв,,,,,,,,,,,S,185
Raw,1,Yevgen Feofanov,O,1982,Ukraine,88.5,240,-245,-245,240,,90,M,Євген Феофанов,,,,,,,,,,,S,240
Raw,2,Igor Parshin #1,O,1983,Ukraine,85.2,225,232.5,235,235,,90,M,Игорь Паршин,,,,,,,,,,,S,235
Raw,3,Dmitro Bogachonok,O,1970,Ukraine,85.7,185,195,205,205,,90,M,Дмитро Богачонок,,,,,,,,,,,S,205
Raw,4,Mykola Yermakov,O,1954,Ukraine,87.6,150,160,170,170,,90,M,Микола Єрмаков,,,,,,,,,,,S,170
Raw,5,Oleksandr Ivanov,O,1974,Ukraine,89.9,157.5,165,170,170,,90,M,Олександр Іванов,,,,,,,,,,,S,170
Raw,1,Dmitro Bogachonok,M1,1970,Ukraine,85.7,185,195,205,205,,90,M,Дмитро Богачонок,,,,,,,,,,,S,205
Raw,1,Mykola Yermakov,M4,1954,Ukraine,87.6,150,160,170,170,,90,M,Микола Єрмаков,,,,,,,,,,,S,170
Raw,1,Oleksandr Ivanov,PFM,1974,Ukraine,89.9,157.5,165,170,170,,90,M,Олександр Іванов,,,,,,,,,,,S,170
Raw,1,Vladyslav Posnyk,T3,1994,Ukraine,95.3,150,160,-170,160,,100,M,Владислав Посник,,,,,,,,,,,S,160
Raw,1,Vladyslav Posnyk,O,1994,Ukraine,95.3,150,160,-170,160,,100,M,Владислав Посник,,,,,,,,,,,S,160
Raw,2,Volodymyr Korshunov,O,1942,Ukraine,96.4,125,135,145,145,,100,M,Володимир Коршунов,,,,,,,,,,,S,145
Raw,3,Leonid Kot,O,1950,Ukraine,97.1,125,135,140,140,,100,M,Леонід Кот,,,,,,,,,,,S,140
Raw,1,Leonid Kot,M5,1950,Ukraine,97.1,125,135,140,140,,100,M,Леонід Кот,,,,,,,,,,,S,140
Raw,1,Volodymyr Korshunov,M7,1942,Ukraine,96.4,125,135,145,145,,100,M,Володимир Коршунов,,,,,,,,,,,S,145
Raw,1,Ivan Dovbenchuk,J,1990,Ukraine,105.2,-210,210,-220,210,,110,M,Іван Довбенчук,,,,,,,,,,,S,210
Raw,1,Yaroslav Yaroslavskiy #1,O,1977,Ukraine,109.8,220,230,235,235,,110,M,Ярослав Ярославський,,,,,,,,,,,S,235
Raw,2,Anton Kischik,O,1980,Ukraine,104.2,210,220,-225,220,,110,M,Антон Кищик,,,,,,,,,,,S,220
Raw,3,Ruslan Vinnyk,O,1980,Ukraine,109.5,200,210,217.5,217.5,,110,M,Руслан Вінник,,,,,,,,,,,S,217.5
Raw,4,Ivan Dovbenchuk,O,1990,Ukraine,105.2,-210,210,-220,210,,110,M,Іван Довбенчук,,,,,,,,,,,S,210
Raw,5,Yuriy Lunov,O,1971,Ukraine,104.5,200,-210,-210,200,,110,M,Юрій Луньов,,,,,,,,,,,S,200
Raw,6,Volodimir Golikh,O,1962,Ukraine,104.2,160,170,182.5,182.5,,110,M,Володимир Голих,,,,,,,,,,,S,182.5
Raw,7,Yevgen Chudak,O,1975,Ukraine,104.1,170,-175,-175,170,,110,M,Євген Чудак,,,,,,,,,,,S,170
Raw,1,Yuriy Lunov,M1,1971,Ukraine,104.5,200,-210,-210,200,,110,M,Юрій Луньов,,,,,,,,,,,S,200
Raw,1,Volodimir Golikh,M3,1962,Ukraine,104.2,160,170,182.5,182.5,,110,M,Володимир Голих,,,,,,,,,,,S,182.5
Raw,1,Yuriy Lunov,PFM,1971,Ukraine,104.5,200,-210,-210,200,,110,M,Юрій Луньов,,,,,,,,,,,S,200
Raw,1,Sergiy Galita,O,1979,Ukraine,114.1,215,225,235,235,,125,M,Сергій Галіта,,,,,,,,,,,S,235
Raw,2,Andriy Smolnikov,O,1978,Ukraine,118.4,200,220,232.5,232.5,,125,M,Андрій Смольников,,,,,,,,,,,S,232.5
Raw,1,Andriy Vorontsov,O,1980,Ukraine,135.4,230,240,250,250,,145,M,Андрій Воронцов,,,,,,,,,,,S,250
Raw,2,Vasyl' Golivets',O,1960,Ukraine,130.1,210,220,,220,,145,M,Василь Голівець,,,,,,,,,,,S,220
Raw,1,Vasyl' Golivets',M3,1960,Ukraine,130.1,210,220,,220,,145,M,Василь Голівець,,,,,,,,,,,S,220
Single-ply,1,Albina Boyko,O,1982,Ukraine,47.5,-115,115,-120,115,,47.5,F,Альбіна Бойко,,,,,,,,,,,S,115
Single-ply,1,Bogdan Vorobey,O,1983,Ukraine,79.3,250,270,285,285,,82.5,M,Богдан Воробей,,,,,,,,,,,S,285
Raw,1,Vladislava Marina,T2,1996,Ukraine,46.3,,,,,,47.5,F,Владислава Маріна,37.5,40,42.5,42.5,,,,,,,B,42.5
Raw,1,Olena Lysak,O,1985,Ukraine,47.1,,,,,,47.5,F,Олена Лисак,-45,45,47.5,47.5,,,,,,,B,47.5
Raw,2,Vladislava Marina,O,1996,Ukraine,46.3,,,,,,47.5,F,Владислава Маріна,37.5,40,42.5,42.5,,,,,,,B,42.5
Raw,1,Olena Kozhanova,O,1980,Ukraine,49.4,,,,,,50.5,F,Олена Кожанова,-50,-50,50,50,,,,,,,B,50
Raw,1,Irina Ugrin,T1,1999,Ukraine,51.9,,,,,,53,F,Ірина Угрин,50,55,-57.5,55,,,,,,,B,55
Raw,1,Irina Ugrin,O,1999,Ukraine,51.9,,,,,,53,F,Ірина Угрин,50,55,-57.5,55,,,,,,,B,55
Raw,1,Olena Tyutenko,O,1970,Ukraine,62.7,,,,,,63,F,Олена Тютенко,40,-42.5,-42.5,40,,,,,,,B,40
Raw,1,Olena Tyutenko,M1,1970,Ukraine,62.7,,,,,,63,F,Олена Тютенко,40,-42.5,-42.5,40,,,,,,,B,40
Raw,1,Oksana Dubovytska,O,1984,Ukraine,68.8,,,,,,70,F,Оксана Дубовицька,82.5,87.5,-90,87.5,,,,,,,B,87.5
Raw,2,Olena Kirichenko,O,1973,Ukraine,67.6,,,,,,70,F,Олена Кириченко,50,55,57.5,57.5,,,,,,,B,57.5
Raw,1,Svitlana Sheremenko,O,1959,Ukraine,70.5,,,,,,80,F,Світлана Шеременко,-60,60,-62.5,60,,,,,,,B,60
Raw,2,Liliya Averkina,O,1959,Ukraine,78,,,,,,80,F,Лілія Аверкіна,42.5,-45,45,45,,,,,,,B,45
Raw,1,Svitlana Sheremenko,M3,1959,Ukraine,70.5,,,,,,80,F,Світлана Шеременко,-60,60,-62.5,60,,,,,,,B,60
Raw,2,Liliya Averkina,M3,1959,Ukraine,78,,,,,,80,F,Лілія Аверкіна,42.5,-45,45,45,,,,,,,B,45
Raw,1,Vadim Zemlyanukhin,T1,1999,Ukraine,55.3,,,,,,56,M,Вадим Землянухін,70,72.5,-75,72.5,,,,,,,B,72.5
Raw,1,Volodymyr Babych,T2,1995,Ukraine,54.9,,,,,,56,M,Володимир Бабич,95,97.5,-100,97.5,,,,,,,B,97.5
Raw,2,Mykola Pavlov,T2,1996,Ukraine,55.6,,,,,,56,M,Микола Павлов,90,92.5,-95,92.5,,,,,,,B,92.5
Raw,1,Volodymyr Babych,O,1995,Ukraine,54.9,,,,,,56,M,Володимир Бабич,95,97.5,-100,97.5,,,,,,,B,97.5
Raw,2,Mykola Pavlov,O,1996,Ukraine,55.6,,,,,,56,M,Микола Павлов,90,92.5,-95,92.5,,,,,,,B,92.5
Raw,3,Vadim Zemlyanukhin,O,1999,Ukraine,55.3,,,,,,56,M,Вадим Землянухін,70,72.5,-75,72.5,,,,,,,B,72.5
Raw,1,Aleksandr Semerenco,T2,1996,Moldova,59.2,,,,,,60,M,,100,105,-107.5,105,,,,,,,B,105
Raw,2,Bogdan Savenyuk,T2,1996,Ukraine,59.2,,,,,,60,M,Богдан Савенюк,-77.5,77.5,82.5,82.5,,,,,,,B,82.5
Raw,1,Oleksiy Verkunych,T3,1994,Ukraine,59.2,,,,,,60,M,Олексій Веркунич,75,80,-82.5,80,,,,,,,B,80
Raw,1,Aleksandr Semerenco,O,1996,Moldova,59.2,,,,,,60,M,,100,105,-107.5,105,,,,,,,B,105
Raw,2,Bogdan Savenyuk,O,1996,Ukraine,59.2,,,,,,60,M,Богдан Савенюк,-77.5,77.5,82.5,82.5,,,,,,,B,82.5
Raw,3,Nazar Kravchenko,O,1985,Ukraine,57.4,,,,,,60,M,Назар Кравченко,-80,80,-85,80,,,,,,,B,80
Raw,4,Oleksiy Verkunych,O,1994,Ukraine,59.2,,,,,,60,M,Олексій Веркунич,75,80,-82.5,80,,,,,,,B,80
Raw,1,Bogdan Ternavskiy,T1,1997,Ukraine,66,,,,,,67.5,M,Богдан Тернавський,105,110,-115,110,,,,,,,B,110
Raw,2,Maksim Yakuschenko,Y,2000,Ukraine,65.2,,,,,,67.5,M,Максим Якущенко,72.5,77.5,80,80,,,,,,,B,80
Raw,1,Yevgen Sereda,T2,1995,Ukraine,64.2,,,,,,67.5,M,Євген Середа,100,107.5,-110,107.5,,,,,,,B,107.5
Raw,1,Anton Glushchenko,T3,1993,Ukraine,67.3,,,,,,67.5,M,Антон Глущенко,105,107.5,-110,107.5,,,,,,,B,107.5
Raw,DQ,Mykola Martynenko,J,1990,Ukraine,65.5,,,,,,67.5,M,Микола Мартиненко,-107.5,-107.5,-107.5,,,,,,,,B,
Raw,1,Ashot Eganyan,J,1990,Ukraine,62.4,,,,,,67.5,M,Ашот Єганян,150,-155,-155,150,,,,,,,B,150
Raw,2,Yuriy Kostyuk,J,1991,Ukraine,65.6,,,,,,67.5,M,Юрій Костюк,105,-115,-115,105,,,,,,,B,105
Raw,3,Oleksiy Melnikov,J,1991,Ukraine,67.5,,,,,,67.5,M,Олексій Мельников,105,-115,-115,105,,,,,,,B,105
Raw,4,Sergiy Buchchenko,J,1991,Ukraine,65.3,,,,,,67.5,M,Сергій Бучченко,-85,85,90,90,,,,,,,B,90
Raw,1,Ashot Eganyan,O,1990,Ukraine,62.4,,,,,,67.5,M,Ашот Єганян,150,-155,-155,150,,,,,,,B,150
Raw,2,Bogdan Ternavskiy,O,1997,Ukraine,66,,,,,,67.5,M,Богдан Тернавський,105,110,-115,110,,,,,,,B,110
Raw,3,Yevgen Sereda,O,1995,Ukraine,64.2,,,,,,67.5,M,Євген Середа,100,107.5,-110,107.5,,,,,,,B,107.5
Raw,4,Anton Glushchenko,O,1993,Ukraine,67.3,,,,,,67.5,M,Антон Глущенко,105,107.5,-110,107.5,,,,,,,B,107.5
Raw,5,Yuriy Kostyuk,O,1991,Ukraine,65.6,,,,,,67.5,M,Юрій Костюк,105,-115,-115,105,,,,,,,B,105
Raw,6,Oleksiy Melnikov,O,1991,Ukraine,67.5,,,,,,67.5,M,Олексій Мельников,105,-115,-115,105,,,,,,,B,105
Raw,7,Ivan Shikorin,O,1984,Ukraine,64.4,,,,,,67.5,M,Іван Шикорін,-80,80,90,90,,,,,,,B,90
Raw,8,Sergiy Buchchenko,O,1991,Ukraine,65.3,,,,,,67.5,M,Сергій Бучченко,-85,85,90,90,,,,,,,B,90
Raw,9,Maksim Yakuschenko,Y,2000,Ukraine,65.2,,,,,,67.5,M,Максим Якущенко,72.5,77.5,80,80,,,,,,,B,80
Raw,DQ,Mykola Martynenko,O,1990,Ukraine,65.5,,,,,,67.5,M,Микола Мартиненко,-107.5,-107.5,-107.5,,,,,,,,B,
Raw,1,Dmytro Galuschak,T2,1996,Ukraine,72.8,,,,,,75,M,Дмитро Галущак,140,150,155,155,-160,,,,,,B,155
Raw,2,Stanislav Zdrobylko,T2,1995,Ukraine,74.1,,,,,,75,M,Станіслав Здробилко,120,125,130,130,,,,,,,B,130
Raw,3,Stanislav Krivoruchko,T2,1995,Ukraine,72.1,,,,,,75,M,Станіслав Криворучко,-95,95,105,105,,,,,,,B,105
Raw,4,Roman Demonenko,T2,1996,Ukraine,68.2,,,,,,75,M,Роман Демоненко,-95,100,-105,100,,,,,,,B,100
Raw,5,Mykhaylo Chychko,T2,1995,Ukraine,68.8,,,,,,75,M,Михайло Чичко,95,100,-105,100,,,,,,,B,100
Raw,6,Oleksandr Kotlyarenko,T2,1996,Ukraine,73.3,,,,,,75,M,Олександр Котляренко,77.5,80,82.5,82.5,,,,,,,B,82.5
Raw,7,Vladyslav Muzyka,T2,1996,Ukraine,72.9,,,,,,75,M,Владислав Музика,75,80,-85,80,,,,,,,B,80
Raw,1,Viktor Denysenko,T3,1993,Ukraine,73.6,,,,,,75,M,Віктор Денісенко,110,120,125,125,,,,,,,B,125
Raw,2,Vladislav Nalota,T3,1993,Ukraine,74.9,,,,,,75,M,Владислав Нальота,115,120,-125,120,,,,,,,B,120
Raw,3,Dmitro Bragin,T3,1993,Ukraine,74.4,,,,,,75,M,Дмитро Брагін,102.5,107.5,110,110,,,,,,,B,110
Raw,4,Oleksandr Tupikov,T3,1994,Ukraine,73.5,,,,,,75,M,Олександр Тупіков,105,107.5,-110,107.5,,,,,,,B,107.5
Raw,5,Anton Yarosh,T3,1993,Ukraine,74.7,,,,,,75,M,Антон Ярош,97.5,-100,-100,97.5,,,,,,,B,97.5
Raw,1,Oleksiy Savchuk,J,1992,Ukraine,72.8,,,,,,75,M,Олексій Савчук,130,135,140,140,,,,,,,B,140
Raw,1,Leonid Yuyukin,O,1981,Ukraine,72.3,,,,,,75,M,Леонід Ююкін,145,150,155,155,-160,,,,,,B,155
Raw,2,Dmytro Galuschak,O,1996,Ukraine,72.8,,,,,,75,M,Дмитро Галущак,140,150,155,155,-160,,,,,,B,155
Raw,3,Sergiy Zhmudenko,O,1971,Ukraine,73.5,,,,,,75,M,Сергій Жмуденко,140,145,147.5,147.5,-150,,,,,,B,147.5
Raw,4,Kostyantin Shvets,O,1989,Ukraine,72,,,,,,75,M,Костянтин Швець,135,140,145,145,,,,,,,B,145
Raw,5,Oleksiy Savchuk,O,1992,Ukraine,72.8,,,,,,75,M,Олексій Савчук,130,135,140,140,,,,,,,B,140
Raw,6,Stanislav Zdrobylko,O,1995,Ukraine,74.1,,,,,,75,M,Станіслав Здробилко,120,125,130,130,,,,,,,B,130
Raw,7,Vyacheslav Mintyuk,O,1968,Ukraine,69.1,,,,,,75,M,В'ячеслав Мінтюк,117.5,125,-130,125,,,,,,,B,125
Raw,8,Roman Shevchenko,O,1985,Ukraine,71.6,,,,,,75,M,Роман Шевченко,115,120,125,125,,,,,,,B,125
Raw,9,Viktor Denysenko,O,1993,Ukraine,73.6,,,,,,75,M,Віктор Денісенко,110,120,125,125,,,,,,,B,125
Raw,10,Vladislav Nalota,O,1993,Ukraine,74.9,,,,,,75,M,Владислав Нальота,115,120,-125,120,,,,,,,B,120
Raw,11,Dmytro Belykh,O,1974,Ukraine,73.8,,,,,,75,M,Дмитро Бєлих,110,115,117.5,117.5,,,,,,,B,117.5
Raw,12,Viktor Yatsishin #1,O,1957,Ukraine,73.1,,,,,,75,M,Віктор Яцишин,107.5,112.5,115,115,,,,,,,B,115
Raw,13,Dmitro Bragin,O,1993,Ukraine,74.4,,,,,,75,M,Дмитро Брагін,102.5,107.5,110,110,,,,,,,B,110
Raw,14,Oleksandr Tupikov,O,1994,Ukraine,73.5,,,,,,75,M,Олександр Тупіков,105,107.5,-110,107.5,,,,,,,B,107.5
Raw,15,Stanislav Krivoruchko,O,1995,Ukraine,72.1,,,,,,75,M,Станіслав Криворучко,-95,95,105,105,,,,,,,B,105
Raw,16,Roman Stelmakh,O,1971,Ukraine,74.1,,,,,,75,M,Роман Стельмах,100,105,-110,105,,,,,,,B,105
Raw,17,Roman Demonenko,O,1996,Ukraine,68.2,,,,,,75,M,Роман Демоненко,-95,100,-105,100,,,,,,,B,100
Raw,18,Mykhaylo Chychko,O,1995,Ukraine,68.8,,,,,,75,M,Михайло Чичко,95,100,-105,100,,,,,,,B,100
Raw,19,Maksim Kulakov,O,1986,Ukraine,74.3,,,,,,75,M,Максим Кулаков,87.5,97.5,-110,97.5,,,,,,,B,97.5
Raw,20,Anton Yarosh,O,1993,Ukraine,74.7,,,,,,75,M,Антон Ярош,97.5,-100,-100,97.5,,,,,,,B,97.5
Raw,21,Sergiy Negoda,O,1960,Ukraine,74.3,,,,,,75,M,Сергій Негода,85,95,-105,95,,,,,,,B,95
Raw,22,Oleksandr Kotlyarenko,O,1996,Ukraine,73.3,,,,,,75,M,Олександр Котляренко,77.5,80,82.5,82.5,,,,,,,B,82.5
Raw,23,Vladyslav Muzyka,O,1996,Ukraine,72.9,,,,,,75,M,Владислав Музика,75,80,-85,80,,,,,,,B,80
Raw,DQ,Sergiy Lesovoy,O,1961,Ukraine,69.9,,,,,,75,M,Сергій Лєсовой,-95,-95,-95,,,,,,,,B,
Raw,1,Sergiy Zhmudenko,M1,1971,Ukraine,73.5,,,,,,75,M,Сергій Жмуденко,140,145,147.5,147.5,-150,,,,,,B,147.5
Raw,2,Vyacheslav Mintyuk,M1,1968,Ukraine,69.1,,,,,,75,M,В'ячеслав Мінтюк,117.5,125,-130,125,,,,,,,B,125
Raw,3,Roman Stelmakh,M1,1971,Ukraine,74.1,,,,,,75,M,Роман Стельмах,100,105,-110,105,,,,,,,B,105
Raw,1,Sergiy Negoda,M3,1960,Ukraine,74.3,,,,,,75,M,Сергій Негода,85,95,-105,95,,,,,,,B,95
Raw,DQ,Sergiy Lesovoy,M3,1961,Ukraine,69.9,,,,,,75,M,Сергій Лєсовой,-95,-95,-95,,,,,,,,B,
Raw,1,Viktor Yatsishin #1,M4,1957,Ukraine,73.1,,,,,,75,M,Віктор Яцишин,107.5,112.5,115,115,,,,,,,B,115
Raw,1,Dmytro Belykh,PFM,1974,Ukraine,73.8,,,,,,75,M,Дмитро Бєлих,110,115,117.5,117.5,,,,,,,B,117.5
Raw,2,Viktor Yatsishin #1,PFM,1957,Ukraine,73.1,,,,,,75,M,Віктор Яцишин,107.5,112.5,115,115,,,,,,,B,115
Raw,1,Vladyslav Kyslyts'kyy,T1,1997,Ukraine,80,,,,,,82.5,M,Владислав Кислицький,80,85,90,90,,,,,,,B,90
Raw,2,Eduard Demonenko,T1,1998,Ukraine,78.4,,,,,,82.5,M,Едуард Демоненко,70,80,82.5,82.5,,,,,,,B,82.5
Raw,1,Pavlo Mischan,T2,1996,Ukraine,79.9,,,,,,82.5,M,Павло Міщан,95,100,102.5,102.5,,,,,,,B,102.5
Raw,2,Vladyslav Lysenko,T2,1996,Ukraine,79,,,,,,82.5,M,Владислав Лисенко,80,90,-100,90,,,,,,,B,90
Raw,1,Sergiy Pashkin,J,1990,Ukraine,81.6,,,,,,82.5,M,Сергій Пашкін,140,145,150,150,,,,,,,B,150
Raw,2,Yuriy Gribachov,J,1991,Ukraine,78.5,,,,,,82.5,M,Юрій Грібачов,140,145,-150,145,,,,,,,B,145
Raw,3,Mikhaylo Schetinin,J,1990,Ukraine,80.2,,,,,,82.5,M,Михайло Щетінін,117.5,125,130,130,,,,,,,B,130
Raw,4,Vladyslav Babarykin,J,1992,Ukraine,79.6,,,,,,82.5,M,Владислав Бабарикін,-105,110,115,115,,,,,,,B,115
Raw,1,Yuriy Klymenko,O,1982,Ukraine,82.4,,,,,,82.5,M,Юрій Клименко,-175,175,182.5,182.5,,,,,,,B,182.5
Raw,2,Yuriy Kondratyev,O,1981,Ukraine,81.4,,,,,,82.5,M,Юрій Кондрат'єв,155,160,-165,160,,,,,,,B,160
Raw,3,Rinat Zaripov,O,1970,Ukraine,82.4,,,,,,82.5,M,Рінат Заріпов,150,157.5,160,160,,,,,,,B,160
Raw,4,Volodimir Rudenko,O,1986,Ukraine,81.2,,,,,,82.5,M,Володимир Руденко,140,147.5,150,150,,,,,,,B,150
Raw,5,Sergiy Pashkin,O,1990,Ukraine,81.6,,,,,,82.5,M,Сергій Пашкін,140,145,150,150,,,,,,,B,150
Raw,6,Yuriy Gribachov,O,1991,Ukraine,78.5,,,,,,82.5,M,Юрій Грібачов,140,145,-150,145,,,,,,,B,145
Raw,7,Anatolii Semerenco,O,1966,Moldova,80.2,,,,,,82.5,M,,-145,145,-150,145,,,,,,,B,145
Raw,8,Volodymyr Korenga,O,1970,Ukraine,80.8,,,,,,82.5,M,Володимир Коренга,140,145,-147.5,145,,,,,,,B,145
Raw,9,Vladylen Myronov,O,1970,Ukraine,80,,,,,,82.5,M,Владилен Миронов,125,135,137.5,137.5,,,,,,,B,137.5
Raw,10,Mikhaylo Kondratyev,O,1953,Ukraine,81.4,,,,,,82.5,M,Михайло Кондратєв,125,130,135,135,,,,,,,B,135
Raw,11,Mikhaylo Schetinin,O,1990,Ukraine,80.2,,,,,,82.5,M,Михайло Щетінін,117.5,125,130,130,,,,,,,B,130
Raw,12,Maksim Kulikov,O,1984,Ukraine,80,,,,,,82.5,M,Максим Куликов,120,127.5,-132.5,127.5,,,,,,,B,127.5
Raw,13,Vladyslav Babarykin,O,1992,Ukraine,79.6,,,,,,82.5,M,Владислав Бабарикін,-105,110,115,115,,,,,,,B,115
Raw,14,Pavlo Mischan,O,1996,Ukraine,79.9,,,,,,82.5,M,Павло Міщан,95,100,102.5,102.5,,,,,,,B,102.5
Raw,15,Vladyslav Lysenko,O,1996,Ukraine,79,,,,,,82.5,M,Владислав Лисенко,80,90,-100,90,,,,,,,B,90
Raw,16,Vladyslav Kyslyts'kyy,O,1997,Ukraine,80,,,,,,82.5,M,Владислав Кислицький,80,85,90,90,,,,,,,B,90
Raw,17,Vasil Tsvirkun,O,1957,Ukraine,80.2,,,,,,82.5,M,Василь Цвіркун,90,-95,-95,90,,,,,,,B,90
Raw,18,Eduard Demonenko,O,1998,Ukraine,78.4,,,,,,82.5,M,Едуард Демоненко,70,80,82.5,82.5,,,,,,,B,82.5
Raw,19,Volodymyr Vasylenko,O,1943,Ukraine,79,,,,,,82.5,M,Володимир Василенко,60,67.5,-72.5,67.5,,,,,,,B,67.5
Raw,DQ,Dmitro Mokich,O,1987,Ukraine,82.5,,,,,,82.5,M,Дмитро Мокич,-140,-145,-145,,,,,,,,B,
Raw,DQ,Stanislav Romashko,O,1986,Ukraine,79.6,,,,,,82.5,M,Станіслав Ромашко,-132.5,-132.5,-132.5,,,,,,,,B,
Raw,1,Rinat Zaripov,M1,1970,Ukraine,82.4,,,,,,82.5,M,Рінат Заріпов,150,157.5,160,160,,,,,,,B,160
Raw,2,Volodymyr Korenga,M1,1970,Ukraine,80.8,,,,,,82.5,M,Володимир Коренга,140,145,-147.5,145,,,,,,,B,145
Raw,3,Vladylen Myronov,M1,1970,Ukraine,80,,,,,,82.5,M,Владилен Миронов,125,135,137.5,137.5,,,,,,,B,137.5
Raw,1,Anatolii Semerenco,M2,1966,Moldova,80.2,,,,,,82.5,M,,-145,145,-150,145,,,,,,,B,145
Raw,1,Mikhaylo Kondratyev,M4,1953,Ukraine,81.4,,,,,,82.5,M,Михайло Кондратєв,125,130,135,135,,,,,,,B,135
Raw,2,Vasil Tsvirkun,M4,1957,Ukraine,80.2,,,,,,82.5,M,Василь Цвіркун,90,-95,-95,90,,,,,,,B,90
Raw,1,Volodymyr Vasylenko,M6,1943,Ukraine,79,,,,,,82.5,M,Володимир Василенко,60,67.5,-72.5,67.5,,,,,,,B,67.5
Raw,DQ,Dmitro Mokich,PFM,1987,Ukraine,82.5,,,,,,82.5,M,Дмитро Мокич,-140,-145,-145,,,,,,,,B,
Raw,1,Andriy Sinyavin,J,1991,Ukraine,89.3,,,,,,90,M,Андрій Синявін,137.5,142.5,145,145,,,,,,,B,145
Raw,1,Yuriy Totskiy,O,1976,Ukraine,87.2,,,,,,90,M,Юрій Тоцький,180,185,190.5,190.5,,,,,,,B,190.5
Raw,2,Egor Pirogov #1,O,1987,Ukraine,87.7,,,,,,90,M,Єгор Пирогов,180,185,-190.5,185,,,,,,,B,185
Raw,3,Leonid Andrievskyy,O,1989,Ukraine,87.9,,,,,,90,M,Леонід Андрієвський,167.5,170,-172.5,170,,,,,,,B,170
Raw,4,Oleksandr Golubkov,O,1975,Ukraine,87,,,,,,90,M,Олександр Голубков,155,160,-170,160,,,,,,,B,160
Raw,5,Valentin Ponomarov,O,1977,Ukraine,89.4,,,,,,90,M,Валентин Пономарьов,142.5,150,-155,150,,,,,,,B,150
Raw,6,Andriy Sinyavin,O,1991,Ukraine,89.3,,,,,,90,M,Андрій Синявін,137.5,142.5,145,145,,,,,,,B,145
Raw,7,Sergiy Sholom,O,1979,Ukraine,87.6,,,,,,90,M,Сергій Шолом,137.5,140,-145,140,,,,,,,B,140
Raw,8,Oleksandr Sorokin,O,1956,Ukraine,87.3,,,,,,90,M,Олександр Сорокін,120,130,135,135,,,,,,,B,135
Raw,9,Sergiy Yakuschenko,O,1971,Ukraine,86.6,,,,,,90,M,Сергій Якущенко,125,130,-132.5,130,,,,,,,B,130
Raw,10,Oleg Nagachevskyy,O,1959,Ukraine,87.5,,,,,,90,M,Олег Нагачевський,120,125,127.5,127.5,,,,,,,B,127.5
Raw,11,Pavlo Padalka,O,1987,Ukraine,88.8,,,,,,90,M,Павло Падалка,120,-125,-125,120,,,,,,,B,120
Raw,12,Andriy Sokolov,O,1983,Ukraine,88.4,,,,,,90,M,Андрій Соколов,-115,117.5,-120,117.5,,,,,,,B,117.5
Raw,13,Oleg Kotenkov,O,1972,Ukraine,88.5,,,,,,90,M,Олег Котенков,-115,115,-125,115,,,,,,,B,115
Raw,14,Oleg Kuzmenko,O,1961,Ukraine,88.9,,,,,,90,M,Олег Кузьменко,-115,115,-120,115,,,,,,,B,115
Raw,1,Sergiy Yakuschenko,M1,1971,Ukraine,86.6,,,,,,90,M,Сергій Якущенко,125,130,-132.5,130,,,,,,,B,130
Raw,2,Oleg Kotenkov,M1,1972,Ukraine,88.5,,,,,,90,M,Олег Котенков,-115,115,-125,115,,,,,,,B,115
Raw,1,Oleg Nagachevskyy,M3,1959,Ukraine,87.5,,,,,,90,M,Олег Нагачевський,120,125,127.5,127.5,,,,,,,B,127.5
Raw,2,Oleg Kuzmenko,M3,1961,Ukraine,88.9,,,,,,90,M,Олег Кузьменко,-115,115,-120,115,,,,,,,B,115
Raw,1,Oleksandr Sorokin,M4,1956,Ukraine,87.3,,,,,,90,M,Олександр Сорокін,120,130,135,135,,,,,,,B,135
Raw,1,Yuriy Totskiy,PFM,1976,Ukraine,87.2,,,,,,90,M,Юрій Тоцький,180,185,190.5,190.5,,,,,,,B,190.5
Raw,1,Oleg Nagachevskyy,PFM,1959,Ukraine,87.5,,,,,,90,M,Олег Нагачевський,120,125,127.5,127.5,,,,,,,B,127.5
Raw,2,Andriy Sokolov,PFM,1983,Ukraine,88.4,,,,,,90,M,Андрій Соколов,-115,117.5,-120,117.5,,,,,,,B,117.5
Raw,1,Vladyslav Posnyk,T3,1994,Ukraine,95.3,,,,,,100,M,Владислав Посник,115,-120,-120,115,,,,,,,B,115
Raw,1,Kostyantin Dudnik,J,1989,Ukraine,95.6,,,,,,100,M,Костянтин Дудник,160,-165,165,165,,,,,,,B,165
Raw,2,Bogdan Shyshkevych,J,1992,Ukraine,97.4,,,,,,100,M,Богдан Шишкевич,-165,165,-170,165,,,,,,,B,165
Raw,3,Yevgen Nemirchiy,J,1989,Ukraine,92.9,,,,,,100,M,Євген Немірчий,150,-157.5,-157.5,150,,,,,,,B,150
Raw,1,Viktor Kuznetsov #4,O,1988,Ukraine,99.8,,,,,,100,M,Віктор Кузнєцов,200,210,-212.5,210,,,,,,,B,210
Raw,2,Andriy Parasochka,O,1989,Ukraine,94.2,,,,,,100,M,Андрій Парасочка,170,175,-180,175,,,,,,,B,175
Raw,3,Sergiy Chmarak,O,1982,Ukraine,95.2,,,,,,100,M,Сергій Чмарак,160,165,167.5,167.5,,,,,,,B,167.5
Raw,4,Kostyantin Dudnik,O,1989,Ukraine,95.6,,,,,,100,M,Костянтин Дудник,160,-165,165,165,,,,,,,B,165
Raw,5,Bogdan Shyshkevych,O,1992,Ukraine,97.4,,,,,,100,M,Богдан Шишкевич,-165,165,-170,165,,,,,,,B,165
Raw,6,Igor Petryna,O,1971,Ukraine,98.4,,,,,,100,M,Ігор Петрина,147.5,155,162.5,162.5,-175.5,,,,,,B,162.5
Raw,7,Yevgen Nemirchiy,O,1989,Ukraine,92.9,,,,,,100,M,Євген Немірчий,150,-157.5,-157.5,150,,,,,,,B,150
Raw,8,Oleksandr Tolkachov,O,1970,Ukraine,99.1,,,,,,100,M,Олександр Толкачов,150,,,150,,,,,,,B,150
Raw,10,Sergiy Kolesnik,O,1963,Ukraine,99.6,,,,,,100,M,Сергій Колесник,130,140,-150,140,,,,,,,B,140
Raw,11,Volodymyr Korshunov,O,1942,Ukraine,96.4,,,,,,100,M,Володимир Коршунов,125,135,-140,135,,,,,,,B,135
Raw,12,Pavlo Gavrilyuk,O,1963,Ukraine,97.7,,,,,,100,M,Павло Гаврилюк,125,135,-142.5,135,,,,,,,B,135
Raw,13,Vladyslav Posnyk,O,1994,Ukraine,95.3,,,,,,100,M,Владислав Посник,115,-120,-120,115,,,,,,,B,115
Raw,14,Leonid Kot,O,1950,Ukraine,97.1,,,,,,100,M,Леонід Кот,107.5,-115,-115,107.5,,,,,,,B,107.5
Raw,1,Igor Petryna,M1,1971,Ukraine,98.4,,,,,,100,M,Ігор Петрина,147.5,155,162.5,162.5,-175.5,,,,,,B,162.5
Raw,2,Oleksandr Tolkachov,M1,1970,Ukraine,99.1,,,,,,100,M,Олександр Толкачов,150,,,150,,,,,,,B,150
Raw,1,Pavlo Gavrilyuk,M2,1963,Ukraine,97.7,,,,,,100,M,Павло Гаврилюк,125,135,-142.5,135,,,,,,,B,135
Raw,1,Sergiy Kolesnik,M3,1963,Ukraine,99.6,,,,,,100,M,Сергій Колесник,130,140,-150,140,,,,,,,B,140
Raw,1,Leonid Kot,M5,1950,Ukraine,97.1,,,,,,100,M,Леонід Кот,107.5,-115,-115,107.5,,,,,,,B,107.5
Raw,1,Volodymyr Korshunov,M7,1942,Ukraine,96.4,,,,,,100,M,Володимир Коршунов,125,135,-140,135,,,,,,,B,135
Raw,1,Ivan Dovbenchuk,J,1990,Ukraine,104.8,,,,,,110,M,Іван Довбенчук,-135,-135,135,135,,,,,,,B,135
Raw,2,Sergiy Savenko,J,1990,Ukraine,105,,,,,,110,M,Сергій Савенко,130,-140,-140,130,,,,,,,B,130
Raw,1,Albert Enokyan,O,1988,Ukraine,100.5,,,,,,110,M,Альберт Єнокян,215,222.5,-230,222.5,,,,,,,B,222.5
Raw,2,Sergiy Dromov,O,1968,Ukraine,109.2,,,,,,110,M,Сергій Дрьомов,180,-192.5,-192.5,180,,,,,,,B,180
Raw,3,Denys Skugorov,O,1978,Ukraine,106.6,,,,,,110,M,Денис Скугоров,175,-177.5,177.5,177.5,,,,,,,B,177.5
Raw,4,Sergiy Sidorenko,O,1981,Ukraine,105.1,,,,,,110,M,Сергій Сидоренко,165,170,-175,170,,,,,,,B,170
Raw,5,Oleg Kaplun,O,1981,Ukraine,109.2,,,,,,110,M,Олег Каплун,160,167.5,170,170,,,,,,,B,170
Raw,6,Ruslan Syabro,O,1982,Ukraine,101.2,,,,,,110,M,Руслан Сябро,160,-165,165,165,,,,,,,B,165
Raw,7,Ivan Dovbenchuk,O,1990,Ukraine,104.8,,,,,,110,M,Іван Довбенчук,-135,-135,135,135,,,,,,,B,135
Raw,8,Yevgen Chudak,O,1975,Ukraine,104.1,,,,,,110,M,Євген Чудак,130,-135,-135,130,,,,,,,B,130
Raw,9,Sergiy Savenko,O,1990,Ukraine,105,,,,,,110,M,Сергій Савенко,130,-140,-140,130,,,,,,,B,130
Raw,1,Sergiy Dromov,M1,1968,Ukraine,109.2,,,,,,110,M,Сергій Дрьомов,180,-192.5,-192.5,180,,,,,,,B,180
Raw,1,Oleg Kaplun,PFM,1981,Ukraine,109.2,,,,,,110,M,Олег Каплун,160,167.5,170,170,,,,,,,B,170
Raw,1,Sergiy Dudinets,J,1992,Ukraine,112.7,,,,,,125,M,Сергій Дудинець,160,165,170,170,,,,,,,B,170
Raw,1,Anatoliy Shyshkevich,O,1970,Ukraine,111.7,,,,,,125,M,Анатолій Шишкевич,215,222.5,-232.5,222.5,,,,,,,B,222.5
Raw,2,Sergiy Dudinets,O,1992,Ukraine,112.7,,,,,,125,M,Сергій Дудинець,160,165,170,170,,,,,,,B,170
Raw,3,Igor Dubovych,O,1964,Ukraine,116.6,,,,,,125,M,Ігор Дубович,165,170,-175,170,,,,,,,B,170
Raw,4,Sergiy Galita,O,1979,Ukraine,114.1,,,,,,125,M,Сергій Галіта,155,162.5,-167.5,162.5,,,,,,,B,162.5
Raw,5,Mykola Golovan,O,1961,Ukraine,119.8,,,,,,125,M,Микола Головань,150,160,,160,,,,,,,B,160
Raw,6,Vadym Yakushin,O,1982,Ukraine,116.5,,,,,,125,M,Вадим Якушин,130,137.5,-140,137.5,,,,,,,B,137.5
Raw,7,Andriy Laytan,O,1957,Ukraine,123.3,,,,,,125,M,Андрій Лайтан,120,125,130,130,,,,,,,B,130
Raw,1,Anatoliy Shyshkevich,M1,1970,Ukraine,111.7,,,,,,125,M,Анатолій Шишкевич,215,222.5,-232.5,222.5,,,,,,,B,222.5
Raw,1,Igor Dubovych,M2,1964,Ukraine,116.6,,,,,,125,M,Ігор Дубович,165,170,-175,170,,,,,,,B,170
Raw,1,Mykola Golovan,M3,1961,Ukraine,119.8,,,,,,125,M,Микола Головань,150,160,,160,,,,,,,B,160
Raw,1,Andriy Laytan,M4,1957,Ukraine,123.3,,,,,,125,M,Андрій Лайтан,120,125,130,130,,,,,,,B,130
Raw,1,Mykola Golovan,PFM,1961,Ukraine,119.8,,,,,,125,M,Микола Головань,150,160,,160,,,,,,,B,160
Raw,2,Vadym Yakushin,PFM,1982,Ukraine,116.5,,,,,,125,M,Вадим Якушин,130,137.5,-140,137.5,,,,,,,B,137.5
Raw,1,Andriy Vorontsov,O,1980,Ukraine,135.4,,,,,,145,M,Андрій Воронцов,-195,195,-200,195,,,,,,,B,195
Raw,2,Vasyl' Golivets',O,1960,Ukraine,130.1,,,,,,145,M,Василь Голівець,170,180,185,185,,,,,,,B,185
Raw,3,Mikola Luk'yanov,O,1982,Ukraine,138.4,,,,,,145,M,Микола Лук'янов,160,175,185,185,,,,,,,B,185
Raw,4,Yevgen Shuturminskyy,O,1967,Ukraine,136.5,,,,,,145,M,Євген Шутурмінський,155,-165,-165,155,,,,,,,B,155
Raw,1,Yevgen Shuturminskyy,M2,1967,Ukraine,136.5,,,,,,145,M,Євген Шутурмінський,155,-165,-165,155,,,,,,,B,155
Raw,1,Vasyl' Golivets',M3,1960,Ukraine,130.1,,,,,,145,M,Василь Голівець,170,180,185,185,,,,,,,B,185
Raw,1,Olena Kozhanova,O,1980,Ukraine,49.4,,,,,,50.5,F,Олена Кожанова,,,,,,95,102.5,105,105,,D,105
Raw,1,Arzu Medinova,J,1992,Ukraine,61.8,,,,,,63,F,Арзу Мєдінова,,,,,,100,115,120,120,,D,120
Raw,1,Arzu Medinova,O,1992,Ukraine,61.8,,,,,,63,F,Арзу Мєдінова,,,,,,100,115,120,120,,D,120
Raw,1,Oksana Dubovytska,O,1984,Ukraine,68.6,,,,,,70,F,Оксана Дубовицька,,,,,,160,167.5,172.5,172.5,,D,172.5
Raw,1,Svitlana Sheremenko,O,1959,Ukraine,70.5,,,,,,80,F,Світлана Шеременко,,,,,,130,-135,,130,,D,130
Raw,1,Svitlana Sheremenko,M3,1959,Ukraine,70.5,,,,,,80,F,Світлана Шеременко,,,,,,130,-135,,130,,D,130
Raw,1,Oleksandr Yaremchuk,T3,1994,Ukraine,55.6,,,,,,56,M,Олександр Яремчук,,,,,,140,152.5,-165,152.5,,D,152.5
Raw,1,Oleksandr Yaremchuk,O,1994,Ukraine,55.6,,,,,,56,M,Олександр Яремчук,,,,,,140,152.5,-165,152.5,,D,152.5
Raw,1,Aleksandr Semerenco,T2,1996,Moldova,59.2,,,,,,60,M,,,,,,,142.5,150,,150,,D,150
Raw,2,Bogdan Savenyuk,T2,1996,Ukraine,59.2,,,,,,60,M,Богдан Савенюк,,,,,,100,-115,115,115,,D,115
Raw,1,Oleksiy Verkunych,T3,1994,Ukraine,58.1,,,,,,60,M,Олексій Веркунич,,,,,,140,152.5,157.5,157.5,,D,157.5
Raw,1,Oleksandr Agadzhanyan,O,1979,Ukraine,59.9,,,,,,60,M,Олександр Агаджанян,,,,,,160,170,177.5,177.5,,D,177.5
Raw,2,Oleksiy Verkunych,O,1994,Ukraine,58.1,,,,,,60,M,Олексій Веркунич,,,,,,140,152.5,157.5,157.5,,D,157.5
Raw,3,Nazar Kravchenko,O,1985,Ukraine,57.4,,,,,,60,M,Назар Кравченко,,,,,,-150,150,155,155,,D,155
Raw,4,Aleksandr Semerenco,O,1996,Moldova,59.2,,,,,,60,M,,,,,,,142.5,150,,150,,D,150
Raw,5,Bogdan Savenyuk,O,1996,Ukraine,59.2,,,,,,60,M,Богдан Савенюк,,,,,,100,-115,115,115,,D,115
Raw,1,Oleksiy Krasnoshapka,T1,1998,Ukraine,65.2,,,,,,67.5,M,Олексій Красношапка,,,,,,115,125,-135,125,,D,125
Raw,1,Yevgen Sereda,T2,1995,Ukraine,64.2,,,,,,67.5,M,Євген Середа,,,,,,182.5,190,-195,190,,D,190
Raw,1,Anton Glushchenko,T3,1993,Ukraine,67.3,,,,,,67.5,M,Антон Глущенко,,,,,,182.5,190,197.5,197.5,,D,197.5
Raw,2,Andriy Klymenko,O,1985,Ukraine,66.9,,,,,,67.5,M,Андрій Клименко,,,,,,150,160,170,170,,D,170
Raw,1,Petro Moskin,J,1990,Ukraine,65.8,,,,,,67.5,M,Петро Москін,,,,,,170,-182.5,182.5,182.5,,D,182.5
Raw,DQ,Sergiy Buchchenko,J,1991,Ukraine,65.3,,,,,,67.5,M,Сергій Бучченко,,,,,,-165,-165,-170,,,D,
Raw,1,Anton Zlobin,O,1987,Ukraine,67.1,,,,,,67.5,M,Антон Злобін,,,,,,205,217.5,222.5,222.5,-225.5,D,222.5
Raw,2,Anton Glushchenko,O,1993,Ukraine,67.3,,,,,,67.5,M,Антон Глущенко,,,,,,182.5,190,197.5,197.5,,D,197.5
Raw,3,Yevgen Sereda,O,1995,Ukraine,64.2,,,,,,67.5,M,Євген Середа,,,,,,182.5,190,-195,190,,D,190
Raw,4,Vadym Grabar,O,1984,Ukraine,65.3,,,,,,67.5,M,Вадим Грабар,,,,,,180,190,-197.5,190,,D,190
Raw,5,Volodymyr Batrak,O,1977,Ukraine,66.9,,,,,,67.5,M,Володимир Батрак,,,,,,182.5,190,-197.5,190,,D,190
Raw,6,Petro Moskin,O,1990,Ukraine,65.8,,,,,,67.5,M,Петро Москін,,,,,,170,-182.5,182.5,182.5,,D,182.5
Raw,7,Andriy Klymenko,O,1985,Ukraine,66.9,,,,,,67.5,M,Андрій Клименко,,,,,,150,160,170,170,,D,170
Raw,8,Oleksiy Krasnoshapka,O,1998,Ukraine,65.2,,,,,,67.5,M,Олексій Красношапка,,,,,,115,125,-135,125,,D,125
Raw,DQ,Sergiy Buchchenko,O,1991,Ukraine,65.3,,,,,,67.5,M,Сергій Бучченко,,,,,,-165,-165,-170,,,D,
Raw,1,Volodymyr Batrak,PFM,1977,Ukraine,66.9,,,,,,67.5,M,Володимир Батрак,,,,,,182.5,190,-197.5,190,,D,190
Raw,1,Vladyslav Shpylyovyy,T1,1998,Ukraine,73.5,,,,,,75,M,Владислав Шпильовий,,,,,,155,165,170,170,,D,170
Raw,1,Roman Demonenko,T2,1996,Ukraine,68.2,,,,,,75,M,Роман Демоненко,,,,,,170,175,185,185,,D,185
Raw,2,Stanislav Krivoruchko,T2,1995,Ukraine,72.1,,,,,,75,M,Станіслав Криворучко,,,,,,170,185,-190,185,,D,185
Raw,3,Vladyslav Muzyka,T2,1996,Ukraine,72.9,,,,,,75,M,Владислав Музика,,,,,,150,160,172.5,172.5,,D,172.5
Raw,4,Stanislav Zdrobylko,T2,1995,Ukraine,74.1,,,,,,75,M,Станіслав Здробилко,,,,,,160,165,170,170,,D,170
Raw,5,Vasil Svidruk,T2,1996,Ukraine,72.7,,,,,,75,M,Василь Свідрук,,,,,,150,160,-170,160,,D,160
Raw,6,Oleksandr Kotlyarenko,T2,1996,Ukraine,73.3,,,,,,75,M,Олександр Котляренко,,,,,,135,142.5,150,150,,D,150
Raw,1,Igor Gayday,T3,1994,Ukraine,72.2,,,,,,75,M,Ігор Гайдай,,,,,,185,200,215,215,,D,215
Raw,2,Dmytro Chuguy,T3,1994,Ukraine,72.2,,,,,,75,M,Дмитро Чугуй,,,,,,185,200,-205,200,,D,200
Raw,3,Viktor Denysenko,T3,1993,Ukraine,73.6,,,,,,75,M,Віктор Денісенко,,,,,,200,-215,-215,200,,D,200
Raw,4,Kirilo Zdir,T3,1993,Ukraine,74.6,,,,,,75,M,Кирило Здир,,,,,,170,185,-200,185,,D,185
Raw,5,Dmitro Nesterov,T3,1994,Ukraine,73.9,,,,,,75,M,Дмитро Нестеров,,,,,,-147.5,-147.5,150,150,,D,150
Raw,5,Dmitro Bragin,T3,1993,Ukraine,74.4,,,,,,75,M,Дмитро Брагін,,,,,,150,165,170,170,,D,170
Raw,1,Sergiy Shevchenko,J,1992,Ukraine,74.6,,,,,,75,M,Сергій Шевченко,,,,,,222.5,231,236.5,236.5,-240,D,236.5
Raw,2,Dmytro Lutsenko,J,1990,Ukraine,75,,,,,,75,M,Дмитро Луценко,,,,,,200,207.5,-215,207.5,,D,207.5
Raw,3,Kostyantin Logvinenko,J,1991,Ukraine,74.8,,,,,,75,M,Костянтин Логвіненко,,,,,,185,200,-215,200,,D,200
Raw,4,Vitaliy Yefrosinin,J,1989,Ukraine,71.9,,,,,,75,M,Віталій Єфросінін,,,,,,165,180,185,185,,D,185
Raw,5,Evgen Portyannikov,J,1991,Ukraine,74.9,,,,,,75,M,Євген Портянніков,,,,,,170,185,-200,185,,D,185
Raw,6,Oleksiy Savchuk,J,1992,Ukraine,72.2,,,,,,75,M,Олексій Савчук,,,,,,180,182.5,-185,182.5,,D,182.5
Raw,1,Sergiy Shevchenko,O,1992,Ukraine,74.6,,,,,,75,M,Сергій Шевченко,,,,,,222.5,231,236.5,236.5,-240,D,236.5
Raw,2,Igor Gayday,O,1994,Ukraine,72.2,,,,,,75,M,Ігор Гайдай,,,,,,185,200,215,215,,D,215
Raw,3,Dmytro Lutsenko,O,1990,Ukraine,75,,,,,,75,M,Дмитро Луценко,,,,,,200,207.5,-215,207.5,,D,207.5
Raw,4,Charlz Ezeude,O,1987,Nigeria,70.6,,,,,,75,M,,,,,,,170,185,200,200,,D,200
Raw,5,Dmytro Chuguy,O,1994,Ukraine,72.2,,,,,,75,M,Дмитро Чугуй,,,,,,185,200,-205,200,,D,200
Raw,6,Viktor Denysenko,O,1993,Ukraine,73.6,,,,,,75,M,Віктор Денісенко,,,,,,200,-215,-215,200,,D,200
Raw,7,Kostyantin Logvinenko,O,1991,Ukraine,74.8,,,,,,75,M,Костянтин Логвіненко,,,,,,185,200,-215,200,,D,200
Raw,8,Roman Stelmakh,O,1971,Ukraine,74.1,,,,,,75,M,Роман Стельмах,,,,,,180,190,,190,,D,190
Raw,9,Roman Demonenko,O,1996,Ukraine,68.2,,,,,,75,M,Роман Демоненко,,,,,,170,175,185,185,,D,185
Raw,10,Vitaliy Yefrosinin,O,1989,Ukraine,71.9,,,,,,75,M,Віталій Єфросінін,,,,,,165,180,185,185,,D,185
Raw,11,Stanislav Krivoruchko,O,1995,Ukraine,72.1,,,,,,75,M,Станіслав Криворучко,,,,,,170,185,-190,185,,D,185
Raw,12,Dmytro Belykh,O,1974,Ukraine,73.8,,,,,,75,M,Дмитро Бєлих,,,,,,170,180,185,185,,D,185
Raw,13,Maksim Kulakov,O,1986,Ukraine,74.3,,,,,,75,M,Максим Кулаков,,,,,,165,185,-187.5,185,,D,185
Raw,14,Kirilo Zdir,O,1993,Ukraine,74.6,,,,,,75,M,Кирило Здир,,,,,,170,185,-200,185,,D,185
Raw,15,Evgen Portyannikov,O,1991,Ukraine,74.9,,,,,,75,M,Євген Портянніков,,,,,,170,185,-200,185,,D,185
Raw,16,Oleksiy Savchuk,O,1992,Ukraine,72.2,,,,,,75,M,Олексій Савчук,,,,,,180,182.5,-185,182.5,,D,182.5
Raw,17,Vladyslav Muzyka,O,1996,Ukraine,72.9,,,,,,75,M,Владислав Музика,,,,,,150,160,172.5,172.5,,D,172.5
Raw,18,Vladyslav Shpylyovyy,O,1998,Ukraine,73.5,,,,,,75,M,Владислав Шпильовий,,,,,,155,165,170,170,,D,170
Raw,19,Stanislav Zdrobylko,O,1995,Ukraine,74.1,,,,,,75,M,Станіслав Здробилко,,,,,,160,165,170,170,,D,170
Raw,20,Dmitro Bragin,O,1993,Ukraine,74.4,,,,,,75,M,Дмитро Брагін,,,,,,150,165,170,170,,D,170
Raw,21,Vasil Svidruk,O,1996,Ukraine,72.7,,,,,,75,M,Василь Свідрук,,,,,,150,160,-170,160,,D,160
Raw,22,Oleksandr Kotlyarenko,O,1996,Ukraine,73.3,,,,,,75,M,Олександр Котляренко,,,,,,135,142.5,150,150,,D,150
Raw,23,Dmitro Nesterov,O,1994,Ukraine,73.9,,,,,,75,M,Дмитро Нестеров,,,,,,-147.5,-147.5,150,150,,D,150
Raw,DQ,Yevgen Prodan,O,1975,Ukraine,73.2,,,,,,75,M,Євген Продан,,,,,,-230,-230,-236,,,D,
Raw,1,Roman Stelmakh,M1,1971,Ukraine,74.1,,,,,,75,M,Роман Стельмах,,,,,,180,190,,190,,D,190
Raw,1,Dmytro Belykh,PFM,1974,Ukraine,73.8,,,,,,75,M,Дмитро Бєлих,,,,,,170,180,185,185,,D,185
Raw,1,Vladyslav Kyslyts'kyy,T1,1997,Ukraine,80,,,,,,82.5,M,Владислав Кислицький,,,,,,140,150,160.5,160.5,165,D,160.5
Raw,1,Vladyslav Lysenko,T2,1996,Ukraine,79,,,,,,82.5,M,Владислав Лисенко,,,,,,180,200,-217.5,200,,D,200
Raw,1,Sergiy Skorodumov,J,1991,Ukraine,81.7,,,,,,82.5,M,Сергій Скородумов,,,,,,-235,-245,245,245,255.5,D,245
Raw,2,Sergiy Pashkin,J,1990,Ukraine,81.6,,,,,,82.5,M,Сергій Пашкін,,,,,,210,222.5,230,230,,D,230
Raw,3,Mikhaylo Schetinin,J,1990,Ukraine,80.2,,,,,,82.5,M,Михайло Щетінін,,,,,,180,190,200,200,,D,200
Raw,4,Vladyslav Babarykin,J,1992,Ukraine,79.6,,,,,,82.5,M,Владислав Бабарикін,,,,,,160,175,180,180,,D,180
Raw,1,Rinat Zaripov,O,1970,Ukraine,82.4,,,,,,82.5,M,Рінат Заріпов,,,,,,245,260,265.5,265.5,270,D,265.5
Raw,2,Sergiy Skorodumov,O,1991,Ukraine,81.7,,,,,,82.5,M,Сергій Скородумов,,,,,,-235,-245,245,245,255.5,D,245
Raw,3,Volodimir Rudenko,O,1986,Ukraine,81.2,,,,,,82.5,M,Володимир Руденко,,,,,,232.5,240,-245,240,,D,240
Raw,4,Sergiy Pashkin,O,1990,Ukraine,81.6,,,,,,82.5,M,Сергій Пашкін,,,,,,210,222.5,230,230,,D,230
Raw,5,Aleksandr Stepanchenko,O,1958,Ukraine,82.3,,,,,,82.5,M,Александр Степанченко,,,,,,187.5,202.5,222.5,222.5,,D,222.5
Raw,6,Evgeniy Eliseev #2,O,1987,Ukraine,81.2,,,,,,82.5,M,Євгеній Єлісєєв,,,,,,212.5,-220,,212.5,,D,212.5
Raw,7,Vladyslav Lysenko,O,1996,Ukraine,79,,,,,,82.5,M,Владислав Лисенко,,,,,,180,200,-217.5,200,,D,200
Raw,8,Illya Korneev,O,1988,Ukraine,80.2,,,,,,82.5,M,Ілля Корнєєв,,,,,,-180,200,-217.5,200,,D,200
Raw,9,Mikhaylo Schetinin,O,1990,Ukraine,80.2,,,,,,82.5,M,Михайло Щетінін,,,,,,180,190,200,200,,D,200
Raw,10,Vadym Shpylyovyy,O,1974,Ukraine,82.1,,,,,,82.5,M,Вадим Шпильовий,,,,,,190,200,-205,200,,D,200
Raw,11,Roman Kobets,O,1982,Ukraine,82.4,,,,,,82.5,M,Роман Кобець,,,,,,180,200,-217.5,200,,D,200
Raw,12,Vladyslav Babarykin,O,1992,Ukraine,79.6,,,,,,82.5,M,Владислав Бабарикін,,,,,,160,175,180,180,,D,180
Raw,13,Vladyslav Kyslyts'kyy,O,1997,Ukraine,80,,,,,,82.5,M,Владислав Кислицький,,,,,,140,150,160.5,160.5,165,D,160.5
Raw,14,Volodymyr Vasylenko,O,1943,Ukraine,79,,,,,,82.5,M,Володимир Василенко,,,,,,130,145,152.5,152.5,,D,152.5
Raw,1,Rinat Zaripov,M1,1970,Ukraine,82.4,,,,,,82.5,M,Рінат Заріпов,,,,,,245,260,265.5,265.5,270,D,265.5
Raw,1,Aleksandr Stepanchenko,M3,1958,Ukraine,82.3,,,,,,82.5,M,Александр Степанченко,,,,,,187.5,202.5,222.5,222.5,,D,222.5
Raw,1,Volodymyr Vasylenko,M6,1943,Ukraine,79,,,,,,82.5,M,Володимир Василенко,,,,,,130,145,152.5,152.5,,D,152.5
Raw,1,Vadym Shpylyovyy,PFM,1974,Ukraine,82.1,,,,,,82.5,M,Вадим Шпильовий,,,,,,190,200,-205,200,,D,200
Raw,1,Yevgen Feofanov,O,1982,Ukraine,88.5,,,,,,90,M,Євген Феофанов,,,,,,265,275,-282.5,275,,D,275
Raw,2,Igor Parshin #1,O,1983,Ukraine,85.2,,,,,,90,M,Игорь Паршин,,,,,,260,265,-270,265,,D,265
Raw,3,Leonid Andrievskyy,O,1989,Ukraine,87.9,,,,,,90,M,Леонід Андрієвський,,,,,,250,260,-265,260,,D,260
Raw,4,Dmitro Bogachonok,O,1970,Ukraine,85.7,,,,,,90,M,Дмитро Богачонок,,,,,,210,222.5,235,235,,D,235
Raw,5,Dmytro Negoda,O,1985,Ukraine,89.3,,,,,,90,M,Дмитро Негода,,,,,,215,230,-240,230,,D,230
Raw,6,Oleksandr Puga,O,1985,Ukraine,87.4,,,,,,90,M,Олександр Пуга,,,,,,210,227.5,-230,227.5,,D,227.5
Raw,7,Pavlo Padalka,O,1987,Ukraine,88.8,,,,,,90,M,Павло Падалка,,,,,,190,210,-215,210,,D,210
Raw,8,Oleksandr Ivanov,O,1974,Ukraine,89.9,,,,,,90,M,Олександр Іванов,,,,,,197.5,210,-215,210,,D,210
Raw,9,Mykola Yermakov,O,1954,Ukraine,87.6,,,,,,90,M,Микола Єрмаков,,,,,,180,195,206,206,,D,206
Raw,10,Mikhaylo Chilik,O,1979,Ukraine,88.6,,,,,,90,M,Михайло Чилік,,,,,,190,-210,,190,,D,190
Raw,1,Dmitro Bogachonok,M1,1970,Ukraine,85.7,,,,,,90,M,Дмитро Богачонок,,,,,,210,222.5,235,235,,D,235
Raw,1,Mykola Yermakov,M4,1954,Ukraine,87.6,,,,,,90,M,Микола Єрмаков,,,,,,180,195,206,206,,D,206
Raw,1,Oleksandr Puga,PFM,1985,Ukraine,87.4,,,,,,90,M,Олександр Пуга,,,,,,210,227.5,-230,227.5,,D,227.5
Raw,2,Oleksandr Ivanov,PFM,1974,Ukraine,89.9,,,,,,90,M,Олександр Іванов,,,,,,197.5,210,-215,210,,D,210
Raw,1,Artem Kozak,T3,1994,Ukraine,96.7,,,,,,100,M,Артем Козак,,,,,,180,202.5,-222.5,202.5,,D,202.5
Raw,2,Vladyslav Posnyk,T3,1994,Ukraine,95.3,,,,,,100,M,Владислав Посник,,,,,,180,-200,,180,,D,180
Raw,1,Yevgen Nemirchiy,J,1989,Ukraine,92.9,,,,,,100,M,Євген Немірчий,,,,,,240,260,-262.5,260,,D,260
Raw,2,Bogdan Shyshkevych,J,1992,Ukraine,97.4,,,,,,100,M,Богдан Шишкевич,,,,,,220,240,-260,240,,D,240
Raw,1,Yevgen Nemirchiy,O,1989,Ukraine,92.9,,,,,,100,M,Євген Немірчий,,,,,,240,260,-262.5,260,,D,260
Raw,2,Dmitro Samoylov,O,1989,Ukraine,93.7,,,,,,100,M,Дмитро Самойлов,,,,,,220,240,260,260,,D,260
Raw,3,Bogdan Shyshkevych,O,1992,Ukraine,97.4,,,,,,100,M,Богдан Шишкевич,,,,,,220,240,-260,240,,D,240
Raw,4,Oleksandr Tolkachov,O,1970,Ukraine,99.1,,,,,,100,M,Олександр Толкачов,,,,,,210,235.5,,235.5,,D,235.5
Raw,5,Artem Kozak,O,1994,Ukraine,96.7,,,,,,100,M,Артем Козак,,,,,,180,202.5,-222.5,202.5,,D,202.5
Raw,6,Leonid Kot,O,1950,Ukraine,97.1,,,,,,100,M,Леонід Кот,,,,,,170,190,,190,,D,190
Raw,7,Vladyslav Posnyk,O,1994,Ukraine,95.3,,,,,,100,M,Владислав Посник,,,,,,180,-200,,180,,D,180
Raw,8,Volodymyr Korshunov,O,1942,Ukraine,96.4,,,,,,100,M,Володимир Коршунов,,,,,,150,160,,160,,D,160
Raw,1,Oleksandr Tolkachov,M1,1970,Ukraine,99.1,,,,,,100,M,Олександр Толкачов,,,,,,210,235.5,,235.5,,D,235.5
Raw,1,Leonid Kot,M5,1950,Ukraine,97.1,,,,,,100,M,Леонід Кот,,,,,,170,190,,190,,D,190
Raw,1,Volodymyr Korshunov,M7,1942,Ukraine,96.4,,,,,,100,M,Володимир Коршунов,,,,,,150,160,,160,,D,160
Raw,1,Ivan Dovbenchuk,J,1990,Ukraine,105.2,,,,,,110,M,Іван Довбенчук,,,,,,230,240,247.5,247.5,,D,247.5
Raw,2,Sergiy Savenko,J,1990,Ukraine,105,,,,,,110,M,Сергій Савенко,,,,,,210,227.5,-247.5,227.5,,D,227.5
Raw,1,Mikhaylo Anisimov,O,1985,Ukraine,108.1,,,,,,110,M,Михайло Анісімов,,,,,,270,290,300,300,,D,300
Raw,2,Andriy Simeyko,O,1978,Ukraine,105.3,,,,,,110,M,Андрій Сімейко,,,,,,240,-267.5,267.5,267.5,,D,267.5
Raw,3,Yaroslav Yaroslavskiy #1,O,1977,Ukraine,109.8,,,,,,110,M,Ярослав Ярославський,,,,,,255,265,-275,265,,D,265
Raw,4,Yuriy Lunov,O,1971,Ukraine,104.5,,,,,,110,M,Юрій Луньов,,,,,,240,255,260,260,-270.5,D,260
Raw,5,Sergiy Bardak,O,1977,Ukraine,108.8,,,,,,110,M,Сергій Бардак,,,,,,240,255,-260,255,,D,255
Raw,6,Ruslan Vinnyk,O,1980,Ukraine,109.5,,,,,,110,M,Руслан Вінник,,,,,,240,250,255,255,,D,255
Raw,7,Ivan Dovbenchuk,O,1990,Ukraine,105.2,,,,,,110,M,Іван Довбенчук,,,,,,230,240,247.5,247.5,,D,247.5
Raw,8,Anton Kischik,O,1980,Ukraine,104.2,,,,,,110,M,Антон Кищик,,,,,,220,235,-247.5,235,,D,235
Raw,9,Sergiy Savenko,O,1990,Ukraine,105,,,,,,110,M,Сергій Савенко,,,,,,210,227.5,-247.5,227.5,,D,227.5
Raw,10,Yevgen Chudak,O,1975,Ukraine,104.1,,,,,,110,M,Євген Чудак,,,,,,185,190,-195,190,,D,190
Raw,1,Yuriy Lunov,M1,1971,Ukraine,104.5,,,,,,110,M,Юрій Луньов,,,,,,240,255,260,260,-270.5,D,260
Raw,1,Yuriy Lunov,PFM,1971,Ukraine,104.5,,,,,,110,M,Юрій Луньов,,,,,,240,255,260,260,-270.5,D,260
Raw,1,Yuriy Spinov,O,1962,Ukraine,121.8,,,,,,125,M,Юрій Спінов,,,,,,300,-320,-320,300,,D,300
Raw,2,Andriy Smolnikov,O,1978,Ukraine,118.4,,,,,,125,M,Андрій Смольников,,,,,,252.5,262.5,272.5,272.5,,D,272.5
Raw,3,Sergiy Galita,O,1979,Ukraine,114.1,,,,,,125,M,Сергій Галіта,,,,,,240,250,260,260,,D,260
Raw,4,Mykola Golovan,O,1961,Ukraine,119.8,,,,,,125,M,Микола Головань,,,,,,240,255,260,260,,D,260
Raw,5,Armen Kamsaryan,O,1972,Ukraine,116.8,,,,,,125,M,Армен Камсарян,,,,,,200,222.5,242.5,242.5,,D,242.5
Raw,1,Armen Kamsaryan,M1,1972,Ukraine,116.8,,,,,,125,M,Армен Камсарян,,,,,,200,222.5,242.5,242.5,,D,242.5
Raw,1,Yuriy Spinov,M3,1962,Ukraine,121.8,,,,,,125,M,Юрій Спінов,,,,,,300,-320,-320,300,,D,300
Raw,2,Mykola Golovan,M3,1961,Ukraine,119.8,,,,,,125,M,Микола Головань,,,,,,240,255,260,260,,D,260
Raw,1,Mykola Golovan,PFM,1961,Ukraine,119.8,,,,,,125,M,Микола Головань,,,,,,240,255,260,260,,D,260
Raw,1,Andriy Vorontsov,O,1980,Ukraine,135.4,,,,,,145,M,Андрій Воронцов,,,,,,230,240,250,250,,D,250
Raw,2,Mikola Luk'yanov,O,1982,Ukraine,138.4,,,,,,145,M,Микола Лук'янов,,,,,,200,220,242.5,242.5,,D,242.5
Single-ply,1,Illya Simchuk,O,1990,Ukraine,99.8,,,,,,100,M,Ілля Сімчук,,,,,,255,265,-270,265,,D,265
Single-ply,2,Sergiy Kolesnik,O,1963,Ukraine,99.6,,,,,,100,M,Сергій Колесник,,,,,,220,240,255,255,,D,255
Single-ply,1,Sergiy Kolesnik,M3,1963,Ukraine,99.6,,,,,,100,M,Сергій Колесник,,,,,,220,240,255,255,,D,255
