Equipment,Tested,Place,Name,Division,BirthYear,Country,BodyweightKg,Squat1Kg,Squat2Kg,Squat3Kg,Best3SquatKg,Bench1Kg,Bench2Kg,Bench3Kg,Best3BenchKg,Deadlift1Kg,Deadlift2Kg,Deadlift3Kg,Best3DeadliftKg,Deadlift4Kg,TotalKg,WeightClassKg,Sex,CyrillicName,Event
Wraps,Yes,1,Erika Kolobukhova,Amateur Teen 16-17,1999,Russia,47.35,-95,-95,95,95,47.5,50,52.5,52.5,102.5,107.5,-112.5,107.5,,255,48,F,Эрика Колобухова,SBD
Wraps,Yes,2,Varvara Lychko,Amateur Teen 14-15,2000,Russia,47.95,-45,50,55,55,32.5,37.5,42.5,42.5,55,65,-77.5,65,,162.5,48,F,Варвара Лычко,SBD
Wraps,Yes,1,Anna Morozova,Amateur Teen 18-19,1997,Russia,47.05,70,-80,-85,70,45,-47.5,-50,45,70,-85,85,85,,200,48,F,Анна Морозова,SBD
Wraps,Yes,1,Aleksandra Kungurova,Amateur Juniors 20-23,1993,Russia,47.85,82.5,87.5,90,90,45,47.5,50,50,102.5,110,-120,110,,250,48,F,Александра Кунгурова,SBD
Wraps,Yes,1,Anna Galkina,Amateur Open,1991,Russia,47.45,-75,75,80,80,62.5,65,-67.5,65,95,105,-110,105,,250,48,F,Анна Галкина,SBD
Wraps,Yes,1,Svetlana Tolosheva,Amateur Teen 16-17,1998,Russia,51.7,80,90,-105,90,40,-45,-45,40,105,115,-130,115,,245,52,F,Светлана Толошева,SBD
Wraps,Yes,2,Mariya Zyryanova,Amateur Teen 18-19,1997,Russia,51.75,-85,-85,-85,,-47.5,,,,-77.5,-77.5,77.5,77.5,,77.5,52,F,Мария Зырянова,SBD
Wraps,Yes,1,Ekaterina Akimova,Amateur Juniors 20-23,1995,Russia,52,-95,95,102.5,102.5,40,-42.5,42.5,42.5,110,-125,-125,110,,255,52,F,Екатерина Акимова,SBD
Wraps,Yes,2,Anastasiya Androsova,Amateur Juniors 20-23,1993,Russia,51.6,85,95,-100,95,40,45,-50,45,80,92.5,100,100,,240,52,F,Анастасия Андросова,SBD
Wraps,Yes,3,Darya Safonova,Amateur Juniors 20-23,1995,Russia,52,80,87.5,-92.5,87.5,47.5,52.5,-55,52.5,90,-100,-100,90,,230,52,F,Дарья Сафонова,SBD
Wraps,Yes,1,Anna Klisch,Amateur Open,1989,Russia,51.95,77.5,85,-90,85,55,62.5,-67.5,62.5,110,122.5,-130,122.5,,270,52,F,Анна Клищ,SBD
Wraps,Yes,2,Natalya Varnavskaya,Amateur Open,1983,Russia,51.95,95,97.5,100,100,52.5,57.5,60,60,105,110,-117.5,110,,270,52,F,Наталья Варнавская,SBD
Wraps,Yes,3,Elena Lyaschenko,Amateur Open,1988,Russia,50.95,70,-77.5,-77.5,70,42.5,47.5,-50,47.5,-95,95,-105,95,,212.5,52,F,Елена Лященко,SBD
Wraps,Yes,4,Anna Golomentseva,Amateur Open,1990,Russia,49.7,65,-70,-70,65,37.5,40,42.5,42.5,70,75,-77.5,75,,182.5,52,F,Анна Голоменцева,SBD
Wraps,Yes,1,Angelina Kalinina,Amateur Teen 18-19,1996,Russia,56,90,-100,-100,90,-47.5,47.5,-52.5,47.5,110,120,-130,120,,257.5,56,F,Ангелина Калинина,SBD
Wraps,Yes,2,Darya Primanchuk,Amateur Teen 16-17,1998,Russia,54.45,80,87.5,-95,87.5,-40,40,42.5,42.5,105,112.5,-127.5,112.5,,242.5,56,F,Дарья Приманчук,SBD
Wraps,Yes,3,Anastasiya Loginova,Amateur Teen 16-17,1998,Russia,56,85,-90,92.5,92.5,40,-42.5,42.5,42.5,-85,87.5,-95,87.5,,222.5,56,F,Анастасия Логинова,SBD
Wraps,Yes,DQ,Alina Ogorodnikova,Amateur Teen 18-19,1997,Russia,56,-75,-80,-80,,,,,,-107.5,107.5,-122.5,107.5,,,56,F,Алина Огородникова,SBD
Wraps,Yes,1,Elena Borovinskaya,Amateur Juniors 20-23,1995,Russia,55.15,100,110,-115,110,45,52.5,-55,52.5,100,110,117.5,117.5,,280,56,F,Елена Боровинская,SBD
Wraps,Yes,1,Larisa Chernobaeva,Amateur Open,1980,Russia,54.9,102.5,-107.5,-110,102.5,55,57.5,-60,57.5,137.5,147.5,-152.5,147.5,,307.5,56,F,Лариса Чернобаева,SBD
Wraps,Yes,2,Darya Yalama,Amateur Open,1987,Russia,55.9,90,100,-102.5,100,45,47.5,-50,47.5,110,120,127.5,127.5,,275,56,F,Дарья Ялама,SBD
Wraps,Yes,3,Ekaterina Nikonova,Amateur Open,1988,Russia,55.65,75,82.5,-87.5,82.5,42.5,-47.5,-47.5,42.5,100,110,115,115,,240,56,F,Екатерина Никонова,SBD
Wraps,Yes,1,Anastasiya Levites,Amateur Teen 14-15,2000,Russia,57.8,-95,95,100,100,50,-52.5,-52.5,50,-112.5,112.5,-127.5,112.5,,262.5,60,F,Анастасия Левитес,SBD
Wraps,Yes,1,Darya Galyamova,Amateur Teen 18-19,1996,Russia,58.75,90,100,-105,100,45,-50,-50,45,110,120,132.5,132.5,,277.5,60,F,Дарья Галямова,SBD
Wraps,Yes,2,Aleksandra Skorokhodova,Amateur Teen 18-19,1997,Russia,60,-90,90,-100,90,45,-50,50,50,100,107.5,112.5,112.5,,252.5,60,F,Александра Скороходова,SBD
Wraps,Yes,1,Viktoriya Kupina,Amateur Juniors 20-23,1996,Russia,56.4,80,90,97.5,97.5,47.5,52.5,55,55,100,110,120,120,,272.5,60,F,Виктория Купина,SBD
Wraps,Yes,2,Anna Novoselova,Amateur Juniors 20-23,1992,Russia,59.75,65,72.5,80,80,35,42.5,-45,42.5,95,105,-115,105,,227.5,60,F,Анна Новоселова,SBD
Wraps,Yes,1,Marina Emelyanova,Amateur Open,1991,Russia,59.85,-65,65,72.5,72.5,45,52.5,-57.5,52.5,-105,105,112.5,112.5,,237.5,60,F,Марина Емельянова,SBD
Wraps,Yes,1,Valeriya Kukhareva,Amateur Teen 14-15,2000,Russia,62.45,40,50,-65,50,20,30,35,35,40,55,70,70,,155,67.5,F,Валерия Кухарева,SBD
Wraps,Yes,1,Polina Ivanova,Amateur Open,1986,Russia,62.75,110,120,-122.5,120,60,65,-67.5,65,135,145,-152.5,145,,330,67.5,F,Полина Иванова,SBD
Wraps,Yes,2,Tatyana Slepokurova,Amateur Open,1969,Russia,64,100,-105,105,105,52.5,-55,55,55,-120,-137.5,137.5,137.5,,297.5,67.5,F,Татьяна Слепокурова,SBD
Wraps,Yes,3,Rinata Khusainova,Amateur Open,1986,Russia,66.6,80,85,90,90,47.5,50,52.5,52.5,100,107.5,115,115,,257.5,67.5,F,Рината Хусаинова,SBD
Wraps,Yes,4,Mariya Soldatova,Amateur Open,1987,Russia,67.5,85,-92.5,-92.5,85,50,55,-57.5,55,110,-117.5,-117.5,110,,250,67.5,F,Мария Солдатова,SBD
Wraps,Yes,5,Olga Borodina,Amateur Open,1988,Russia,67.05,-90,95,-100,95,37.5,42.5,45,45,100,107.5,-115,107.5,,247.5,67.5,F,Ольга Бородина,SBD
Wraps,Yes,6,Olga Kuznetsova,Amateur Open,1989,Russia,60.75,75,80,-87.5,80,35,37.5,-40,37.5,95,102.5,107.5,107.5,,225,67.5,F,Ольга Кузнецова,SBD
Wraps,Yes,1,Viktoriya Karpova,Amateur Juniors 20-23,1992,Russia,73.5,80,-85,85,85,70,-75,-75,70,135,145,150,150,,305,75,F,Виктория Карпова,SBD
Wraps,Yes,2,Anastasiya Privalova,Amateur Juniors 20-23,1996,Russia,70.9,90,100,-105,100,55,62.5,-67.5,62.5,-115,120,-127.5,120,,282.5,75,F,Анастасия Привалова,SBD
Wraps,Yes,1,Elena Nikolenko,Amateur Open,1978,Russia,73.85,-110,110,-120,110,45,50,52.5,52.5,130,-137.5,142.5,142.5,,305,75,F,Елена Николенко,SBD
Wraps,Yes,2,Oksana Chudnaya,Amateur Open,1977,Russia,71.7,115,120,-125,120,55,60,65,65,117.5,-125,-135,117.5,,302.5,75,F,Оксана Чудная,SBD
Wraps,Yes,3,Irina Makasher,Amateur Open,1990,Russia,70.45,100,-105,-105,100,55,60,62.5,62.5,120,-127.5,-127.5,120,,282.5,75,F,Ирина Макашер,SBD
Wraps,Yes,1,Olga Gerasimyuk,Amateur Open,1996,Russia,81.95,160,-170,-170,160,90,95,100,100,177.5,190,195,195,,455,82.5,F,Ольга Герасимюк,SBD
Wraps,Yes,1,Kseniya Shikolovich,Amateur Teen 16-17,1998,Russia,102.75,140,155,-160,155,70,75,-80,75,145,155,-160,155,,385,90+,F,Ксения Шиколович,SBD
Wraps,Yes,1,Yuliya Tulinova,Amateur Open,1979,Russia,95.55,100,-110,120,120,85,-95,-95,85,100,110,120,120,,325,90+,F,Юлия Тулинова,SBD
Wraps,Yes,1,Aleksandr Shishmarev,Amateur Teen,2002,Russia,49.55,60,65,70,70,47.5,52.5,55,55,70,-80,85,85,,210,52,M,Александр Шишмарев,SBD
Wraps,Yes,2,Sergey Inkin,Amateur Teen,2002,Russia,45.55,47.5,55,60,60,32.5,37.5,-42.5,37.5,65,75,80,80,,177.5,52,M,Сергей Инкин,SBD
Wraps,Yes,1,Ivan Safronov,Amateur Teen 14-15,2001,Russia,55.65,-90,95,-100,95,60,-67.5,67.5,67.5,80,90,100,100,,262.5,56,M,Иван Сафронов,SBD
Wraps,Yes,1,Aleksey Starkov,Amateur Teen 16-17,1998,Russia,59.8,110,125,135,135,75,85,-90,85,150,170,180,180,,400,60,M,Алексей Старков,SBD
Wraps,Yes,2,Andrey Karelin,Amateur Teen 16-17,1998,Russia,58.54,90,100,105,105,75,-82.5,85,85,100,110,120,120,,310,60,M,Андрей Карелин,SBD
Wraps,Yes,1,Konstantin Dorosh,Amateur Teen 14-15,2001,Russia,63.8,110,-120,120,120,72.5,-77.5,77.5,77.5,-155,155,-167.5,155,,352.5,67.5,M,Константин Дорош,SBD
Wraps,Yes,1,Artem Oganisyan,Amateur Teen 16-17,1998,Russia,65.15,170,185,195,195,95,105,107.5,107.5,195,210,220,220,,522.5,67.5,M,Артем Оганисян,SBD
Wraps,Yes,2,Georgiy Rostovtsev,Amateur Teen 16-17,1998,Russia,66.8,167.5,-175,175,175,82.5,90,-92.5,90,167.5,180,-192.5,180,,445,67.5,M,Георгий Ростовцев,SBD
Wraps,Yes,1,Timofey Ishimov,Amateur Open,1990,Russia,67,165,172.5,175,175,105,107.5,110,110,200,210,-220,210,,495,67.5,M,Тимофей Ишимов,SBD
Wraps,Yes,2,Andrey Kolbin,Amateur Open,1984,Russia,66.3,145,155,160,160,100,110,-115,110,180,192.5,-200,192.5,,462.5,67.5,M,Андрей Колбин,SBD
Wraps,Yes,3,Aleksey Stotskiy,Amateur Open,1983,Russia,66.55,-140,140,-160,140,100,107.5,-115,107.5,180,190,200,200,,447.5,67.5,M,Алексей Стоцкий,SBD
Wraps,Yes,1,Danila Kornev,Amateur Teen 16-17,1999,Russia,73.6,110,115,125,125,80,85,-90,85,-160,-160,160,160,,370,75,M,Данила Корнев,SBD
Wraps,Yes,1,Ruslan Tsvetkovskiy,Amateur Teen 16-17,1998,Russia,74.05,150,160,-170,160,100,110,115,115,200,215,225,225,,500,75,M,Руслан Цветковский,SBD
Wraps,Yes,2,Sergey Namakonov,Amateur Teen 16-17,1998,Russia,73.5,160,165,170,170,102.5,110,115,115,160,180,,180,,465,75,M,Сергей Намаконов,SBD
Wraps,Yes,3,Mikhail Zherebtsov,Amateur Teen 16-17,1999,Russia,71.55,-100,120,135,135,65,70,72.5,72.5,160,170,180,180,,387.5,75,M,Михаил Жеребцов,SBD
Wraps,Yes,1,Roman Korotkikh,Amateur Juniors 20-23,1994,Russia,73.65,165,170,-175,170,-140,145,-150,145,210,222.5,230,230,,545,75,M,Роман Коротких,SBD
Wraps,Yes,2,Gennadiy Zateev,Amateur Juniors 20-23,1993,Russia,73.5,-140,-150,155,155,90,100,-105,100,160,170,180,180,,435,75,M,Геннадий Затеев,SBD
Wraps,Yes,DQ,Pavel Ardyshev,Amateur Juniors 20-23,1994,Russia,74.4,-170,-175,-175,,-125,,,,225,235,-240,235,,,75,M,Павел Ардышев,SBD
Wraps,Yes,1,Nikolay Zakharov,Amateur Masters 60-64,1951,Russia,72.8,-130,-130,130,130,65,70,-75,70,160,170,,170,,370,75,M,Николай Захаров,SBD
Wraps,Yes,1,Denis Ivankov,Amateur Teen 14-15,2000,Russia,81.5,130,140,145,145,95,100,-105,100,140,150,-160,150,,395,82.5,M,Денис Иваньков,SBD
Wraps,Yes,1,Viktor Kurzenev,Amateur Juniors 20-23,1993,Russia,82.3,195,207.5,-210,207.5,135,142.5,-145,142.5,210,-222.5,-222.5,210,,560,82.5,M,Виктор Курзенев,SBD
Wraps,Yes,2,Anatoliy Denisenko,Amateur Juniors 20-23,1995,Russia,80.9,175,185,190,190,127.5,135,140,140,197.5,207.5,217.5,217.5,,547.5,82.5,M,Анатолий Денисенко,SBD
Wraps,Yes,3,Dmitriy Gridin,Amateur Juniors 20-23,1994,Russia,80.95,160,165,170,170,125,130,-132.5,130,210,215,-220,215,,515,82.5,M,Дмитрий Гридин,SBD
Wraps,Yes,4,Temirlan Asilov,Amateur Juniors 20-23,1994,Russia,79.7,115,125,135,135,80,90,-100,90,140,150,-165,150,,375,82.5,M,Темирлан Асилов,SBD
Wraps,Yes,1,Vitaliy Dubrovin,Amateur Open,1982,Russia,82.5,247.5,257.5,-267.5,257.5,167.5,175,182.5,182.5,235,247.5,-260,247.5,,687.5,82.5,M,Виталий Дубровин,SBD
Wraps,Yes,2,Roman Khromov,Amateur Open,1989,Russia,82.5,220,230,,230,157.5,165,167.5,167.5,220,230,-240,230,,627.5,82.5,M,Роман Хромов,SBD
Wraps,Yes,3,Aleksandr Ivanov,Amateur Open,1996,Russia,78.5,185,200,-210,200,130,142.5,-150,142.5,190,210,-230,210,,552.5,82.5,M,Александр Иванов,SBD
Wraps,Yes,4,Evgeniy Goncharov,Amateur Open,1989,Russia,76.9,160,-162.5,167.5,167.5,120,127.5,130,130,200,-207.5,217.5,217.5,,515,82.5,M,Евгений Гончаров,SBD
Wraps,Yes,5,Aydyn Eres-Ool,Amateur Open,1985,Russia,81.75,175,185,-190,185,120,125,-130,125,205,-217.5,-217.5,205,,515,82.5,M,Айдын Эрес-Оол,SBD
Wraps,Yes,1,Nikita Ignatyev,Amateur Teen 16-17,1999,Russia,84.7,155,165,170,170,-102.5,107.5,-112.5,107.5,175,185,190,190,,467.5,90,M,Никита Игнатьев,SBD
Wraps,Yes,2,Ilya Andryukhov,Amateur Teen 16-17,1999,Russia,86.25,100,115,-122.5,115,70,80,87.5,87.5,100,,,100,,302.5,90,M,Илья Андрюхов,SBD
Wraps,Yes,1,Aleksandr Nemtin,Amateur Teen 16-17,1998,Russia,84.7,-175,-175,175,175,105,-110,-110,105,200,210,-220,210,,490,90,M,Александр Немтин,SBD
Wraps,Yes,2,Stanislav Karchkov,Amateur Teen 18-19,1996,Russia,84.45,-160,165,170,170,95,100,-105,100,190,200,-205,200,,470,90,M,Станислав Карчков,SBD
Wraps,Yes,1,Semen Mardanshin,Amateur Juniors 20-23,1992,Russia,89.25,190,-200,200,200,150,160,-170,160,220,230,235,235,,595,90,M,Семен Марданшин,SBD
Wraps,Yes,2,Ilya Grigoryev,Amateur Juniors 20-23,1993,Russia,87.8,160,180,-190,180,140,150,-160,150,220,-240,,220,,550,90,M,Илья Григорьев,SBD
Wraps,Yes,1,Semen Mardanshin,Amateur Open,1992,Russia,89.25,190,-200,200,200,150,160,-170,160,220,230,235,235,,595,90,M,Семен Марданшин,SBD
Wraps,Yes,2,Vyacheslav Gubarev,Amateur Open,1976,Russia,87,160,170,175,175,130,135,140,140,190,200,212.5,212.5,,527.5,90,M,Вячеслав Губарев,SBD
Wraps,Yes,3,Kirill Kovalenko,Amateur Open,1990,Russia,87.9,160,170,-177.5,170,105,110,115,115,175,190,200,200,,485,90,M,Кирилл Коваленко,SBD
Wraps,Yes,4,Evgeniy Dubov,Amateur Open,1987,Russia,88.25,-160,165,172.5,172.5,100,107.5,-112.5,107.5,170,-185,190,190,,470,90,M,Евгений Дубов,SBD
Wraps,Yes,1,Evgeniy Svoboda,Amateur Masters 40-44,1972,Russia,90,150,-170,170,170,125,135,142.5,142.5,180,210,220,220,,532.5,90,M,Евгений Свобода,SBD
Wraps,Yes,2,Vyacheslav Gubarev,Amateur Masters 40-44,1976,Russia,87,160,170,175,175,130,135,140,140,190,200,212.5,212.5,,527.5,90,M,Вячеслав Губарев,SBD
Wraps,Yes,1,Ruslan Bayramali,Amateur Teen 18-19,1996,Russia,98.9,210,-225,-225,210,-100,100,,100,240,260,-270,260,,570,100,M,Руслан Байрамали,SBD
Wraps,Yes,1,Grazhvidas Urnezhyus,Amateur Juniors 20-23,1992,Russia,98.9,220,230,240,240,170,-180,180,180,220,240,270,270,,690,100,M,Гражвидас Урнежюс,SBD
Wraps,Yes,1,Grazhvidas Urnezhyus,Amateur Open,1992,Russia,98.9,220,230,240,240,170,-180,180,180,220,240,270,270,,690,100,M,Гражвидас Урнежюс,SBD
Wraps,Yes,2,Dmitriy Barbolin,Amateur Open,1991,Russia,92.4,205,-215,215,215,135,140,145,145,200,-212.5,212.5,212.5,,572.5,100,M,Дмитрий Барболин,SBD
Wraps,Yes,3,Dmitriy Malakhovskiy,Amateur Open,1981,Russia,91.5,160,175,190,190,120,135,-145,135,110,230,-247.5,230,,555,100,M,Дмитрий Малаховский,SBD
Wraps,Yes,4,Sergey Yachmenev,Amateur Open,1987,Russia,92.1,140,155,-160,155,95,105,-110,105,175,-190,-202.5,175,,435,100,M,Сергей Ячменев,SBD
Wraps,Yes,1,Aleksey Vasilchuk,Amateur Teen 14-15,2000,Russia,100.8,170,180,190,190,120,130,-135,130,-200,200,-210,200,,520,110,M,Алексей Васильчук,SBD
Wraps,Yes,1,Nikita Lyubimov,Amateur Teen 16-17,1998,Russia,102.1,190,200,215,215,105,120,130,130,200,220,-245,220,,565,110,M,Никита Любимов,SBD
Wraps,Yes,2,Aleksey Koshurov,Amateur Teen 18-19,1997,Russia,107.75,160,-170,-170,160,100,-107.5,-107.5,100,190,200,-210,200,,460,110,M,Алексей Кошуров,SBD
Wraps,Yes,3,Maksim Shnyrov,Amateur Teen 16-17,1998,Russia,101.65,120,130,135,135,87.5,95,-100,95,-167.5,-167.5,-167.5,,,230,110,M,Максим Шныров,SBD
Wraps,Yes,1,Evgeniy Shalimov,Amateur Juniors 20-23,1995,Russia,108.25,190,210,220,220,140,-150,150,150,240,265,-290,265,,635,110,M,Евгений Шалимов,SBD
Wraps,Yes,2,Vladislav Nechakhin,Amateur Juniors 20-23,1996,Russia,105.1,-160,165,170,170,150,-160,160,160,200,210,220,220,,550,110,M,Владислав Нечахин,SBD
Wraps,Yes,1,Konstantin Zhukov,Amateur Open,1987,Russia,109,185,200,210,210,160,167.5,172.5,172.5,200,210,225,225,,607.5,110,M,Константин Жуков,SBD
Wraps,Yes,2,Mikhail Ovsyannikov,Amateur Open,1985,Russia,109.85,185,-200,200,200,152.5,157.5,-160,157.5,210,232.5,-240,232.5,,590,110,M,Михаил Овсянников,SBD
Wraps,Yes,3,Nikita Mirzaev,Amateur Open,1989,Russia,109.05,170,180,190,190,160,165,-170,165,200,-212.5,-212.5,200,,555,110,M,Никита Мирзаев,SBD
Wraps,Yes,4,Sergey Kozlov,Amateur Open,1975,Russia,108.7,180,-210,,180,125,135,-140,135,170,180,190,190,,505,110,M,Сергей Козлов,SBD
Wraps,Yes,1,Oleg Rybalkin,Amateur Masters 40-44,1971,Russia,108.9,190,200,210,210,170,175,180,180,200,220,240,240,,630,110,M,Олег Рыбалкин,SBD
Wraps,Yes,2,Andrey Rodkin,Amateur Masters 45-49,1970,Russia,107.3,105,115,130,130,90,100,-105,100,130,145,155,155,,385,110,M,Андрей Родькин,SBD
Wraps,Yes,1,Egor Kuzmin,Amateur Open,1989,Russia,122.55,150,170,-175,170,125,140,-142.5,140,185,205,210,210,,520,125,M,Егор Кузьмин,SBD
Multi-ply,Yes,1,Polina Goryachkina,Amateur Juniors 20-23,1996,Russia,52,-100,-100,100,100,50,55,60,60,100,110,120,120,,280,52,F,Полина Горячкина,SBD
Multi-ply,Yes,2,Valeriya Orteelek,Amateur Juniors 20-23,1996,Russia,50.85,-90,90,-95,90,62.5,67.5,-70,67.5,100,105,-110,105,,262.5,52,F,Валерия Ортээлек,SBD
Multi-ply,Yes,1,Polina Goryachkina,Amateur Open,1996,Russia,52,-100,-100,100,100,50,55,60,60,100,110,120,120,,280,52,F,Полина Горячкина,SBD
Multi-ply,Yes,1,Aleksandra Ezhova,Amateur Juniors 20-23,1996,Russia,57.65,-100,100,110,110,55,60,65,65,90,100,-110,100,,275,60,F,Александра Ежова,SBD
Multi-ply,Yes,1,Aleksandra Ezhova,Amateur Open,1996,Russia,57.65,-100,100,110,110,55,60,65,65,90,100,-110,100,,275,60,F,Александра Ежова,SBD
Multi-ply,Yes,1,Darya Garaeva,Amateur Teen 16-17,1999,Russia,64.75,-140,140,-155,140,52.5,70,75,75,110,120,-132.5,120,,335,67.5,F,Дарья Гараева,SBD
Multi-ply,Yes,1,Evgeniy Svoboda,Amateur Open,1972,Russia,90,225,245,-272.5,245,155,165,-172.5,165,210,235,255,255,,665,90,M,Евгений Свобода,SBD
Multi-ply,Yes,1,Evgeniy Svoboda,Amateur Masters 40-44,1972,Russia,90,225,245,-272.5,245,155,165,-172.5,165,210,235,255,255,,665,90,M,Евгений Свобода,SBD
Multi-ply,Yes,1,Oleg Ovcharenko,Amateur Open,1991,Russia,91.2,-225,225,-235,225,100,110,115,115,-170,170,180,180,,520,100,M,Олег Овчаренко,SBD
Wraps,No,1,Darya Kovichka,Pro Teen 16-17,1999,Russia,51,75,80,-82.5,80,35,37.5,-40,37.5,75,80,85,85,,202.5,52,F,Дарья Ковичка,SBD
Wraps,No,1,Irina Kochina,Pro Teen 16-17,1999,Russia,53.2,45,50,-55,50,27.5,30,-32.5,30,50,55,62.5,62.5,,142.5,56,F,Ирина Кочина,SBD
Wraps,No,1,Alina Dubrovina,Pro Open,1992,Russia,59.6,95,100,105,105,65,70,72.5,72.5,110,120,125,125,,302.5,60,F,Алина Дубровина,SBD
Wraps,No,1,Ekaterina Romanova,Pro Teen 18-19,1997,Russia,71.9,-87.5,87.5,-100,87.5,40,47.5,-52.5,47.5,-100,100,110,110,,245,75,F,Екатерина Романова,SBD
Wraps,No,1,Nadezhda Shibkova,Pro Open,1992,Russia,68.7,115,122.5,-125,122.5,52.5,55,57.5,57.5,120,130,135,135,,315,75,F,Надежда Шибкова,SBD
Wraps,No,1,Anastasiya Ostapenko,Pro Teen 16-17,1998,Russia,75.8,95,105,112.5,112.5,65,70,-75,70,120,132.5,-140,132.5,,315,82.5,F,Анастасия Остапенко,SBD
Wraps,No,1,Stepan Zakhozhenko,Pro Teen,2002,Russia,63.9,77.5,82.5,-87.5,82.5,47.5,50,52.5,52.5,90,95,97.5,97.5,,232.5,67.5,M,Степан Захоженко,SBD
Wraps,No,1,Aleksey Kirdyachkin,Pro Teen 14-15,2000,Russia,61.55,85,95,100,100,60,65,-70,65,105,115,125,125,,290,67.5,M,Алексей Кирдячкин,SBD
Wraps,No,2,Aleksandr Gusev,Pro Teen 14-15,2000,Russia,66.15,-90,90,-110,90,50,-60,60,60,100,115,-142.5,115,,265,67.5,M,Александр Гусев,SBD
Wraps,No,1,Evgeniy Tolmachev,Pro Teen 16-17,1998,Russia,66.75,190,-200,-200,190,120,130,-132.5,130,225,-240,-240,225,,545,67.5,M,Евгений Толмачев,SBD
Wraps,No,2,Andrey Dostovalov,Pro Teen 18-19,1997,Russia,65.55,-105,105,120,120,60,-72.5,-72.5,60,155,175,185,185,,365,67.5,M,Андрей Достовалов,SBD
Wraps,No,1,Aleksandr Paramzin,Pro Teen 18-19,1997,Russia,74.4,-175,175,-190,175,105,115,125,125,185,195,-205,195,,495,75,M,Александр Парамзин,SBD
Wraps,No,2,Roman Bishler,Pro Teen 18-19,1997,Russia,73.25,-135,140,-147.5,140,85,92.5,97.5,97.5,160,172.5,180,180,,417.5,75,M,Роман Бишлер,SBD
Wraps,No,DQ,Anton Dubasov,Pro Open,1989,Russia,73.6,,,,,,,,,190,-200,202.5,202.5,,,75,M,Антон Дубасов,SBD
Wraps,No,DQ,Yuriy Zhukov,Pro Open,1991,Russia,71.6,157.5,167.5,-182.5,167.5,120,125,-130,125,190,205,210,210,,,75,M,Юрий Жуков,SBD
Wraps,No,1,Roman Fiskov,Pro Teen 16-17,1998,Russia,80.6,-210,210,-215,210,100,105,107.5,107.5,210,225,-240,225,,542.5,82.5,M,Роман Фисков,SBD
Wraps,No,2,Evgeniy Raspopin,Pro Teen 16-17,1998,Russia,81.15,150,160,-165,160,105,110,112.5,112.5,180,195,205,205,,477.5,82.5,M,Евгений Распопин,SBD
Wraps,No,1,Pavel Mitrakov,Pro Juniors 20-23,1994,Russia,80.8,175,-190,202.5,202.5,105,115,-122.5,115,210,225,-240,225,,542.5,82.5,M,Павел Митраков,SBD
Wraps,No,1,Denis Kochmarev,Pro Open,1981,Russia,82.3,190,202.5,-210,202.5,135,145,150,150,230,-242.5,-242.5,230,,582.5,82.5,M,Денис Кочмарев,SBD
Wraps,No,1,Georgiy Peshin,Pro Teen 16-17,1998,Russia,84.8,145,150,157.5,157.5,90,95,100,100,165,175,185,185,,442.5,90,M,Георгий Пешин,SBD
Wraps,No,1,Nikolay Shestakov,Pro Juniors 20-23,1996,Russia,89.6,230,-240,-240,230,140,150,160,160,240,255,270,270,,660,90,M,Николай Шестаков,SBD
Wraps,No,2,Dmitriy Naumenko,Pro Juniors 20-23,1995,Russia,89.3,-220,220,-230,220,135,-142.5,145,145,230,240,,240,,605,90,M,Дмитрий Науменко,SBD
Wraps,No,1,Vyacheslav Alekseev,Pro Open,1990,Russia,90,285,305,312.5,312.5,150,160,-165,160,290,305,317.5,317.5,,790,90,M,Вячеслав Алексеев,SBD
Wraps,No,2,Nikolay Shestakov,Pro Open,1996,Russia,89.6,230,-240,-240,230,140,150,160,160,240,255,270,270,,660,90,M,Николай Шестаков,SBD
Wraps,No,3,Valentin Vasilchenko,Pro Open,1988,Russia,88.9,220,230,235,235,145,150,-155,150,260,-270,-275,260,,645,90,M,Валентин Васильченко,SBD
Wraps,No,4,Ignat Salnikov,Pro Open,1991,Russia,89.45,190,200,215,215,140,147.5,152.5,152.5,230,240,-250,240,,607.5,90,M,Игнат Сальников,SBD
Wraps,No,5,Sergey Bogachuk,Pro Open,1989,Russia,89.45,185,192.5,-197.5,192.5,125,-135,135,135,-215,235,-255,235,,562.5,90,M,Сергей Богачук,SBD
Wraps,No,DQ,Aleksey Pantyukhov,Pro Open,1989,Russia,90,190,200,210,210,-140,-145,-145,,-230,,,,,,90,M,Алексей Пантюхов,SBD
Wraps,No,1,Aleksey Zavorin,Pro Masters 40-44,1975,Russia,88.05,180,190,202.5,202.5,155,-165,167.5,167.5,240,255,260,260,,630,90,M,Алексей Заворин,SBD
Wraps,No,1,Norik Badeyan,Pro Teen 16-17,1999,Russia,98.65,180,192.5,200,200,-105,105,117.5,117.5,180,200,-212.5,200,,517.5,100,M,Норик Бадеян,SBD
Wraps,No,1,Nikita Ushkalenko,Pro Juniors 20-23,1996,Russia,98.85,-220,220,230,230,150,157.5,160,160,220,230,240,240,,630,100,M,Никита Ушкаленко,SBD
Wraps,No,2,Kirill Yakovlev,Pro Juniors 20-23,1995,Russia,99.35,190,200,210,210,130,135,-140,135,210,220,227.5,227.5,,572.5,100,M,Кирилл Яковлев,SBD
Wraps,No,3,Dmitriy Podchasov,Pro Juniors 20-23,1994,Russia,100,175,185,-190,185,110,117.5,120,120,200,210,215,215,,520,100,M,Дмитрий Подчасов,SBD
Wraps,No,1,Kirill Kuznetsov,Pro Open,1991,Russia,99.95,230,245,-260,245,190,200,-205,200,240,250,-255,250,,695,100,M,Кирилл Кузнецов,SBD
Wraps,No,2,Ivan Nikitin,Pro Open,1988,Russia,97.05,220,-235,235,235,160,170,175,175,260,275,-280,275,,685,100,M,Иван Никитин,SBD
Wraps,No,1,Oleg Efremov-Otchenash,Pro Masters 45-49,1969,Russia,96.35,190,200,-205,200,125,132.5,-135,132.5,190,205,215,215,,547.5,100,M,Олег Ефремов-Отченаш,SBD
Wraps,No,1,Vladimir Panuev,Pro Masters 50-54,1962,Russia,98.35,180,190,,190,130,135,,135,180,200,,200,,525,100,M,Владимир Пануев,SBD
Wraps,No,1,Aleksandr Kurmashov,Pro Juniors 20-23,1993,Russia,109.7,250,270,-282.5,270,180,190,200,200,280,300,-310,300,,770,110,M,Александр Курмашов,SBD
Wraps,No,2,Aleksandr Klemeshov,Pro Juniors 20-23,1995,Russia,106.55,225,237.5,-250,237.5,160,-167.5,-167.5,160,245,260,270,270,,667.5,110,M,Александр Клемешов,SBD
Wraps,No,1,Aleksandr Kurmashov,Pro Open,1993,Russia,109.7,250,270,-282.5,270,180,190,200,200,280,300,-310,300,,770,110,M,Александр Курмашов,SBD
Wraps,No,2,Anton Katsyuk,Pro Open,1989,Russia,106.05,180,200,-212.5,200,140,150,-160,150,225,245,-250,245,,595,110,M,Антон Кацюк,SBD
Wraps,No,1,Egor Shilov,Pro Teen 18-19,1996,Russia,123.05,270,280,290,290,147.5,-155,-155,147.5,287.5,-307.5,-307.5,287.5,,725,125,M,Егор Шилов,SBD
Wraps,No,1,Sergey Semakin,Pro Open,1978,Russia,118.3,280,-300,,280,180,190,-197.5,190,300,-330,330,330,,800,125,M,Сергей Семакин,SBD
Wraps,No,2,Egor Shilov,Pro Open,1996,Russia,123.05,270,280,290,290,147.5,-155,-155,147.5,287.5,-307.5,-307.5,287.5,,725,125,M,Егор Шилов,SBD
Wraps,No,3,Sergey Fefler,Pro Open,1977,Russia,116,-155,155,165,165,95,100,105,105,175,185,195,195,,465,125,M,Сергей Фефлер,SBD
Wraps,No,1,Nikita Shafikov,Pro Juniors 20-23,1993,Russia,129.05,220,230,240,240,130,140,150,150,-320,320,-340,320,,710,140,M,Никита Шафиков,SBD
Multi-ply,No,1,Aleksandr Fedorov,Pro Juniors 20-23,1994,Russia,70.9,200,220,-230,220,130,140,-145,140,190,-205,-210,190,,550,75,M,Александр Федоров,SBD
Multi-ply,No,1,Aleksandr Fedorov,Pro Open,1994,Russia,70.9,200,220,-230,220,130,140,-145,140,190,-205,-210,190,,550,75,M,Александр Федоров,SBD
Multi-ply,No,1,Dmitriy Goryachkin,Pro Open,1990,Russia,86.3,225,240,250,250,140,150,-155,150,-230,240,-260,240,,640,90,M,Дмитрий Горячкин,SBD
Multi-ply,No,1,Yuriy Karpov,Pro Open,1986,Russia,100,-350,-350,350,350,270,285,-292.5,285,360,385,,385,,1020,100,M,Юрий Карпов,SBD
Multi-ply,No,DQ,Enver Niyaziyev,Pro Open,1989,Russia,98.7,-340,-340,-340,,,,,,250,270,-280,270,,,100,M,Энвер Ниязиев,SBD
Multi-ply,No,1,Ivan Vasyunin,Pro Open,1983,Russia,101.55,370,380,-390,380,-300,300,-307.5,300,320,345,-350,345,,1025,110,M,Иван Васюнин,SBD
Wraps,Yes,1,Georgiy Rostovtsev,Amateur Teen 16-17,1998,Russia,66.8,167.5,-175,175,175,,,,,,,,,,175,67.5,M,Георгий Ростовцев,S
Wraps,Yes,1,Evgeniy Svoboda,Amateur Masters 40-44,1972,Russia,90,150,-170,170,170,,,,,,,,,,170,90,M,Евгений Свобода,S
Wraps,Yes,1,Dmitriy Malakhovskiy,Amateur Open,1981,Russia,91.5,160,175,190,190,,,,,,,,,,190,100,M,Дмитрий Малаховский,S
Wraps,Yes,1,Sergey Kozlov,Amateur Open,1975,Russia,108.7,180,-210,,180,,,,,,,,,,180,110,M,Сергей Козлов,S
Multi-ply,Yes,1,Polina Goryachkina,Amateur Juniors 20-23,1996,Russia,52,-100,-100,100,100,,,,,,,,,,100,52,F,Полина Горячкина,S
Multi-ply,Yes,1,Polina Goryachkina,Amateur Open,1996,Russia,52,-100,-100,100,100,,,,,,,,,,100,52,F,Полина Горячкина,S
Multi-ply,Yes,1,Aleksandra Ezhova,Amateur Juniors 20-23,1996,Russia,57.65,-100,100,110,110,,,,,,,,,,110,60,F,Александра Ежова,S
Multi-ply,Yes,1,Aleksandra Ezhova,Amateur Open,1996,Russia,57.65,-100,100,110,110,,,,,,,,,,110,60,F,Александра Ежова,S
Multi-ply,Yes,1,Evgeniy Svoboda,Amateur Open,1972,Russia,90,225,245,-272.5,245,,,,,,,,,,245,90,M,Евгений Свобода,S
Multi-ply,Yes,1,Evgeniy Svoboda,Amateur Masters 40-44,1972,Russia,90,225,245,-272.5,245,,,,,,,,,,245,90,M,Евгений Свобода,S
Raw,No,1,Andrey Belov,Pro Open,1990,Russia,105.5,-150,150,165,165,,,,,,,,,,165,110,M,Андрей Белов,S
Multi-ply,No,1,Aleksandr Fedorov,Pro Juniors 20-23,1994,Russia,70.9,200,220,-230,220,,,,,,,,,,220,75,M,Александр Федоров,S
Multi-ply,No,1,Aleksandr Fedorov,Pro Open,1994,Russia,70.9,200,220,-230,220,,,,,,,,,,220,75,M,Александр Федоров,S
Multi-ply,No,1,Dmitriy Goryachkin,Pro Open,1990,Russia,86.3,225,240,250,250,,,,,,,,,,250,90,M,Дмитрий Горячкин,S
Multi-ply,No,DQ,Enver Niyaziyev,Pro Open,1989,Russia,98.7,-340,-340,-340,,,,,,,,,,,,100,M,Энвер Ниязиев,S
Raw,Yes,1,Karina Kuzminykh,Amateur Juniors 20-23,1995,Russia,41.75,,,,,35,-40,-40,35,,,,,,35,44,F,Карина Кузьминых,B
Raw,Yes,1,Mariya Okhramenko,Amateur Open,1990,Russia,44,,,,,42.5,-47.5,-47.5,42.5,,,,,,42.5,44,F,Мария Охраменко,B
Raw,Yes,1,Olga Sitkova,Amateur Juniors 20-23,1994,Russia,47.14,,,,,45,-50,-55,45,,,,,,45,48,F,Ольга Ситкова,B
Raw,Yes,DQ,Anastasiya Krasnoyarova,Amateur Open,1984,Russia,48,,,,,-55,-55,-55,,,,,,,,48,F,Анастасия Красноярова,B
Raw,Yes,1,Nonna Starostina,Amateur Masters 45-49,1969,Russia,47.78,,,,,40,45,-50,45,,,,,,45,48,F,Нонна Старостина,B
Raw,Yes,1,Lyubov Kirichenko,Amateur Teen 14-15,2000,Russia,55.55,,,,,40,-45,50,50,,,,,,50,56,F,Любовь Кириченко,B
Raw,Yes,1,Alina Ogorodnikova,Amateur Teen 18-19,1997,Russia,55.2,,,,,60,-67.5,-67.5,60,,,,,,60,56,F,Алина Огородникова,B
Raw,Yes,1,Anastasiya Popova,Amateur Juniors 20-23,1995,Russia,52.7,,,,,60,62.5,-72.5,62.5,,,,,,62.5,56,F,Анастасия Попова,B
Raw,Yes,2,Zhanna Maretskaya,Amateur Juniors 20-23,1992,Russia,55.4,,,,,50,-55,57.5,57.5,,,,,,57.5,56,F,Жанна Марецкая,B
Raw,Yes,1,Alina Ogorodnikova,Amateur Open,1997,Russia,55.2,,,,,60,-67.5,-67.5,60,,,,,,60,56,F,Алина Огородникова,B
Raw,Yes,1,Kseniya Khlopotova,Amateur Open,1987,Russia,66.75,,,,,50,65,75,75,,,,,,75,67.5,F,Ксения Хлопотова,B
Raw,Yes,1,Irina Panina,Amateur Open,1977,Russia,73.55,,,,,65,70,77.5,77.5,,,,,,77.5,75,F,Ирина Панина,B
Raw,Yes,1,Anastasiya Osipova,Amateur Open,1981,Russia,80,,,,,-67.5,72.5,-75,72.5,,,,,,72.5,82.5,F,Анастасия Осипова,B
Raw,Yes,1,Sergey Kungurtsev,Amateur Teen,2002,Russia,51.62,,,,,-77.5,77.5,82.5,82.5,,,,,,82.5,52,M,Сергей Кунгурцев,B
Raw,Yes,1,Dmitriy Fedorov,Amateur Teen 14-15,2001,Russia,54.1,,,,,47.5,52.5,55,55,,,,,,55,56,M,Дмитрий Федоров,B
Raw,Yes,1,Vadim Okul,Amateur Teen 18-19,1997,Russia,59,,,,,107.5,115,117.5,117.5,,,,,,117.5,60,M,Вадим Окул,B
Raw,Yes,1,Anton Budko,Amateur Juniors 20-23,1993,Russia,58,,,,,85,90,-95,90,,,,,,90,60,M,Антон Будко,B
Raw,Yes,1,Aleksey Chumakov,Amateur Teen 18-19,1997,Russia,67.05,,,,,127.5,135,-145,135,,,,,,135,67.5,M,Алексей Чумаков,B
Raw,Yes,1,Denis Ageev,Amateur Juniors 20-23,1994,Russia,64.25,,,,,120,-127.5,-127.5,120,,,,,,120,67.5,M,Денис Агеев,B
Raw,Yes,1,Anton Ivarinen,Amateur Open,1987,Russia,65.9,,,,,110,-120,-120,110,,,,,,110,67.5,M,Антон Иваринен,B
Raw,Yes,2,Nikolay Aleksandrov,Amateur Open,1991,Russia,63.1,,,,,97.5,105,-110,105,,,,,,105,67.5,M,Николай Александров,B
Raw,Yes,1,Semen Dyakonov,Amateur Teen 14-15,2001,Russia,74.75,,,,,-80,90,-100,90,,,,,,90,75,M,Семен Дьяконов,B
Raw,Yes,2,Grigoriy Bubnov,Amateur Teen 14-15,2002,Russia,67.85,,,,,72.5,-80,-85,72.5,,,,,,72.5,75,M,Григорий Бубнов,B
Raw,Yes,3,Anton Misarov,Amateur Teen 16-17,1999,Russia,69.55,,,,,60,65,-75,65,,,,,,65,75,M,Антон Мисаров,B
Raw,Yes,1,Aleksandr Ivanov,Amateur Teen 18-19,1996,Russia,74.2,,,,,-110,110,-117.5,110,,,,,,110,75,M,Александр Иванов,B
Raw,Yes,DQ,Dmitriy Komarov,Amateur Teen 18-19,1996,Russia,74.45,,,,,-150,,,,,,,,,,75,M,Дмитрий Комаров,B
Raw,Yes,1,Roman Korotkikh,Amateur Juniors 20-23,1994,Russia,73.15,,,,,140,145,150,150,,,,,,150,75,M,Роман Коротких,B
Raw,Yes,2,Stanislav Kornienko,Amateur Juniors 20-23,1993,Russia,73.5,,,,,130,-137.5,137.5,137.5,,,,,,137.5,75,M,Станислав Корниенко,B
Raw,Yes,3,Ismail Dzhumaev,Amateur Juniors 20-23,1996,Russia,71.5,,,,,112.5,-122.5,122.5,122.5,,,,,,122.5,75,M,Исмаил Джумаев,B
Raw,Yes,1,Sergey Tsarev,Amateur Open,1986,Russia,73.65,,,,,157.5,-165,-165,157.5,,,,,,157.5,75,M,Сергей Царев,B
Raw,Yes,2,Vladimir Ovcharov,Amateur Open,1972,Russia,74.3,,,,,140,-150,-150,140,,,,,,140,75,M,Владимир Овчаров,B
Raw,Yes,3,Roman Buyanov,Amateur Open,1987,Russia,71.25,,,,,115,120,125,125,,,,,,125,75,M,Роман Буянов,B
Raw,Yes,4,Svyatoslav Slobodyanyuk,Amateur Open,1991,Russia,73.5,,,,,80,90,92.5,92.5,,,,,,92.5,75,M,Святослав Слободянюк,B
Raw,Yes,DQ,Evgeniy Derbenev,Amateur Open,1990,Russia,72.95,,,,,-130,-130,-130,,,,,,,,75,M,Евгений Дербенев,B
Raw,Yes,DQ,Viktor Nadolskiy,Amateur Open,1980,Russia,74.05,,,,,-140,-140,-142.5,,,,,,,,75,M,Виктор Надольский,B
Raw,Yes,DQ,Dmitriy Komarov,Amateur Open,1996,Russia,74.45,,,,,-150,,,,,,,,,,75,M,Дмитрий Комаров,B
Raw,Yes,1,Vladimir Ovcharov,Amateur Masters 40-44,1972,Russia,74.3,,,,,140,-150,-150,140,,,,,,140,75,M,Владимир Овчаров,B
Raw,Yes,1,Aleksey Boroday,Amateur Juniors 20-23,1992,Russia,79.55,,,,,142.5,-147.5,-147.5,142.5,,,,,,142.5,82.5,M,Алексей Бородай,B
Raw,Yes,2,Matvey Mishulin,Amateur Juniors 20-23,1995,Russia,81.3,,,,,-135,135,140,140,,,,,,140,82.5,M,Матвей Мишулин,B
Raw,Yes,1,Ilya Kazyura,Amateur Open,1985,Russia,81.5,,,,,-140,160,170,170,,,,,,170,82.5,M,Илья Казюра,B
Raw,Yes,2,Yuriy Nogay,Amateur Open,1983,Russia,80.65,,,,,150,157.5,165,165,,,,,,165,82.5,M,Юрий Ногай,B
Raw,Yes,3,Andrey Okushko,Amateur Open,1983,Russia,81.05,,,,,157.5,165,-170,165,,,,,,165,82.5,M,Андрей Окушко,B
Raw,Yes,4,Aleksandr Fedorov,Amateur Open,1994,Russia,82.2,,,,,-147.5,-147.5,147.5,147.5,,,,,,147.5,82.5,M,Александр Федоров,B
Raw,Yes,5,Aleksey Usmanov,Amateur Open,1973,Russia,80.3,,,,,132.5,137.5,142.5,142.5,,,,,,142.5,82.5,M,Алексей Усманов,B
Raw,Yes,6,Yuriy Kukhterin #2,Amateur Open,1990,Russia,79.7,,,,,135,-140,-140,135,,,,,,135,82.5,M,Юрий Кухтерин,B
Raw,Yes,1,Aleksey Usmanov,Amateur Masters 40-44,1973,Russia,80.3,,,,,132.5,137.5,142.5,142.5,,,,,,142.5,82.5,M,Алексей Усманов,B
Raw,Yes,2,Vsevolod Sandomirskiy,Amateur Masters 45-49,1969,Russia,81.1,,,,,135,142.5,-147.5,142.5,,,,,,142.5,82.5,M,Всеволод Сандомирский,B
Raw,Yes,3,Maksim Mikhaelis,Amateur Masters 40-44,1974,Russia,82.5,,,,,-125,125,-130,125,,,,,,125,82.5,M,Максим Михаэлис,B
Raw,Yes,1,Stanislav Simanovich,Amateur Teen 14-15,2001,Russia,89.2,,,,,50,-60,70,70,,,,,,70,90,M,Станислав Симанович,B
Raw,Yes,1,Yaroslav Korobkov,Amateur Teen 18-19,1997,Russia,88.05,,,,,120,125,-135,125,,,,,,125,90,M,Ярослав Коробков,B
Raw,Yes,1,Mark Morev,Amateur Juniors 20-23,1994,Russia,89.6,,,,,125,135,140,140,,,,,,140,90,M,Марк Морев,B
Raw,Yes,2,Yuriy Zhukov,Amateur Open,1991,Russia,87.55,,,,,130,-135,135,135,,,,,,135,90,M,Юрий Жуков,B
Raw,Yes,3,Ivan Rubanov,Amateur Juniors 20-23,1995,Russia,87.3,,,,,130,-135,-135,130,,,,,,130,90,M,Иван Рубанов,B
Raw,Yes,1,Nikolay Berezovskiy,Amateur Open,1987,Russia,88.65,,,,,190,200,205,205,,,,,,205,90,M,Николай Березовский,B
Raw,Yes,2,Yuriy Rubanov,Amateur Open,1967,Russia,88.8,,,,,175,185,187.5,187.5,,,,,,187.5,90,M,Юрий Рубанов,B
Raw,Yes,3,Andrey Chalyy,Amateur Open,1988,Russia,86.55,,,,,175,182.5,-185,182.5,,,,,,182.5,90,M,Андрей Чалый,B
Raw,Yes,4,Artem Gomolko,Amateur Open,1987,Russia,89.5,,,,,160,165,170,170,,,,,,170,90,M,Артем Гомолко,B
Raw,Yes,5,Stanislav Zolotukhin,Amateur Open,1986,Russia,90,,,,,145,155,160,160,,,,,,160,90,M,Станислав Золотухин,B
Raw,Yes,6,Ivan Frolov,Amateur Open,1988,Russia,89.05,,,,,145,152.5,-157.5,152.5,,,,,,152.5,90,M,Иван Фролов,B
Raw,Yes,7,Danila Omelchenko,Amateur Open,1980,Russia,89.05,,,,,-130,-135,135,135,,,,,,135,90,M,Данила Омельченко,B
Raw,Yes,8,Vadim Babushkin,Amateur Open,1988,Russia,85.65,,,,,110,-115,,110,,,,,,110,90,M,Вадим Бабушкин,B
Raw,Yes,DQ,Arman Megrabyan,Amateur Open,1977,Russia,87.45,,,,,-180,-185,-185,,,,,,,,90,M,Арман Меграбян,B
Raw,Yes,1,Yuriy Rubanov,Amateur Masters 45-49,1967,Russia,88.8,,,,,175,185,187.5,187.5,,,,,,187.5,90,M,Юрий Рубанов,B
Raw,Yes,2,Evgeniy Svoboda,Amateur Masters 40-44,1972,Russia,89.2,,,,,130,137.5,,137.5,,,,,,137.5,90,M,Евгений Свобода,B
Raw,Yes,1,Vladimir Chumakov,Amateur Masters 50-54,1964,Russia,89.25,,,,,130,140,142.5,142.5,,,,,,142.5,90,M,Владимир Чумаков,B
Raw,Yes,1,Aleksadr Razmakhnin,Amateur Masters 60-64,1951,Russia,87.8,,,,,115,125,130,130,,,,,,130,90,M,Алексадр Размахнин,B
Raw,Yes,2,Anatoliy Pavlenko,Amateur Masters 60-64,1951,Russia,89.45,,,,,112.5,117.5,-120,117.5,,,,,,117.5,90,M,Анатолий Павленко,B
Raw,Yes,DQ,Maksim Nikolaev,Amateur Teen 16-17,1999,Russia,94.45,,,,,-115,-115,-115,,,,,,,,100,M,Максим Николаев,B
Raw,Yes,1,Ilya Kharlamov,Amateur Juniors 20-23,1993,Russia,99.85,,,,,162.5,167.5,172.5,172.5,,,,,,172.5,100,M,Илья Харламов,B
Raw,Yes,2,Dmitriy Galkin,Amateur Juniors 20-23,1994,Russia,96.9,,,,,142.5,-147.5,,142.5,,,,,,142.5,100,M,Дмитрий Галкин,B
Raw,Yes,1,Sergey Nikolaev,Amateur Open,1971,Russia,98.1,,,,,-200,200,-207.5,200,,,,,,200,100,M,Сергей Николаев,B
Raw,Yes,2,Mikhail Kiselev,Amateur Open,1976,Russia,98.2,,,,,170,175,182.5,182.5,,,,,,182.5,100,M,Михаил Киселев,B
Raw,Yes,3,Andrey Fufaev,Amateur Open,1984,Russia,97.8,,,,,170,180,-187.5,180,,,,,,180,100,M,Андрей Фуфаев,B
Raw,Yes,4,Aleksandr Desyatov,Amateur Open,1972,Russia,98.05,,,,,162.5,170,180,180,,,,,,180,100,M,Александр Десятов,B
Raw,Yes,5,Igor Alimov,Amateur Open,1978,Russia,96.5,,,,,150,162.5,170,170,,,,,,170,100,M,Игорь Алимов,B
Raw,Yes,6,Danil Krey,Amateur Open,1985,Russia,97.15,,,,,137.5,-142.5,142.5,142.5,,,,,,142.5,100,M,Данил Крей,B
Raw,Yes,7,Mikhail Ryashentsev,Amateur Open,1982,Russia,99.2,,,,,132.5,-142.5,-142.5,132.5,,,,,,132.5,100,M,Михаил Ряшенцев,B
Raw,Yes,8,Petr Tunyak,Amateur Open,1983,Russia,99.2,,,,,120,125,-130,125,,,,,,125,100,M,Петр Туняк,B
Raw,Yes,1,Sergey Nikolaev,Amateur Masters 40-44,1971,Russia,98.1,,,,,-200,200,-207.5,200,,,,,,200,100,M,Сергей Николаев,B
Raw,Yes,2,Aleksandr Desyatov,Amateur Masters 40-44,1972,Russia,98.05,,,,,162.5,170,180,180,,,,,,180,100,M,Александр Десятов,B
Raw,Yes,3,Vasiliy Mandzyuk,Amateur Masters 40-44,1971,Russia,98.55,,,,,150,155,157.5,157.5,,,,,,157.5,100,M,Василий Мандзюк,B
Raw,Yes,4,Dmitriy Bykov,Amateur Masters 40-44,1972,Russia,96.35,,,,,140,150,155,155,,,,,,155,100,M,Дмитрий Быков,B
Raw,Yes,5,Evgeniy Korotkov,Amateur Masters 40-44,1971,Russia,99.1,,,,,-142.5,150,155,155,,,,,,155,100,M,Евгений Коротков,B
Raw,Yes,1,Vyacheslav Nikolaev,Amateur Masters 55-59,1956,Russia,98.45,,,,,140,145,-150,145,,,,,,145,100,M,Вячеслав Николаев,B
Raw,Yes,1,Maksim Shnyrov,Amateur Teen 16-17,1998,Russia,101.7,,,,,85,90,-95,90,,,,,,90,110,M,Максим Шныров,B
Raw,Yes,1,Vadim Smirnov,Amateur Open,1982,Russia,104.35,,,,,200,205,-212.5,205,,,,,,205,110,M,Вадим Смирнов,B
Raw,Yes,2,Andrey Bashkov,Amateur Open,1981,Russia,109.05,,,,,-200,200,-215,200,,,,,,200,110,M,Андрей Башков,B
Raw,Yes,3,Ruslan Ziganshin,Amateur Open,1978,Russia,108.3,,,,,187.5,-195,-195,187.5,,,,,,187.5,110,M,Руслан Зиганшин,B
Raw,Yes,4,Leonid Shevelkov,Amateur Open,1987,Russia,108.2,,,,,175,180,-187.5,180,,,,,,180,110,M,Леонид Шевельков,B
Raw,Yes,5,Sergey Fayler,Amateur Open,1984,Russia,108.2,,,,,160,167.5,175,175,,,,,,175,110,M,Сергей Файлер,B
Raw,Yes,6,Aleksey Dovbnya,Amateur Open,1983,Russia,107.9,,,,,165,170,-175,170,,,,,,170,110,M,Алексей Довбня,B
Raw,Yes,7,Sergey Babin,Amateur Open,1981,Russia,108.3,,,,,162.5,167.5,-172.5,167.5,,,,,,167.5,110,M,Сергей Бабин,B
Raw,Yes,8,Dmitriy Tipsin,Amateur Open,1991,Russia,106,,,,,130,140,-147.5,140,,,,,,140,110,M,Дмитрий Типсин,B
Raw,Yes,DQ,Aleksandr Semenov,Amateur Open,1981,Russia,107,,,,,-152.5,-152.5,-152.5,,,,,,,,110,M,Александр Семенов,B
Raw,Yes,1,Aleksandr Gryaznov,Amateur Masters 40-44,1975,Russia,107.1,,,,,150,157.5,162.5,162.5,,,,,,162.5,110,M,Александр Грязнов,B
Raw,Yes,2,Dmitriy Melkov,Amateur Masters 40-44,1971,Russia,109,,,,,155,-160,-160,155,,,,,,155,110,M,Дмитрий Мельков,B
Raw,Yes,1,Igor Karapuzov,Amateur Masters 50-54,1962,Russia,104.5,,,,,155,165,-170,165,,,,,,165,110,M,Игорь Карапузов,B
Raw,Yes,2,Evgeniy Rusakov,Amateur Masters 55-59,1959,Russia,109,,,,,120,130,-137.5,130,,,,,,130,110,M,Евгений Русаков,B
Raw,Yes,DQ,Aleksandr Serdyukov,Amateur Juniors 20-23,1994,Russia,113.45,,,,,-185,-190,-190,,,,,,,,125,M,Александр Сердюков,B
Raw,Yes,1,Anton Timofeev,Amateur Open,1981,Russia,113.15,,,,,-157.5,157.5,167.5,167.5,,,,,,167.5,125,M,Антон Тимофеев,B
Raw,Yes,1,Vladimir Simonenko,Amateur Masters 55-59,1960,Russia,121.95,,,,,125,140,150,150,,,,,,150,125,M,Владимир Симоненко,B
Raw,Yes,1,Roman Nikishin,Amateur Open,1982,Russia,128.2,,,,,180,190,-197.5,190,,,,,,190,140,M,Роман Никишин,B
Raw,Yes,1,Suleyman Musaev,Amateur Masters 40-44,1973,Russia,126.5,,,,,170,175,-177.5,175,,,,,,175,140,M,Сулейман Мусаев,B
Raw,Yes,2,Sergey Kurakov,Amateur Masters 40-44,1971,Russia,133.45,,,,,155,165,170,170,,,,,,170,140,M,Сергей Кураков,B
Raw,Yes,1,Sergey Stukalov,Amateur Masters 50-54,1962,Russia,132.9,,,,,155,162.5,167.5,167.5,,,,,,167.5,140,M,Сергей Стукалов,B
Multi-ply,Yes,1,Valeriya Orteelek,Amateur Juniors 20-23,1996,Russia,51.8,,,,,62.5,67.5,72.5,72.5,,,,,,72.5,52,F,Валерия Ортээлек,B
Multi-ply,Yes,1,Andrey Kolbin,Amateur Open,1984,Russia,66.25,,,,,-125,125,-140,125,,,,,,125,67.5,M,Андрей Колбин,B
Multi-ply,Yes,1,Danil Lamanov,Amateur Open,1987,Russia,74.5,,,,,200,215,220,220,,,,,,220,75,M,Данил Ламанов,B
Multi-ply,Yes,2,Grigoriy Timchenko,Amateur Open,1988,Russia,74.4,,,,,160,170,-180,170,,,,,,170,75,M,Григорий Тимченко,B
Multi-ply,Yes,1,Kirill Zaburnyagin,Amateur Juniors 20-23,1995,Russia,81.3,,,,,140,-150,150,150,,,,,,150,82.5,M,Кирилл Забурнягин,B
Multi-ply,Yes,1,Dmitriy Kondaurov,Amateur Open,1989,Russia,81.25,,,,,-195,195,-205,195,,,,,,195,82.5,M,Дмитрий Кондауров,B
Multi-ply,Yes,2,Nutsu Shiman,Amateur Open,1982,Russia,82,,,,,185,-195,-195,185,,,,,,185,82.5,M,Нуцу Шиман,B
Multi-ply,Yes,DQ,Artem Bykhovets,Amateur Open,1983,Russia,82.2,,,,,-232.5,-232.5,-235,,,,,,,,82.5,M,Артем Быховец,B
Multi-ply,Yes,1,Evgeniy Svoboda,Amateur Open,1972,Russia,89.2,,,,,160,170,-180,170,,,,,,170,90,M,Евгений Свобода,B
Multi-ply,Yes,2,Denis Eliseev,Amateur Open,1981,Russia,89.9,,,,,170,-180,-182.5,170,,,,,,170,90,M,Денис Елисеев,B
Multi-ply,Yes,1,Evgeniy Svoboda,Amateur Masters 40-44,1972,Russia,89.2,,,,,160,170,-180,170,,,,,,170,90,M,Евгений Свобода,B
Multi-ply,Yes,1,Evgeniy Medeltsov,Amateur Open,1986,Russia,99.6,,,,,220,230,240,240,,,,,,240,100,M,Евгений Медельцов,B
Multi-ply,Yes,2,Yuriy Mikhaylov,Amateur Open,1987,Russia,96.2,,,,,200,,,200,,,,,,200,100,M,Юрий Михайлов,B
Multi-ply,Yes,1,Vasiliy Mandzyuk,Amateur Masters 40-44,1971,Russia,98.55,,,,,175,-182.5,-190,175,,,,,,175,100,M,Василий Мандзюк,B
Multi-ply,Yes,2,Evgeniy Yudin,Amateur Masters 45-49,1970,Russia,97.55,,,,,120,130,-155,130,,,,,,130,100,M,Евгений Юдин,B
Multi-ply,Yes,1,Dmitriy Dymov,Amateur Open,1984,Russia,107.8,,,,,200,-212.5,215,215,,,,,,215,110,M,Дмитрий Дымов,B
Raw,No,1,Evgeniya Yadrina,Pro Open,1987,Russia,53.48,,,,,35,40,45,45,,,,,,45,56,F,Евгения Ядрина,B
Raw,No,1,Evgeniya Ovsyannikova,Pro Teen 18-19,1997,Russia,78.35,,,,,55,57.5,-60,57.5,,,,,,57.5,82.5,F,Евгения Овсянникова,B
Raw,No,1,Stanislav Sheyko,Pro Open,1989,Russia,60,,,,,55,62.5,-70,62.5,,,,,,62.5,60,M,Станислав Шейко,B
Raw,No,1,Vladislav Bykov,Pro Juniors 20-23,1994,Russia,64.75,,,,,45,50,55,55,,,,,,55,67.5,M,Владислав Быков,B
Raw,No,1,Konstantin Karpov,Pro Open,1988,Russia,66.2,,,,,-45,45,47.5,47.5,,,,,,47.5,67.5,M,Константин Карпов,B
Raw,No,1,Yuriy Vikhorev,Pro Masters 65-69,1950,Russia,66.95,,,,,90,95,-97.5,95,,,,,,95,67.5,M,Юрий Вихорев,B
Raw,No,1,Andrey Solodkin,Pro Open,1989,Russia,69.65,,,,,90,95,100,100,,,,,,100,75,M,Андрей Солодкин,B
Raw,No,1,Sergey Grigoryev,Pro Masters 60-64,1954,Russia,72.5,,,,,90,100,105,105,,,,,,105,75,M,Сергей Григорьев,B
Raw,No,1,Egor Kazakov,Pro Teen 16-17,1999,Russia,78.8,,,,,-40,45,50,50,,,,,,50,82.5,M,Егор Казаков,B
Raw,No,1,Nikolay Vishnyakov,Pro Open,1988,Russia,82,,,,,152.5,162.5,165,165,,,,,,165,82.5,M,Николай Вишняков,B
Raw,No,2,Evgeniy Ponkratov,Pro Open,1988,Russia,79.9,,,,,120,127.5,135,135,,,,,,135,82.5,M,Евгений Понкратов,B
Raw,No,3,Mikhail Nalivanskiy,Pro Open,1990,Russia,78.6,,,,,110,-112.5,-112.5,110,,,,,,110,82.5,M,Михаил Наливанский,B
Raw,No,4,Ilya Anisimov,Pro Open,1986,Russia,78.35,,,,,70,75,-80,75,,,,,,75,82.5,M,Илья Анисимов,B
Raw,No,1,Oleg Chelubeev,Pro Open,1984,Russia,88.2,,,,,85,-100,100,100,,,,,,100,90,M,Олег Челубеев,B
Raw,No,2,Dmitriy Golyshev,Pro Open,1979,Russia,84.4,,,,,80,87.5,92.5,92.5,,,,,,92.5,90,M,Дмитрий Голышев,B
Raw,No,3,Dmitriy Ivanushkin,Pro Open,1988,Russia,88.2,,,,,65,72.5,80,80,,,,,,80,90,M,Дмитрий Иванушкин,B
Raw,No,1,Vladimir Vizgin,Pro Open,1952,Russia,97,,,,,140,147.5,150,150,,,,,,150,100,M,Владимир Визгин,B
Raw,No,2,Maksim Chistyakov,Pro Open,1989,Russia,99.65,,,,,75,80,-85,80,,,,,,80,100,M,Максим Чистяков,B
Raw,No,1,Anton Ponomarev,Pro Open,1992,Russia,121,,,,,185,195,-200,195,,,,,,195,125,M,Антон Пономарев,B
Raw,No,2,Denis Gayduchenya,Pro Open,1980,Russia,116.7,,,,,145,,,145,,,,,,145,125,M,Денис Гайдученя,B
Raw,No,1,Sergey Synkov,Pro Teen 14-15,2001,Russia,55,,,,,80,90,-97.5,90,,,,,,90,56,M,Сергей Сынков,B
Raw,No,1,Anvar Tukhvatulin,Pro Open,1990,Russia,57.87,,,,,112.5,120,-125,120,,,,,,120,60,M,Анвар Тухватулин,B
Raw,No,1,Sergey Nikonov,Pro Open,1986,Russia,73.5,,,,,150,157.5,-165,157.5,,,,,,157.5,75,M,Сергей Никонов,B
Raw,No,2,Pavel Petrov,Pro Open,1978,Russia,71.9,,,,,145,155,-160,155,,,,,,155,75,M,Павел Петров,B
Raw,No,1,Dmitriy Komarov,Pro Teen 18-19,1996,Russia,78.4,,,,,145,155,-160,155,,,,,,155,82.5,M,Дмитрий Комаров,B
Raw,No,2,Aleksandr Kucherenko,Pro Teen 16-17,1999,Russia,80.3,,,,,82.5,95,100,100,,,,,,100,82.5,M,Александр Кучеренко,B
Raw,No,1,Dmitriy Khovanskiy,Pro Open,1986,Russia,80.85,,,,,185,192.5,-195,192.5,,,,,,192.5,82.5,M,Дмитрий Хованский,B
Raw,No,2,Dmitriy Komarov,Pro Open,1996,Russia,78.4,,,,,145,155,-160,155,,,,,,155,82.5,M,Дмитрий Комаров,B
Raw,No,3,Aleksandr Litvinenko,Pro Open,1983,Russia,80.35,,,,,80,90,100,100,,,,,,100,82.5,M,Александр Литвиненко,B
Raw,No,1,Aleksey Korobov,Pro Masters 55-59,1959,Russia,80.9,,,,,-130,140,150,150,,,,,,150,82.5,M,Алексей Коробов,B
Raw,No,2,Sergey Kashtanov,Pro Masters 55-59,1958,Russia,81.85,,,,,130,-135,-135,130,,,,,,130,82.5,M,Сергей Каштанов,B
Raw,No,1,Denis Simakhin,Pro Open,1982,Russia,89.55,,,,,165,177.5,185,185,,,,,,185,90,M,Денис Симахин,B
Raw,No,2,Artem Urodov,Pro Open,1991,Russia,88.65,,,,,130,145,-150,145,,,,,,145,90,M,Артем Уродов,B
Raw,No,1,Aleksandr Zimin,Pro Masters 45-49,1969,Russia,88.45,,,,,155,165,170,170,,,,,,170,90,M,Александр Зимин,B
Raw,No,2,Oleg Khakhulin,Pro Masters 45-49,1967,Russia,84.25,,,,,145,150,-155,150,,,,,,150,90,M,Олег Хахулин,B
Raw,No,1,Konstantin Kovazhenko,Pro Open,1978,Russia,100,,,,,215,225,-230,225,,,,,,225,100,M,Константин Коваженко,B
Raw,No,2,Enver Niyaziyev,Pro Open,1989,Russia,99.95,,,,,185,197.5,205,205,,,,,,205,100,M,Энвер Ниязиев,B
Raw,No,3,Sergey Panin,Pro Open,1975,Russia,99.25,,,,,180,190,-197.5,190,,,,,,190,100,M,Сергей Панин,B
Raw,No,4,Ivan Klimenko,Pro Open,1980,Russia,97.15,,,,,170,180,-190,180,,,,,,180,100,M,Иван Клименко,B
Raw,No,5,Daniil Bazhenov,Pro Open,1990,Russia,98.85,,,,,-160,170,-175,170,,,,,,170,100,M,Даниил Баженов,B
Raw,No,DQ,Kirill Kuznetsov,Pro Open,1991,Russia,99.95,,,,,-195,,,,,,,,,,100,M,Кирилл Кузнецов,B
Raw,No,1,Sergey Panin,Pro Masters 40-44,1975,Russia,99.25,,,,,180,190,-197.5,190,,,,,,190,100,M,Сергей Панин,B
Raw,No,2,Evgeniy Kozlov,Pro Masters 40-44,1975,Russia,92.6,,,,,150,160,-165,160,,,,,,160,100,M,Евгений Козлов,B
Raw,No,1,Nikolay Kuznetsov,Pro Masters 55-59,1960,Russia,96.7,,,,,135,150,-155,150,,,,,,150,100,M,Николай Кузнецов,B
Raw,No,1,Aleksandr Dukhinskiy,Pro Open,1982,Russia,100.65,,,,,195,-202.5,-202.5,195,,,,,,195,110,M,Александр Духинский,B
Raw,No,2,Anton Epikhin,Pro Open,1988,Russia,109.9,,,,,-190,190,-202.5,190,,,,,,190,110,M,Антон Епихин,B
Raw,No,3,Aleksandr Berlo,Pro Open,1975,Kazakhstan,108,,,,,170,-180,187.5,187.5,,,,,,187.5,110,M,,B
Raw,No,1,Aleksandr Berlo,Pro Masters 40-44,1975,Kazakhstan,108,,,,,170,-180,187.5,187.5,,,,,,187.5,110,M,,B
Raw,No,2,Vladimir Kovtonyuk,Pro Masters 45-49,1970,Russia,104.05,,,,,177.5,182.5,-187.5,182.5,,,,,,182.5,110,M,Владимир Ковтонюк,B
Raw,No,1,Mikhail Ischechkin,Pro Masters 50-54,1962,Russia,104.95,,,,,140,147.5,150,150,,,,,,150,110,M,Михаил Ищечкин,B
Raw,No,1,Vladimir Samoylov,Pro Open,1991,Russia,121.3,,,,,200,-207.5,-212.5,200,,,,,,200,125,M,Владимир Самойлов,B
Raw,No,1,Artem Karakulov,Pro Open,1989,Russia,136.7,,,,,180,192.5,-202.5,192.5,,,,,,192.5,140,M,Артем Каракулов,B
Multi-ply,No,1,Dmitriy Savchenko,Pro Open,1981,Russia,80.5,,,,,175,-190,,175,,,,,,175,82.5,M,Дмитрий Савченко,B
Multi-ply,No,1,Aleksandr Belov,Pro Open,1992,Russia,89.8,,,,,-200,200,222.5,222.5,,,,,,222.5,90,M,Александр Белов,B
Multi-ply,No,1,Vasiliy Synkov,Pro Open,1972,Russia,100,,,,,292.5,302.5,-307.5,302.5,,,,,,302.5,100,M,Василий Сынков,B
Multi-ply,No,2,Enver Niyaziyev,Pro Open,1989,Russia,99.95,,,,,-262.5,262.5,272.5,272.5,,,,,,272.5,100,M,Энвер Ниязиев,B
Multi-ply,No,3,Andrey Sotnikov,Pro Open,1989,Russia,99.35,,,,,200,-220,220,220,,,,,,220,100,M,Андрей Сотников,B
Multi-ply,No,4,Evgeniy Bakanov,Pro Open,1983,Russia,95.05,,,,,200,210,-220,210,,,,,,210,100,M,Евгений Баканов,B
Multi-ply,No,1,Vasiliy Synkov,Pro Masters 40-44,1972,Russia,100,,,,,292.5,302.5,-307.5,302.5,,,,,,302.5,100,M,Василий Сынков,B
Multi-ply,No,1,Ivan Vasyunin,Pro Open,1983,Russia,103.35,,,,,295,302.5,-307.5,302.5,,,,,,302.5,110,M,Иван Васюнин,B
Multi-ply,No,1,Vladimir Samoylov,Pro Open,1991,Russia,121.3,,,,,-230,230,-267.5,230,,,,,,230,125,M,Владимир Самойлов,B
Multi-ply,No,DQ,Vladimir Simonenko,Pro Masters 55-59,1960,Russia,121,,,,,-170,,,,,,,,,,125,M,Владимир Симоненко,B
Multi-ply,No,1,Artem Karakulov,Pro Open,1989,Russia,136.7,,,,,255,-270,-270,255,,,,,,255,140,M,Артем Каракулов,B
Raw,Yes,1,Galina Elchina,Amateur Masters 45-49,1968,Russia,48,,,,,,,,,90,97.5,-107.5,97.5,,97.5,48,F,Галина Ельчина,D
Raw,Yes,1,Svetlana Tolosheva,Amateur Teen 16-17,1998,Russia,51.7,,,,,,,,,105,115,-130,115,,115,52,F,Светлана Толошева,D
Raw,Yes,2,Mariya Zyryanova,Amateur Teen 18-19,1997,Russia,51.75,,,,,,,,,-77.5,-77.5,77.5,77.5,,77.5,52,F,Мария Зырянова,D
Raw,Yes,1,Evgeniya Makarenko,Amateur Juniors 20-23,1996,Russia,50.85,,,,,,,,,80,-87.5,-92.5,80,,80,52,F,Евгения Макаренко,D
Raw,Yes,1,Anna Klisch,Amateur Open,1989,Russia,51.95,,,,,,,,,110,122.5,-130,122.5,,122.5,52,F,Анна Клищ,D
Raw,Yes,2,Svetlana Sapegina,Amateur Open,1987,Russia,50.35,,,,,,,,,80,85,90,90,,90,52,F,Светлана Сапегина,D
Raw,Yes,1,Alina Ogorodnikova,Amateur Teen 18-19,1997,Russia,56,,,,,,,,,-107.5,107.5,-122.5,107.5,,107.5,56,F,Алина Огородникова,D
Raw,Yes,1,Zhanna Maretskaya,Amateur Juniors 20-23,1992,Russia,54.2,,,,,,,,,102.5,110,122.5,122.5,,122.5,56,F,Жанна Марецкая,D
Raw,Yes,1,Larisa Chernobaeva,Amateur Open,1980,Russia,54.9,,,,,,,,,137.5,147.5,-152.5,147.5,,147.5,56,F,Лариса Чернобаева,D
Raw,Yes,2,Darya Yalama,Amateur Open,1987,Russia,55.9,,,,,,,,,110,120,127.5,127.5,,127.5,56,F,Дарья Ялама,D
Raw,Yes,3,Marina Stepanova,Amateur Open,1985,Russia,55.65,,,,,,,,,90,100,107.5,107.5,,107.5,56,F,Марина Степанова,D
Raw,Yes,1,Anna Novoselova,Amateur Juniors 20-23,1992,Russia,59.75,,,,,,,,,95,105,-115,105,,105,60,F,Анна Новоселова,D
Raw,Yes,1,Kseniya Merkulova,Amateur Open,1988,Russia,59.75,,,,,,,,,117.5,127.5,135,135,,135,60,F,Ксения Меркулова,D
Raw,Yes,2,Olga Ostrovskaya,Amateur Open,1987,Russia,60,,,,,,,,,110,120,-130,120,,120,60,F,Ольга Островская,D
Raw,Yes,DQ,Aleksandra Tarkova,Amateur Open,1989,Russia,59.85,,,,,,,,,-135,-135,-145,,,,60,F,Александра Таркова,D
Raw,Yes,1,Polina Ivanova,Amateur Open,1986,Russia,62.75,,,,,,,,,135,145,-152.5,145,,145,67.5,F,Полина Иванова,D
Raw,Yes,2,Tatyana Slepokurova,Amateur Open,1969,Russia,64,,,,,,,,,120,-137.5,137.5,137.5,,137.5,67.5,F,Татьяна Слепокурова,D
Raw,Yes,1,Viktoriya Karpova,Amateur Juniors 20-23,1992,Russia,73.5,,,,,,,,,135,145,150,150,,150,75,F,Виктория Карпова,D
Raw,Yes,1,Elena Nikolenko,Amateur Open,1978,Russia,73.85,,,,,,,,,130,137.5,142.5,142.5,,142.5,75,F,Елена Николенко,D
Raw,Yes,1,Artem Komarov,Amateur Teen 14-15,2001,Russia,54.3,,,,,,,,,95,115,130,130,,130,56,M,Артем Комаров,D
Raw,Yes,1,Konstantin Dorosh,Amateur Teen 14-15,2001,Russia,63.8,,,,,,,,,-155,155,-167.5,155,,155,67.5,M,Константин Дорош,D
Raw,Yes,1,Georgiy Rostovtsev,Amateur Teen 16-17,1998,Russia,66.8,,,,,,,,,167.5,180,-192.5,180,,180,67.5,M,Георгий Ростовцев,D
Raw,Yes,2,Egor Chuykov,Amateur Teen 16-17,1998,Russia,64.8,,,,,,,,,155,167.5,172.5,172.5,,172.5,67.5,M,Егор Чуйков,D
Raw,Yes,1,Timofey Ishimov,Amateur Open,1990,Russia,67,,,,,,,,,200,210,-220,210,,210,67.5,M,Тимофей Ишимов,D
Raw,Yes,2,Andrey Kolbin,Amateur Open,1984,Russia,66.3,,,,,,,,,180,192.5,-200,192.5,,192.5,67.5,M,Андрей Колбин,D
Raw,Yes,3,Sholban Darzhay,Amateur Open,1986,Russia,66.75,,,,,,,,,160,-192.5,192.5,192.5,,192.5,67.5,M,Шолбан Даржай,D
Raw,Yes,1,Pavel Ardyshev,Amateur Juniors 20-23,1994,Russia,74.4,,,,,,,,,225,235,-240,235,,235,75,M,Павел Ардышев,D
Raw,Yes,2,Gennadiy Zateev,Amateur Juniors 20-23,1993,Russia,73.5,,,,,,,,,160,170,180,180,,180,75,M,Геннадий Затеев,D
Raw,Yes,1,Pavel Kozlov,Amateur Open,1992,Russia,74.95,,,,,,,,,190,205,-212.5,205,,205,75,M,Павел Козлов,D
Raw,Yes,1,Artem Eres,Amateur Open,1989,Russia,81.8,,,,,,,,,200,220,-247.5,220,,220,82.5,M,Артем Ересь,D
Raw,Yes,1,Nikolay Efanov,Amateur Masters 55-59,1958,Russia,82.5,,,,,,,,,180,200,-210,200,,200,82.5,M,Николай Ефанов,D
Raw,Yes,1,Maksim Kotov,Amateur Teen 18-19,1996,Russia,88.05,,,,,,,,,200,215,-225,215,,215,90,M,Максим Котов,D
Raw,Yes,2,Denis Rudenskikh,Amateur Teen 16-17,1998,Russia,83.45,,,,,,,,,170,190,197.5,197.5,,197.5,90,M,Денис Руденских,D
Raw,Yes,3,Stanislav Letnikov,Amateur Teen 16-17,1999,Russia,88.85,,,,,,,,,170,185,-197.5,185,,185,90,M,Станислав Летников,D
Raw,Yes,1,Grigoriy Agarkov,Amateur Open,1978,Russia,89.25,,,,,,,,,235,-247.5,-247.5,235,,235,90,M,Григорий Агарков,D
Raw,Yes,2,Konstantin Melder,Amateur Open,1978,Russia,88.55,,,,,,,,,205,215,-225,215,,215,90,M,Константин Мельдер,D
Raw,Yes,3,Dmitriy Shaldin,Amateur Open,1983,Russia,89.5,,,,,,,,,200,215,-225,215,,215,90,M,Дмитрий Шалдин,D
Raw,Yes,1,Evgeniy Svoboda,Amateur Masters 40-44,1972,Russia,90,,,,,,,,,180,210,220,220,,220,90,M,Евгений Свобода,D
Raw,Yes,1,Dmitriy Malakhovskiy,Amateur Open,1981,Russia,91.5,,,,,,,,,110,230,-247.5,230,,230,100,M,Дмитрий Малаховский,D
Raw,Yes,1,Mikhail Ovsyannikov,Amateur Open,1985,Russia,109.85,,,,,,,,,210,232.5,-240,232.5,,232.5,110,M,Михаил Овсянников,D
Raw,Yes,2,Sergey Kozlov,Amateur Open,1975,Russia,108.7,,,,,,,,,170,180,190,190,,190,110,M,Сергей Козлов,D
Raw,Yes,1,Anton Andreev,Amateur Open,1983,Russia,118.55,,,,,,,,,140,155,165,165,,165,125,M,Антон Андреев,D
Raw,Yes,1,Sergey Kurakov,Amateur Masters 40-44,1971,Russia,133.45,,,,,,,,,140,160,,160,,160,140,M,Сергей Кураков,D
Multi-ply,Yes,1,Polina Goryachkina,Amateur Juniors 20-23,1996,Russia,52,,,,,,,,,100,110,120,120,,120,52,F,Полина Горячкина,D
Multi-ply,Yes,1,Aleksandra Ezhova,Amateur Juniors 20-23,1996,Russia,57.65,,,,,,,,,90,100,-110,100,,100,60,F,Александра Ежова,D
Multi-ply,Yes,1,Aleksandra Ezhova,Amateur Open,1996,Russia,57.65,,,,,,,,,90,100,-110,100,,100,60,F,Александра Ежова,D
Multi-ply,Yes,1,Aleksandr Mamaev,Amateur Open,1985,Russia,59.6,,,,,,,,,110,-125,125,125,,125,60,M,Александр Мамаев,D
Multi-ply,Yes,1,Maksim Kovalev,Amateur Open,1987,Russia,65.4,,,,,,,,,190,205,212.5,212.5,,212.5,67.5,M,Максим Ковалев,D
Multi-ply,Yes,1,Maksim Velichenko,Amateur Open,1985,Russia,73.9,,,,,,,,,-190,190,207.5,207.5,,207.5,75,M,Максим Величенко,D
Multi-ply,Yes,1,Artem Bykhovets,Amateur Open,1983,Russia,82.2,,,,,,,,,232.5,257.5,-282.5,257.5,,257.5,82.5,M,Артем Быховец,D
Multi-ply,Yes,2,Sergey Fedoseev,Amateur Open,1982,Russia,79.85,,,,,,,,,160,175,180,180,,180,82.5,M,Сергей Федосеев,D
Multi-ply,Yes,1,Evgeniy Svoboda,Amateur Open,1972,Russia,90,,,,,,,,,210,235,255,255,,255,90,M,Евгений Свобода,D
Multi-ply,Yes,2,Dmitriy Shaldin,Amateur Open,1983,Russia,89.5,,,,,,,,,190,200,210,210,,210,90,M,Дмитрий Шалдин,D
Multi-ply,Yes,1,Evgeniy Svoboda,Amateur Masters 40-44,1972,Russia,90,,,,,,,,,210,235,255,255,,255,90,M,Евгений Свобода,D
Multi-ply,Yes,1,Oleg Ovcharenko,Amateur Open,1991,Russia,91.2,,,,,,,,,-170,170,180,180,,180,100,M,Олег Овчаренко,D
Raw,No,1,Andrey Dostovalov,Pro Teen 18-19,1997,Russia,65.55,,,,,,,,,155,175,185,185,,185,67.5,M,Андрей Достовалов,D
Raw,No,1,Nikolay Emelyanov #2,Pro Masters 50-54,1963,Russia,65.9,,,,,,,,,150,165,170,170,171,170,67.5,M,Николай Емельянов,D
Raw,No,1,Anton Dubasov,Pro Open,1989,Russia,73.6,,,,,,,,,190,-200,202.5,202.5,,202.5,75,M,Антон Дубасов,D
Raw,No,1,Aleksandr Yushkov,Pro Open,1983,Russia,81.2,,,,,,,,,255,270,280,280,,280,82.5,M,Александр Юшков,D
Raw,No,1,Maksim Gorbachev,Pro Open,1989,Russia,88.75,,,,,,,,,225,-250,250,250,,250,90,M,Максим Горбачев,D
Raw,No,2,Ignat Salnikov,Pro Open,1991,Russia,89.45,,,,,,,,,230,240,-250,240,,240,90,M,Игнат Сальников,D
Raw,No,1,Grigoriy Komlichenko,Pro Open,1984,Russia,94,,,,,,,,,250,-270,-282.5,250,,250,100,M,Григорий Комличенко,D
Multi-ply,No,1,Aleksandr Fedorov,Pro Juniors 20-23,1994,Russia,70.9,,,,,,,,,190,-205,-210,190,,190,75,M,Александр Федоров,D
Multi-ply,No,1,Aleksandr Fedorov,Pro Open,1994,Russia,70.9,,,,,,,,,190,-205,-210,190,,190,75,M,Александр Федоров,D
Multi-ply,No,1,Vladimir Luschay,Pro Open,1975,Russia,85.4,,,,,,,,,240,-250,250,250,260,250,90,M,Владимир Лущай,D
Multi-ply,No,2,Dmitriy Goryachkin,Pro Open,1990,Russia,86.3,,,,,,,,,-230,240,-260,240,,240,90,M,Дмитрий Горячкин,D
Multi-ply,No,1,Vladimir Luschay,Pro Masters 40-44,1975,Russia,85.4,,,,,,,,,240,-250,250,250,260,250,90,M,Владимир Лущай,D
Multi-ply,No,1,Enver Niyaziyev,Pro Open,1989,Russia,98.7,,,,,,,,,250,270,-280,270,,270,100,M,Энвер Ниязиев,D
