Equipment,Tested,Place,Name,Division,BirthYear,Country,BodyweightKg,Bench1Kg,Bench2Kg,Bench3Kg,Best3BenchKg,WeightClassKg,Sex,CyrillicName,Deadlift1Kg,Deadlift2Kg,Deadlift3Kg,Best3DeadliftKg,Squat1Kg,Squat2Kg,Squat3Kg,Best3SquatKg,TotalKg,Event
Raw,No,1,Igor Povazhnyuk,M1,1974,Ukraine,82.3,170,192.5,,192.5,82.5,M,Ігор Поважнюк,,,,,,,,,192.5,B
Raw,No,1,Davlet Bekniyazov,O,1985,Ukraine,90,150,160,,160,90,M,Давлет Бекніязов,,,,,,,,,160,B
Raw,No,DQ,Andriy Suprun,M2,1971,Ukraine,90,-160,-165,-165,,90,M,Андрій Супрун,,,,,,,,,,B
Raw,No,1,Nikolay Vasilenko,J,1995,Ukraine,103,140,-145,-145,140,110,M,Николай Василенко,,,,,,,,,140,B
Raw,No,1,Igor Viplaven,O,1991,Ukraine,109.5,190,-195,-195,190,110,M,Ігор Виплавень,,,,,,,,,190,B
Raw,No,1,Ivan Dubrovskyy,O,1984,Ukraine,111,150,160,-170,160,125,M,Іван Дубровський,,,,,,,,,160,B
Raw,No,1,Yuliya Fesenko,O,1982,Ukraine,52,,,,,52,F,Юлия Фесенко,100,105,110,110,,,,,110,D
Raw,No,1,Imran Ikbal,O,1985,Ukraine,82.3,,,,,82.5,M,Имран Икбал,160,165,170,170,,,,,170,D
Raw,No,1,Roman Medvedchuk,O,1981,Ukraine,90,,,,,90,M,Роман Медведчук,230,240,250,250,,,,,250,D
Raw,Yes,1,Yuliya Pshezemirskaya,O,1982,Ukraine,57,40,45,-50,45,60,F,Юлия Пшеземирская,,,,,,,,,45,B
Raw,Yes,1,Arseniy Vulitskiy,T1,2003,Ukraine,68,50,55,65,65,75,M,Арсеній Вулицький,,,,,,,,,65,B
Raw,Yes,1,Petr Savenok,O,1986,Ukraine,79.2,-150,-155,155,155,82.5,M,Петр Савенок,,,,,,,,,155,B
Raw,Yes,1,Andriy Kusyaka,O,1991,Ukraine,88.3,125,-132.5,-132.5,125,90,M,Андрій Кусяка,,,,,,,,,125,B
Raw,Yes,DQ,Ruslan Yakusha,J,1997,Ukraine,92.5,-130,-130,-130,,100,M,Руслан Якуша,,,,,,,,,,B
Raw,Yes,1,Vitaliy Zinchenko,O,1980,Ukraine,95.7,-175,180,185,185,100,M,Віталій Зінченко,,,,,,,,,185,B
Raw,Yes,1,Dmitriy Kovalenko #5,J,1994,Ukraine,104.2,-140,152.5,-160,152.5,110,M,Дмитрий Коваленко,,,,,,,,,152.5,B
Raw,Yes,1,Anatoliy Gavrish,M1,1973,Ukraine,115,130,137.5,145,145,125,M,Анатолій Гавриш,,,,,,,,,145,B
Raw,Yes,1,Marina Kostenko,O,1985,Ukraine,67.1,,,,,67.5,F,Марина Костенко,-100,105,115,115,,,,,115,D
Raw,Yes,1,Ivan Polischuk,J,1996,Ukraine,74.5,,,,,75,M,Иван Полищук,145,-155,157.5,157.5,,,,,157.5,D
Raw,Yes,2,Oleksiy Kotov,J,1996,Ukraine,75,,,,,75,M,Олексій Котов,135,,,135,,,,,135,D
Raw,Yes,1,Nazar Ermakov,O,1988,Ukraine,73.8,,,,,75,M,Назар Ермаков,-160,160,170,170,,,,,170,D
Raw,Yes,1,Oleksandr Zozulya,J,1995,Ukraine,99,,,,,100,M,Олександр Зозуля,200,207.5,-212.5,207.5,,,,,207.5,D
Wraps,Yes,1,Lyubava Ostapets,O,1988,Ukraine,60,45,-47.5,-50,45,60,F,Любава Остапец,-110,110,115,115,80,87.5,-92.5,87.5,247.5,SBD
Wraps,Yes,1,Irina Gubenko,O,1987,Ukraine,67.3,55,-60,-65,55,67.5,F,Ирина Губенко,110,115,120,120,100,110,-120,110,285,SBD
Wraps,Yes,1,Gyulmira Stelmak,J,1996,Ukraine,68.7,50,-57.5,-57.5,50,75,F,Гюльміра Стельмак,100,105,-110,105,100,110,120,120,275,SBD
Wraps,Yes,1,Anton Novoseltsev,O,1978,Ukraine,67,80,-85,-85,80,67.5,M,Антон Новосельцев,110,115,120,120,90,100,110,110,310,SBD
Wraps,Yes,1,Nikolay Chigvintsev,T2,2001,Ukraine,74.4,82.5,87.5,-90,87.5,75,M,Николай Чигвинцев,105,115,122.5,122.5,90,100,110,110,320,SBD
Wraps,Yes,1,Dmitriy Rogozhnikov,O,1985,Ukraine,75,110,115,120,120,75,M,Дмитрий Рогожников,220,230,235,235,200,210,-220,210,565,SBD
Wraps,Yes,2,Vadim Doroshenko,O,1990,Ukraine,74.3,90,100,105,105,75,M,Вадим Дорошенко,-160,170,180,180,150,160,170,170,455,SBD
Wraps,Yes,1,Nikolay Rudyy,T2,2000,Ukraine,88.1,90,97.5,100,100,90,M,Николай Рудый,130,140,155,155,130,140,150,150,405,SBD
Wraps,Yes,1,Taras Dubrova,J,1994,Ukraine,89.5,127.5,135,-140,135,90,M,Тарас Дуброва,202.5,215,220,220,210,225,235,235,590,SBD
Wraps,Yes,1,Denis Pshevarskiy,M1,1975,Ukraine,89.7,110,-120,125,125,90,M,Денис Пшеварский,180,195,-200,195,180,190,205,205,525,SBD
Wraps,Yes,DQ,Vladislav Barsukov,J,1995,Ukraine,116.9,-180,-180,-185,,125,M,Владислав Барсуков,,,,,210,-225,-225,210,,SBD
Wraps,No,1,Mikhaylo Grischenko,O,1991,Ukraine,75,120,-130,-130,120,75,M,Михайло Грищенко,200,220,-230,220,-180,190,220,220,560,SBD
Wraps,No,DQ,Imrak Ikbal,O,1985,Ukraine,82.5,-140,-140,-140,,82.5,M,Имрак Икбал,,,,,140,150,160,160,,SBD
Wraps,No,1,Mikhaylo Bespalov,J,1997,Ukraine,89.7,130,-140,-140,130,90,M,Михайло Беспалов,180,190,-200,190,170,180,-190,180,500,SBD
Wraps,No,1,Denis Bragin #1,O,1993,Ukraine,84.4,137.5,142.5,-147.5,142.5,90,M,Денис Брагін,237.5,-245,245,245,230,242.5,250,250,637.5,SBD
Wraps,No,2,Taras Ganzha,O,1987,Ukraine,90,130,142.5,-152.5,142.5,90,M,Тарас Ганжа,220,235,250,250,215,-230,240,240,632.5,SBD
Wraps,No,1,Vladimir Melnik,M1,1976,Ukraine,92,120,-130,-130,120,100,M,Владимир Мельник,180,-190,200,200,170,190,-200,190,510,SBD
Wraps,No,1,Sergey Krokhmalnyy,O,1985,Ukraine,102,150,155,-160,155,110,M,Сергей Крохмальный,220,235,-250,235,210,-225,-225,210,600,SBD
Wraps,No,1,Oleksandr Desyatskiy,M1,1976,Ukraine,128.5,200,210,-215,210,140,M,Олександр Десяцький,240,260,280,280,240,250,255,255,745,SBD
